timestamp(unix),attitude_roll(radians),attitude_pitch(radians),attitude_yaw(radians),rotation_rate_x(radians/s),rotation_rate_y(radians/s),rotation_rate_z(radians/s),gravity_x(G),gravity_y(G),gravity_z(G),user_acc_x(G),user_acc_y(G),user_acc_z(G),magnetic_field_x(microteslas),magnetic_field_y(microteslas),magnetic_field_z(microteslas),latitude(degree),longitude(degree),altitude(meter),speed(m/s),course(degree),timestamp(unix),User Mark
1525956092.144200,-1.446539,1.189615,0.738840,-0.033938,-0.026617,-0.009397,-0.369149,-0.928226,-0.046107,0.040841,0.012622,-0.005590,-11.022545,-43.076248,14.110815,,,,,,,
1525956092.164175,-1.445543,1.191107,0.736464,-0.030904,-0.071014,-0.000215,-0.367729,-0.928780,-0.046302,-0.007546,-0.009270,-0.009301,-11.516741,-43.018627,18.577114,,,,,,,
1525956092.184188,-1.445557,1.190924,0.734860,-0.027703,-0.065736,0.006244,-0.367897,-0.928712,-0.046318,-0.025169,0.009980,-0.007561,-11.497294,-43.026730,18.570393,,,,,,,
1525956092.204175,-1.445700,1.190015,0.734112,-0.012698,-0.035164,0.004415,-0.368742,-0.928374,-0.046370,-0.007662,0.005431,-0.000520,-11.512009,-43.027336,18.559864,,,,,,,
,,,,,,,,,,,,,,,,50.059691,19.920355,201.911209,0.000000,298.125000,1525956058.999873,
1525956092.224136,-1.445523,1.190046,0.732965,-0.020157,-0.041480,-0.004192,-0.368705,-0.928386,-0.046432,0.003226,0.017925,0.008789,-11.493236,-43.035530,18.552502,,,,,,,
,,,,,,,,,,,,,,,,50.059780,19.920305,201.911392,-1.000000,-1.000000,1525956086.861944,
1525956092.244151,-1.445312,1.189986,0.732271,-0.009436,-0.016162,0.000329,-0.368750,-0.928364,-0.046517,0.005988,0.012562,0.007119,-11.484426,-43.040470,18.546503,,,,,,,
1525956092.264116,-1.444658,1.189958,0.731476,-0.011492,0.006046,0.000540,-0.368746,-0.928353,-0.046761,-0.004255,0.003640,-0.002738,-11.478909,-43.045361,18.538582,,,,,,,
1525956092.284108,-1.443971,1.190043,0.731042,-0.008243,0.019759,-0.006800,-0.368635,-0.928385,-0.047005,-0.006899,0.004282,-0.001579,-11.480039,-43.050640,18.525606,,,,,,,
1525956092.304089,-1.442520,1.189847,0.730153,-0.003956,0.031372,-0.001347,-0.368747,-0.928312,-0.047563,0.002079,0.008146,-0.002486,-11.493762,-43.054821,18.507362,,,,,,,
1525956092.324100,-1.441709,1.189554,0.729951,0.000286,0.027123,-0.000315,-0.368978,-0.928203,-0.047897,-0.004588,0.004390,-0.003007,-11.508479,-43.055790,18.495962,,,,,,,
1525956092.344090,-1.440732,1.189451,0.729537,-0.000761,0.029232,-0.007769,-0.369026,-0.928165,-0.048270,0.003945,0.006976,-0.001230,-11.536819,-43.055721,18.478447,,,,,,,
1525956092.364055,-1.439602,1.189960,0.729015,-0.001846,0.026076,-0.001396,-0.368503,-0.928354,-0.048625,0.009570,0.004968,-0.001058,-11.530418,-43.062183,18.467384,,,,,,,
1525956092.384036,-1.438089,1.190462,0.727929,-0.008260,0.014471,-0.008987,-0.367966,-0.928541,-0.049121,0.009126,-0.000170,-0.003232,-11.521553,-43.071568,18.451036,,,,,,,
1525956092.404053,-1.437304,1.190882,0.727262,-0.010416,0.006024,-0.010138,-0.367542,-0.928696,-0.049358,0.004780,0.007157,0.001186,-11.499052,-43.085346,18.432896,,,,,,,
1525956092.424023,-1.436969,1.190935,0.727099,-0.005075,0.013402,-0.005792,-0.367477,-0.928716,-0.049474,0.001739,0.007482,0.003438,-11.495208,-43.088779,18.427271,,,,,,,
1525956092.444027,-1.436049,1.191057,0.726509,-0.006133,0.016581,-0.003628,-0.367318,-0.928761,-0.049797,0.003106,0.002858,-0.003777,-11.496338,-43.090355,18.422874,,,,,,,
1525956092.464016,-1.435189,1.191387,0.725926,-0.008263,0.014472,-0.007921,-0.366971,-0.928884,-0.050071,0.007825,0.002752,0.000572,-11.494026,-43.098507,18.405241,,,,,,,
,,,,,,,,,,,,,,,,50.059898,19.920239,201.911392,-1.000000,-1.000000,1525956092.411752,
1525956092.484004,-1.434372,1.191548,0.725195,-0.010447,-0.000309,-0.003794,-0.366783,-0.928943,-0.050351,-0.000969,0.002811,-0.000842,-11.479977,-43.105846,18.396828,,,,,,,
,,,,,,,,,,,,,,,,50.059898,19.920239,201.911392,-1.000000,-1.000000,1525956092.447237,
1525956092.503990,-1.434110,1.191653,0.724983,-0.006146,0.010231,-0.009028,-0.366673,-0.928982,-0.050434,0.002095,-0.000080,0.002292,-11.481833,-43.108932,18.388435,,,,,,,
1525956092.523979,-1.433385,1.191646,0.724499,-0.006133,0.014459,-0.008987,-0.366643,-0.928979,-0.050700,-0.003398,0.005151,-0.002507,-11.476480,-43.113323,18.381472,,,,,,,
,,,,,,,,,,,,,,,,50.059899,19.920239,201.911392,-1.000000,-1.000000,1525956092.525699,
1525956092.543967,-1.432132,1.191783,0.723783,-0.001831,0.028177,-0.008852,-0.366453,-0.929030,-0.051142,0.005903,0.008391,-0.001699,-11.486134,-43.118443,18.363430,,,,,,,
1525956092.563954,-1.431548,1.192002,0.723600,-0.001865,0.018667,-0.006809,-0.366221,-0.929111,-0.051328,0.005488,0.005909,0.000943,-11.485258,-43.122135,18.355305,,,,,,,
,,,,,,,,,,,,,,,,50.059899,19.920239,201.911392,-1.000000,-1.000000,1525956092.529955,
1525956092.583917,-1.431274,1.192138,0.723613,-0.001879,0.013379,-0.008994,-0.366082,-0.929161,-0.051411,0.000848,0.006233,0.001194,-11.481578,-43.124996,18.350887,,,,,,,
1525956092.603930,-1.431008,1.192262,0.723650,-0.000789,0.019710,-0.012136,-0.365954,-0.929207,-0.051492,-0.001905,0.007332,0.004159,-11.479509,-43.127663,18.345911,,,,,,,
1525956092.623903,-1.430597,1.192391,0.723622,-0.000788,0.019708,-0.013203,-0.365814,-0.929255,-0.051626,-0.002594,0.001246,-0.000926,-11.481459,-43.126511,18.347404,,,,,,,
1525956092.643881,-1.429620,1.192426,0.722987,-0.003959,0.019657,-0.012096,-0.365731,-0.929268,-0.051978,-0.001212,0.011223,-0.000741,-11.483590,-43.130783,18.336018,,,,,,,
1525956092.663871,-1.429201,1.192610,0.722940,0.001358,0.017513,-0.013180,-0.365540,-0.929336,-0.052108,0.002137,0.011230,0.001067,-11.486879,-43.133625,18.327261,,,,,,,
1525956092.683872,-1.428872,1.192911,0.722909,0.000293,0.015398,-0.017472,-0.365246,-0.929447,-0.052188,0.006421,0.002521,0.004581,-11.483463,-43.135185,18.325739,,,,,,,
1525956092.703847,-1.428556,1.193533,0.722789,-0.005060,0.006973,-0.015423,-0.364657,-0.929676,-0.052222,0.001636,0.000813,0.001730,-11.464525,-43.141331,18.323133,,,,,,,
1525956092.723829,-1.427930,1.193850,0.722241,-0.007187,0.006982,-0.016492,-0.364333,-0.929793,-0.052408,0.002242,0.002806,-0.000006,-11.450775,-43.146267,18.320114,,,,,,,
1525956092.743843,-1.427278,1.194045,0.721747,-0.003980,0.011193,-0.016449,-0.364119,-0.929865,-0.052619,-0.004793,0.004709,-0.000557,-11.442640,-43.152546,18.310394,,,,,,,
1525956092.763815,-1.426271,1.194256,0.721122,-0.005028,0.017544,-0.014254,-0.363872,-0.929942,-0.052958,0.009624,0.006419,-0.003591,-11.437311,-43.159161,18.298126,,,,,,,
1525956092.783819,-1.425151,1.194850,0.720273,-0.008241,0.012277,-0.013240,-0.363266,-0.930160,-0.053286,0.018555,0.006317,-0.001432,-11.432344,-43.165058,18.287321,,,,,,,
1525956092.803806,-1.424416,1.195441,0.719630,-0.010389,0.005945,-0.014372,-0.362682,-0.930378,-0.053472,0.014995,0.002353,0.004491,-11.394811,-43.179474,18.276714,,,,,,,
,,,,,,,,,,,,,,,,50.059862,19.920269,203.172592,-1.000000,-1.000000,1525956092.682186,
1525956092.823796,-1.424796,1.195847,0.720045,-0.000802,0.008009,-0.013277,-0.362329,-0.930526,-0.053279,-0.009391,0.002060,0.005931,-11.374329,-43.186192,18.273602,,,,,,,
1525956092.843783,-1.424541,1.195856,0.720066,0.001355,0.017514,-0.011048,-0.362307,-0.930530,-0.053370,-0.010969,0.001086,0.001704,-11.370034,-43.185238,18.278517,,,,,,,
1525956092.863769,-1.423972,1.195791,0.720096,0.006725,0.031224,-0.013047,-0.362337,-0.930506,-0.053586,-0.011702,0.008615,-0.004642,-11.391665,-43.182129,18.272400,,,,,,,
1525956092.883758,-1.422940,1.195876,0.719788,0.003540,0.033352,-0.015164,-0.362202,-0.930537,-0.053947,0.003712,0.009013,-0.002678,-11.401676,-43.182201,18.265976,,,,,,,
1525956092.903729,-1.421712,1.196633,0.719144,-0.002880,0.022814,-0.016339,-0.361439,-0.930814,-0.054288,0.013844,0.006558,0.001111,-11.392483,-43.190010,18.253254,,,,,,,
1525956092.923709,-1.421314,1.197080,0.718968,-0.005058,0.006966,-0.018628,-0.361007,-0.930977,-0.054370,0.006774,0.003212,0.004290,-11.377272,-43.197716,18.244509,,,,,,,
1525956092.943722,-1.421322,1.197235,0.719149,0.002418,0.015386,-0.016406,-0.360864,-0.931034,-0.054345,-0.008444,0.004230,-0.000647,-11.352977,-43.203014,18.247089,,,,,,,
1525956092.963695,-1.421336,1.197289,0.719677,0.009910,0.030152,-0.010919,-0.360815,-0.931053,-0.054333,-0.005777,0.009087,0.003994,-11.357895,-43.202229,18.245892,,,,,,,
1525956092.983696,-1.420932,1.197693,0.720068,0.007814,0.038615,-0.014044,-0.360421,-0.931201,-0.054422,0.006829,0.006854,0.002085,-11.369057,-43.198395,18.248018,,,,,,,
1525956093.003685,-1.419801,1.198421,0.719724,0.003551,0.036520,-0.016204,-0.359689,-0.931466,-0.054728,0.012232,0.004159,-0.001668,-11.357491,-43.202740,18.244928,,,,,,,
1525956093.023650,-1.418766,1.199162,0.719308,0.001382,0.023845,-0.017396,-0.358951,-0.931735,-0.054996,0.005374,0.002139,-0.002316,-11.332981,-43.213882,18.233772,,,,,,,
1525956093.043637,-1.418155,1.199579,0.718936,-0.001876,0.003777,-0.018659,-0.358532,-0.931887,-0.055156,0.005154,0.004183,-0.000264,-11.323443,-43.219273,18.226933,,,,,,,
1525956093.063649,-1.417780,1.199749,0.718556,-0.005093,-0.002545,-0.016586,-0.358355,-0.931948,-0.055266,-0.004972,0.006502,-0.000673,-11.310875,-43.224667,18.221943,,,,,,,
1525956093.083630,-1.417458,1.199912,0.718118,-0.006160,-0.003598,-0.017664,-0.358187,-0.932007,-0.055358,-0.001462,0.011643,-0.001893,-11.297537,-43.230209,18.217068,,,,,,,
1525956093.103595,-1.417221,1.200126,0.717793,-0.004026,-0.002554,-0.018720,-0.357977,-0.932085,-0.055413,0.001685,0.009294,0.002831,-11.292097,-43.234173,18.211042,,,,,,,
1525956093.123590,-1.417381,1.200711,0.717863,-0.001902,-0.004682,-0.019807,-0.357447,-0.932297,-0.055272,0.004496,0.003723,0.001561,-11.266371,-43.238579,18.216505,,,,,,,
1525956093.143590,-1.417127,1.201146,0.717523,-0.002958,-0.003624,-0.023001,-0.357032,-0.932454,-0.055301,0.002021,0.003911,-0.000073,-11.266371,-43.238579,18.216505,,,,,,,
1525956093.163575,-1.416752,1.201315,0.717089,-0.002940,0.000599,-0.026162,-0.356855,-0.932515,-0.055411,-0.005129,0.005559,-0.004083,-11.233931,-43.247288,18.215866,,,,,,,
1525956093.183554,-1.416325,1.201681,0.716698,-0.000808,0.002705,-0.024005,-0.356494,-0.932647,-0.055510,0.000217,0.007186,0.001448,-11.216938,-43.255970,18.205719,,,,,,,
1525956093.203562,-1.416129,1.202255,0.716493,-0.000817,-0.000468,-0.025103,-0.355955,-0.932854,-0.055498,0.003401,0.002663,0.003786,-11.213921,-43.256462,18.206406,,,,,,,
1525956093.223526,-1.415739,1.203105,0.716157,-0.001860,0.006940,-0.022899,-0.355149,-0.933160,-0.055514,0.011903,0.001855,0.001178,-11.183975,-43.264175,18.206505,,,,,,,
1525956093.243521,-1.415400,1.203972,0.715968,0.002399,0.006916,-0.023966,-0.354331,-0.933471,-0.055509,0.010810,0.006698,0.000684,-11.131496,-43.277382,18.207277,,,,,,,
1525956093.263525,-1.415328,1.204509,0.716083,0.006657,0.007953,-0.021817,-0.353832,-0.933663,-0.055457,0.004299,0.003076,0.000754,-11.118700,-43.280472,18.207752,,,,,,,
1525956093.283511,-1.415126,1.205023,0.716131,0.008792,0.011118,-0.018583,-0.353347,-0.933847,-0.055454,0.004210,-0.001806,-0.007458,-11.088278,-43.287212,18.210268,,,,,,,
1525956093.303488,-1.414500,1.205140,0.715678,0.003441,0.001628,-0.021880,-0.353204,-0.933889,-0.055658,-0.001410,0.011740,-0.004217,-11.075412,-43.291008,18.209078,,,,,,,
1525956093.323488,-1.414195,1.205598,0.715076,-0.009428,-0.027903,-0.023241,-0.352764,-0.934053,-0.055699,0.001965,0.004091,-0.002955,-11.079506,-43.292023,18.204174,,,,,,,
1525956093.343448,-1.414366,1.206039,0.714495,-0.005194,-0.034264,-0.021163,-0.352367,-0.934210,-0.055575,-0.000004,-0.003427,0.001818,-11.036405,-43.304024,18.201813,,,,,,,
1525956093.363448,-1.414507,1.206482,0.714131,-0.000875,-0.016321,-0.023123,-0.351966,-0.934368,-0.055461,0.008720,0.012524,-0.000356,-11.001875,-43.311043,18.206013,,,,,,,
1525956093.383450,-1.414315,1.207370,0.713704,-0.002996,-0.013136,-0.020961,-0.351135,-0.934684,-0.055399,0.025238,0.008934,0.000269,-10.974569,-43.317196,18.207863,,,,,,,
1525956093.403437,-1.413900,1.208325,0.712716,-0.008415,-0.037403,-0.010524,-0.350231,-0.935023,-0.055405,0.033550,-0.000478,-0.004363,-10.907974,-43.335735,18.203775,,,,,,,
1525956093.423427,-1.412479,1.210441,0.710470,-0.019121,-0.048951,0.004294,-0.348197,-0.935772,-0.055591,0.073920,-0.016697,-0.007199,-10.791777,-43.369057,18.193659,,,,,,,
1525956093.443414,-1.411879,1.210490,0.708525,-0.046847,-0.075268,-0.020536,-0.348118,-0.935789,-0.055793,0.092869,-0.034319,-0.007745,-10.770560,-43.379070,18.182356,,,,,,,
1525956093.463401,-1.408637,1.213613,0.703592,-0.042544,-0.075335,-0.051506,-0.345049,-0.936886,-0.056449,0.100192,-0.061070,-0.019220,-10.745583,-43.390583,18.169668,,,,,,,
1525956093.483390,-1.406264,1.213752,0.700093,-0.066974,-0.029660,0.012971,-0.344786,-0.936934,-0.057246,0.139250,-0.037889,0.006587,-10.557271,-43.461899,18.109495,,,,,,,
1525956093.503369,-1.402832,1.216560,0.696278,-0.060627,0.001102,0.108272,-0.341993,-0.937912,-0.057989,0.187604,0.017257,0.018621,-10.588750,-43.475876,18.057508,,,,,,,
1525956093.523363,-1.401236,1.213843,0.694058,-0.069368,-0.066554,0.126883,-0.344410,-0.936966,-0.058965,0.125401,-0.017578,0.022069,-10.480501,-43.510727,18.036703,,,,,,,
1525956093.543354,-1.399825,1.210557,0.689927,-0.103718,-0.165774,0.099218,-0.347358,-0.935813,-0.059974,-0.020882,0.034751,-0.005410,-10.570531,-43.514492,17.974972,,,,,,,
1525956093.563332,-1.400266,1.208364,0.685940,-0.070882,-0.214567,0.100913,-0.349407,-0.935037,-0.060169,-0.129979,0.077570,-0.017925,-10.617849,-43.520893,17.931536,,,,,,,
1525956093.583327,-1.402798,1.205916,0.684687,-0.029213,-0.158735,0.120698,-0.351813,-0.934167,-0.059666,-0.160241,0.049508,-0.044750,-10.635037,-43.522064,17.918507,,,,,,,
1525956093.603316,-1.405038,1.203486,0.684333,-0.026981,-0.128096,0.118858,-0.354184,-0.933297,-0.059253,-0.101291,0.037484,-0.016523,-10.700067,-43.502892,17.926346,,,,,,,
1525956093.623304,-1.407635,1.201471,0.683953,-0.004676,-0.155737,0.090852,-0.356192,-0.932571,-0.058638,-0.058953,0.034118,-0.003618,-10.734545,-43.493752,17.927910,,,,,,,
1525956093.643290,-1.411851,1.199731,0.685322,0.009184,-0.150530,0.087710,-0.358037,-0.931942,-0.057392,-0.025843,0.016964,0.001789,-10.760294,-43.474575,17.958954,,,,,,,
1525956093.663280,-1.417443,1.198142,0.687765,0.057053,-0.164536,0.079073,-0.359816,-0.931364,-0.055615,-0.014223,0.029936,-0.005694,-10.784435,-43.442741,18.021397,,,,,,,
1525956093.683267,-1.423994,1.197046,0.692009,0.056181,-0.118069,0.066751,-0.361182,-0.930965,-0.053407,-0.046456,0.032680,-0.001464,-10.793106,-43.403122,18.111456,,,,,,,
1525956093.703229,-1.429753,1.195797,0.695605,0.065773,-0.111770,0.072157,-0.362635,-0.930508,-0.051489,-0.028982,0.017193,-0.000299,-10.804670,-43.377617,18.165577,,,,,,,
1525956093.723242,-1.435368,1.194551,0.699433,0.048766,-0.103221,0.074361,-0.364066,-0.930051,-0.049609,-0.002862,-0.011691,-0.032545,-10.820462,-43.348339,18.225967,,,,,,,
1525956093.743207,-1.437268,1.193722,0.699129,0.013520,-0.136855,0.077210,-0.364924,-0.929746,-0.049019,0.024897,-0.005572,-0.025810,-10.851396,-43.306679,18.306438,,,,,,,
1525956093.763216,-1.441229,1.191954,0.700677,0.025272,-0.111509,0.104153,-0.366745,-0.929093,-0.047786,0.044906,0.008683,-0.024953,-10.845830,-43.305134,18.313387,,,,,,,
1525956093.783179,-1.441746,1.192211,0.699388,0.026280,-0.119943,0.121144,-0.366532,-0.929189,-0.047566,0.099732,0.020894,-0.032162,-10.915671,-43.262897,18.371618,,,,,,,
1525956093.803192,-1.445221,1.189750,0.699110,-0.051852,-0.246366,0.126277,-0.368963,-0.928276,-0.046578,0.094839,-0.014412,0.029534,-10.853987,-43.285191,18.355652,,,,,,,
1525956093.823154,-1.451925,1.188497,0.699656,-0.046684,-0.275928,0.168697,-0.370422,-0.927809,-0.044241,0.058487,-0.010209,0.044409,-10.861992,-43.281837,18.358826,,,,,,,
1525956093.843171,-1.457247,1.184589,0.702124,0.066818,-0.059842,0.214695,-0.374252,-0.926344,-0.042680,-0.058106,0.045531,0.002000,-10.875310,-43.234398,18.462435,,,,,,,
1525956093.863156,-1.462252,1.180264,0.709368,0.134585,0.164981,0.238254,-0.378440,-0.924707,-0.041240,-0.062005,0.043603,-0.017415,-11.018402,-43.173973,18.518898,,,,,,,
1525956093.883120,-1.463167,1.173301,0.716394,0.169085,0.299040,0.237439,-0.384871,-0.922033,-0.041584,-0.068834,0.029638,-0.058590,-11.217354,-43.096989,18.578682,,,,,,,
1525956093.903112,-1.465741,1.169254,0.725733,0.152063,0.287454,0.205285,-0.388684,-0.920459,-0.040984,-0.000995,0.061496,-0.072343,-11.791270,-42.921837,18.628700,,,,,,,
1525956093.923119,-1.469228,1.165997,0.733153,0.099234,0.063578,0.160394,-0.391805,-0.919181,-0.039932,0.032430,0.054512,-0.059631,-11.985640,-42.846428,18.678185,,,,,,,
1525956093.943082,-1.477106,1.166199,0.737227,-0.063762,-0.293869,0.177115,-0.391922,-0.919261,-0.036827,0.098099,0.026301,0.112297,-11.974022,-42.788280,18.818411,,,,,,,
1525956093.963084,-1.483936,1.162089,0.736009,-0.015342,-0.448410,0.202365,-0.395925,-0.917636,-0.034477,-0.015712,-0.071042,0.179817,-12.018869,-42.753685,18.868387,,,,,,,
1525956093.983082,-1.491965,1.157882,0.736858,0.010619,-0.308976,0.232547,-0.400034,-0.915955,-0.031601,-0.026525,-0.109618,0.177414,-12.042467,-42.707355,18.958050,,,,,,,
,,,,,,,,,,,,,,,,50.059864,19.920268,204.250214,-1.000000,-1.000000,1525956093.941527,
1525956094.003068,-1.498823,1.151770,0.739987,0.048283,-0.141007,0.345297,-0.405818,-0.913485,-0.029259,-0.021901,-0.128507,0.123436,-12.094509,-42.673717,19.000616,,,,,,,
1525956094.023059,-1.504254,1.145142,0.745604,0.112828,0.058409,0.332310,-0.412003,-0.910769,-0.027456,-0.015121,-0.017576,-0.017634,-12.456833,-42.514385,19.123322,,,,,,,
1525956094.043046,-1.507066,1.138348,0.750760,0.063918,0.094667,0.374256,-0.418244,-0.907942,-0.026691,-0.068999,-0.052751,-0.013333,-12.774191,-42.392536,19.184366,,,,,,,
1525956094.063032,-1.508462,1.130406,0.755960,0.111192,0.245630,0.414174,-0.425464,-0.904586,-0.026556,-0.082058,-0.048341,0.000585,-12.955206,-42.330967,19.198936,,,,,,,
1525956094.083022,-1.508540,1.122171,0.765970,0.238980,0.587440,0.420751,-0.432887,-0.901044,-0.026985,-0.094350,0.017453,0.059654,-13.652298,-42.088749,19.248352,,,,,,,
1525956094.102999,-1.505132,1.114275,0.779371,0.276070,0.855711,0.410537,-0.439878,-0.897591,-0.028926,0.116255,0.023995,-0.007558,-14.272875,-41.873466,19.267715,,,,,,,
1525956094.122995,-1.499032,1.106276,0.792641,0.244187,0.881278,0.432109,-0.446840,-0.894037,-0.032122,0.175097,0.039667,-0.027967,-14.786468,-41.703564,19.248894,,,,,,,
1525956094.142985,-1.493650,1.097434,0.803015,0.170898,0.626990,0.476592,-0.454525,-0.890041,-0.035135,0.262356,0.044307,-0.028830,-15.639412,-41.425694,19.174660,,,,,,,
1525956094.162944,-1.491480,1.087476,0.809909,0.095203,0.292394,0.529915,-0.463261,-0.885457,-0.036821,0.287159,-0.015330,0.002840,-16.098186,-41.266914,19.137320,,,,,,,
1525956094.182955,-1.494443,1.076238,0.815753,0.109117,0.019703,0.591374,-0.473261,-0.880178,-0.036205,0.224847,-0.043345,0.008068,-16.639141,-41.054741,19.130981,,,,,,,
1525956094.202948,-1.501332,1.064033,0.823516,0.153597,-0.023785,0.647579,-0.484179,-0.874320,-0.033687,0.137133,-0.041116,0.004772,-17.264229,-40.740166,19.249201,,,,,,,
1525956094.222907,-1.509563,1.050919,0.833241,0.215585,0.064721,0.676234,-0.495842,-0.867880,-0.030400,-0.011665,-0.064081,-0.059276,-17.659668,-40.518227,19.358629,,,,,,,
1525956094.242922,-1.516184,1.037401,0.843835,0.226483,0.161975,0.720948,-0.507702,-0.861086,-0.027754,-0.039234,-0.104536,-0.086717,-18.233841,-40.190994,19.507904,,,,,,,
1525956094.262912,-1.519997,1.021843,0.853941,0.204318,0.264769,0.820137,-0.521122,-0.853071,-0.026495,-0.062710,-0.135637,-0.085870,-19.081507,-39.730473,19.640076,,,,,,,
1525956094.282879,-1.521686,1.005011,0.861356,0.134858,0.197532,0.851467,-0.535432,-0.844168,-0.026316,0.071413,-0.073389,-0.013036,-19.653688,-39.433762,19.673798,,,,,,,
1525956094.302885,-1.522849,0.988136,0.866558,0.076028,0.117528,0.864534,-0.549615,-0.835002,-0.026372,0.178399,-0.074117,0.066915,-20.397192,-39.043922,19.694506,,,,,,,
1525956094.322875,-1.526165,0.969953,0.870567,0.082802,-0.053631,0.940839,-0.564775,-0.824859,-0.025223,0.202715,-0.090607,0.096635,-21.288431,-38.546623,19.730877,,,,,,,
1525956094.342857,-1.531075,0.950499,0.875182,0.096539,-0.053603,1.008112,-0.580819,-0.813706,-0.023083,0.084252,-0.082443,0.100948,-21.819349,-38.213326,19.799112,,,,,,,
1525956094.362824,-1.534923,0.929495,0.880358,0.111714,0.071182,1.100069,-0.597854,-0.801318,-0.021456,-0.002122,-0.187375,0.056689,-22.378353,-37.850452,19.872070,,,,,,,
1525956094.382833,-1.535447,0.906583,0.885852,0.121808,0.265744,1.184148,-0.616055,-0.787402,-0.021786,0.150326,-0.444745,-0.039279,-23.678009,-37.016365,19.937077,,,,,,,
1525956094.402825,-1.533603,0.882406,0.890955,0.109134,0.318734,1.233756,-0.634856,-0.772269,-0.023623,0.202574,-0.514474,0.007342,-24.417645,-36.549690,19.905918,,,,,,,
1525956094.422793,-1.529229,0.856791,0.895216,0.073179,0.434279,1.328786,-0.654300,-0.755745,-0.027213,0.340167,-0.542946,0.003699,-25.449076,-35.888569,19.816715,,,,,,,
1525956094.442777,-1.521185,0.828059,0.897594,-0.023719,0.506931,1.507701,-0.675474,-0.736620,-0.033539,0.522810,-0.653440,-0.037140,-26.891506,-34.966022,19.559423,,,,,,,
1525956094.462788,-1.512099,0.795591,0.897898,-0.118954,0.435814,1.682038,-0.698658,-0.714277,-0.041056,0.583271,-0.705752,-0.063527,-27.842857,-34.340050,19.336065,,,,,,,
1525956094.482753,-1.504045,0.760402,0.895626,-0.236845,0.249526,1.805075,-0.722945,-0.689213,-0.048329,0.757857,-0.764370,-0.081981,-29.146143,-33.426537,19.013565,,,,,,,
1525956094.502765,-1.497936,0.721513,0.891331,-0.316329,0.128698,2.014182,-0.748815,-0.660521,-0.054656,0.994421,-0.869584,-0.111391,-30.766325,-32.160503,18.640873,,,,,,,
1525956094.522752,-1.492373,0.677844,0.889234,-0.153212,0.319533,2.264900,-0.776532,-0.627115,-0.061023,1.037275,-0.896902,-0.193631,-31.794956,-31.269815,18.428953,,,,,,,
1525956094.542739,-1.483854,0.631347,0.897741,0.338156,0.891082,2.381800,-0.804184,-0.590232,-0.070094,1.236847,-0.796471,-0.469472,-33.332550,-29.819645,18.112892,,,,,,,
1525956094.562729,-1.480071,0.585101,0.913523,0.423847,0.387434,2.341815,-0.830228,-0.552284,-0.075530,0.627393,-0.465722,-0.187989,-35.377930,-27.616320,17.722519,,,,,,,
1525956094.582715,-1.482399,0.540135,0.927014,0.341581,0.274696,2.294761,-0.854290,-0.514252,-0.075715,-0.152011,-0.427551,-0.063232,-36.704502,-25.818933,17.734400,,,,,,,
1525956094.602702,-1.480254,0.501542,0.938557,0.308891,0.420907,1.700388,-0.873250,-0.480778,-0.079283,-0.337611,-0.450328,0.054167,-37.331001,-24.923336,17.707922,,,,,,,
1525956094.622693,-1.479976,0.474960,0.946429,0.163731,0.067863,1.186557,-0.885646,-0.457303,-0.080656,-0.098775,-0.210315,0.015593,-38.686035,-22.894514,17.537930,,,,,,,
1525956094.642657,-1.484896,0.455275,0.952521,0.277428,-0.125541,0.897599,-0.894828,-0.439709,-0.077055,-0.239571,0.156552,0.114226,-39.055645,-22.207802,17.601629,,,,,,,
1525956094.662637,-1.485486,0.446047,0.964379,0.591138,0.417100,0.200664,-0.898879,-0.431403,-0.076870,-0.243074,0.253943,0.071331,-39.320869,-21.613527,17.750256,,,,,,,
1525956094.682635,-1.483141,0.453018,0.978788,0.717925,0.417381,-0.582885,-0.895678,-0.437681,-0.078713,-0.049329,0.172804,0.034310,-39.587162,-21.167564,17.695686,,,,,,,
1525956094.702618,-1.483067,0.475556,0.990608,0.513729,0.105434,-1.389973,-0.885619,-0.457833,-0.077895,0.080154,0.153404,0.031325,-39.562340,-21.219349,17.689180,,,,,,,
1525956094.722629,-1.489916,0.514550,0.991231,-0.004545,-0.573848,-2.256346,-0.867669,-0.492143,-0.070331,0.082543,0.258562,0.120197,-38.783447,-22.459999,17.881264,,,,,,,
1525956094.742598,-1.501275,0.567371,0.981350,-0.315625,-0.938881,-2.888933,-0.841280,-0.537416,-0.058582,-0.030180,0.315203,0.197299,-37.051285,-24.794598,18.460146,,,,,,,
1525956094.762587,-1.513667,0.629932,0.967347,-0.378059,-1.019517,-3.312543,-0.806750,-0.589089,-0.046139,-0.133802,0.267892,0.269070,-35.621441,-26.529356,18.858761,,,,,,,
1525956094.782564,-1.522127,0.700788,0.956231,-0.202334,-0.543313,-3.743444,-0.763429,-0.644821,-0.037185,-0.172118,0.267501,0.308181,-33.972794,-28.362438,19.229359,,,,,,,
1525956094.802581,-1.520962,0.781116,0.946229,-0.184155,-0.105514,-4.255978,-0.709246,-0.704073,-0.035374,-0.243604,0.355226,0.279408,-30.224842,-32.135090,19.548450,,,,,,,
1525956094.822569,-1.509499,0.868679,0.935457,-0.160437,0.442331,-4.670291,-0.644623,-0.763476,-0.039563,-0.262161,0.500796,0.157864,-29.532368,-32.774643,19.545040,,,,,,,
1525956094.842556,-1.483650,0.965870,0.916924,-0.251157,0.530006,-5.028255,-0.566543,-0.822544,-0.049497,-0.302429,0.590244,0.049391,-24.993179,-36.560455,19.157793,,,,,,,
1525956094.862546,-1.445274,1.069816,0.881452,-0.422608,0.340094,-5.398549,-0.476507,-0.877112,-0.060128,-0.342768,0.634848,0.027215,-20.333641,-39.614590,18.589617,,,,,,,
1525956094.882518,-1.392195,1.175484,0.825287,-0.355748,-0.036526,-5.379679,-0.378971,-0.922876,-0.068414,-0.398190,0.513788,-0.024299,-17.120203,-41.254471,18.256884,,,,,,,
1525956094.902499,-1.317561,1.278241,0.742755,-0.201016,-0.185129,-5.250725,-0.279202,-0.957510,-0.072255,-0.296375,0.392416,-0.087871,-13.726948,-42.596626,18.040096,,,,,,,
1525956094.922506,-1.172388,1.378222,0.593964,-0.104731,0.242316,-5.343712,-0.176397,-0.981515,-0.074249,-0.027552,0.331216,-0.017106,-6.760734,-44.314449,17.856903,,,,,,,
1525956094.942496,-0.756159,1.463569,0.184524,-0.012053,0.741243,-5.004689,-0.073432,-0.994257,-0.077856,-0.136117,0.241571,-0.061853,-3.321287,-44.753445,17.732594,,,,,,,
1525956094.962467,0.283285,1.494827,-0.840922,0.395284,0.893222,-4.431717,0.021214,-0.997116,-0.072871,-0.261997,-0.057221,-0.289312,0.848294,-44.854767,17.767303,,,,,,,
1525956094.982473,0.967565,1.455084,-1.517268,0.257948,0.179200,-3.148943,0.095078,-0.993313,-0.065498,0.040161,-0.249836,-0.236870,5.111059,-44.382923,18.231304,,,,,,,
1525956095.002461,1.143118,1.418080,-1.701115,0.129765,-0.562018,-1.641149,0.138422,-0.988361,-0.063095,0.643545,-0.184566,0.030639,7.450655,-43.987759,18.382370,,,,,,,
1525956095.022427,1.151034,1.406334,-1.728647,-0.158028,-1.242011,-0.041079,0.149508,-0.986507,-0.066724,0.794828,-0.263188,0.180127,8.454374,-43.822517,18.342773,,,,,,,
1525956095.042410,1.033929,1.417836,-1.643001,-0.426073,-1.851639,1.322662,0.130930,-0.988324,-0.077927,-0.102441,-0.036105,0.007309,8.750626,-43.993198,17.786850,,,,,,,
1525956095.062403,0.758393,1.444081,-1.411935,-0.372968,-2.694882,2.389754,0.086916,-0.991982,-0.091742,-0.357164,0.038552,0.113394,8.210011,-44.319443,17.225845,,,,,,,
,,,,,,,,,,,,,,,,50.059774,19.920304,194.887589,0.000000,-1.000000,1525956094.999024,
1525956095.082401,0.336749,1.467263,-1.044811,0.122690,-2.639838,2.062911,0.034148,-0.994645,-0.097544,-0.929687,0.070664,0.162134,6.985861,-44.798988,16.510458,,,,,,,
1525956095.102400,0.061699,1.479667,-0.799805,0.368908,-1.059225,1.057566,0.005611,-0.995851,-0.090831,-0.344097,-0.863219,-0.537023,5.949166,-44.979988,16.424225,,,,,,,
1525956095.122387,-0.305523,1.475247,-0.452574,-0.140462,-1.165227,1.897449,-0.028697,-0.995439,-0.090986,-0.406240,-0.990630,-0.363040,5.332388,-45.043163,16.462849,,,,,,,
1525956095.142373,-0.636992,1.456085,-0.140524,-0.047016,-0.932187,1.851710,-0.068079,-0.993428,-0.092013,-0.725989,-0.281963,-0.096707,4.010256,-45.262276,16.235485,,,,,,,
1525956095.162364,-0.863877,1.430053,0.065945,-0.098277,-1.301858,1.860942,-0.106664,-0.990112,-0.091111,-0.637538,0.499252,0.433320,2.324957,-45.428989,16.098089,,,,,,,
1525956095.182324,-1.026445,1.398736,0.201556,0.006840,-1.377441,1.873115,-0.146466,-0.985234,-0.088665,-0.661273,0.496663,0.448482,2.007045,-45.457020,16.061691,,,,,,,
1525956095.202337,-1.150485,1.369165,0.306009,0.304911,-0.815915,1.674808,-0.182838,-0.979741,-0.081718,-1.008431,0.449788,0.485069,0.119755,-45.519341,16.010069,,,,,,,
1525956095.222327,-1.272780,1.349025,0.431770,1.193876,0.641676,1.244262,-0.210262,-0.975509,-0.064585,-1.028340,0.402588,0.382746,-1.456481,-45.262486,16.659307,,,,,,,
1525956095.242291,-1.366143,1.333961,0.554025,1.014168,1.540658,0.960187,-0.229731,-0.972085,-0.047683,-0.715291,0.037729,0.023482,-2.493032,-44.914795,17.458319,,,,,,,
1525956095.262300,-1.403009,1.319184,0.619924,0.501938,1.111956,0.871330,-0.245469,-0.968512,-0.041578,-0.173400,-0.220285,-0.121066,-3.867533,-44.527866,18.184002,,,,,,,
1525956095.282290,-1.417738,1.302250,0.646243,-0.010235,0.106299,0.898661,-0.262228,-0.964158,-0.040453,0.052496,-0.317260,-0.238051,-4.472780,-44.393852,18.371904,,,,,,,
1525956095.302278,-1.432554,1.284276,0.653346,0.001236,-0.611467,0.902477,-0.279920,-0.959233,-0.038945,0.161344,0.062215,-0.062541,-5.813071,-44.192024,18.482967,,,,,,,
1525956095.322264,-1.460667,1.267419,0.671372,0.286301,-0.383692,0.836556,-0.296935,-0.954333,-0.032834,-0.099412,0.111453,0.273007,-6.384177,-44.071690,18.581587,,,,,,,
1525956095.342255,-1.491075,1.252092,0.703283,0.429861,0.203200,0.801717,-0.312341,-0.949642,-0.024953,-0.199256,0.065914,0.264028,-6.672613,-43.971340,18.717480,,,,,,,
1525956095.362241,-1.508475,1.236513,0.730002,0.324321,0.467970,0.776408,-0.327455,-0.944646,-0.020434,0.023988,0.041280,-0.021238,-7.802460,-43.562904,19.228674,,,,,,,
1525956095.382215,-1.518443,1.219778,0.750953,0.265569,0.462121,0.900152,-0.343383,-0.939023,-0.017994,0.186873,-0.039767,-0.067150,-8.688658,-43.300297,19.440634,,,,,,,
1525956095.402212,-1.525354,1.201618,0.765553,0.205278,0.266927,0.924927,-0.360477,-0.932624,-0.016392,0.128269,0.022926,-0.043026,-9.866591,-42.971352,19.607653,,,,,,,
1525956095.422204,-1.533180,1.183109,0.779476,0.243603,0.277326,0.945342,-0.377781,-0.925786,-0.014218,0.015995,0.030538,0.010205,-10.534674,-42.769135,19.702000,,,,,,,
1525956095.442164,-1.539697,1.163821,0.795748,0.305013,0.524422,0.997936,-0.395642,-0.918322,-0.012308,-0.052661,0.004199,0.033594,-11.226095,-42.543011,19.809433,,,,,,,
1525956095.462179,-1.543858,1.143627,0.814754,0.367279,0.701729,1.035983,-0.414146,-0.910142,-0.011159,-0.020776,0.002229,-0.031749,-12.823597,-41.991768,20.014837,,,,,,,
1525956095.482168,-1.546280,1.122952,0.831622,0.297658,0.574206,1.042180,-0.432893,-0.901383,-0.010615,0.067247,0.010681,-0.032018,-13.683509,-41.677742,20.101604,,,,,,,
1525956095.502155,-1.550772,1.102399,0.844734,0.262486,0.236143,1.039983,-0.451366,-0.892293,-0.009039,0.094799,-0.004710,-0.042703,-14.502861,-41.367626,20.167625,,,,,,,
1525956095.522145,-1.559003,1.081122,0.856633,0.270426,0.085026,1.091926,-0.470306,-0.882486,-0.005547,0.001648,-0.069937,-0.038154,-15.927696,-40.732262,20.384768,,,,,,,
1525956095.542132,-1.567916,1.057732,0.870489,0.349390,0.206372,1.229809,-0.490848,-0.871244,-0.001414,0.124225,-0.201113,-0.011388,-16.644108,-40.368458,20.535524,,,,,,,
1525956095.562105,-1.574091,1.031518,0.883859,0.315464,0.303978,1.352428,-0.513514,-0.858080,0.001692,0.512324,-0.316664,0.049364,-17.733421,-39.797565,20.737074,,,,,,,
1525956095.582083,-1.576989,1.003079,0.893372,0.220234,0.209525,1.472092,-0.537699,-0.843131,0.003330,0.655206,-0.295404,0.089871,-19.238583,-39.009148,20.892815,,,,,,,
1525956095.602096,-1.578405,0.971623,0.898799,0.126086,0.140501,1.635773,-0.563943,-0.825802,0.004291,0.573556,-0.354694,0.095883,-20.494886,-38.323849,20.966383,,,,,,,
1525956095.622073,-1.575313,0.936844,0.901259,0.068043,0.368306,1.799122,-0.592328,-0.805692,0.002675,0.471524,-0.406985,0.043177,-21.506311,-37.762512,20.971836,,,,,,,
1525956095.642044,-1.563937,0.898343,0.902877,0.024384,0.781076,2.004823,-0.622892,-0.782296,-0.004273,0.609602,-0.511238,0.051651,-23.478947,-36.690353,20.758215,,,,,,,
1525956095.662059,-1.545270,0.855395,0.902115,-0.121169,0.960734,2.237150,-0.655706,-0.754830,-0.016741,0.688391,-0.586539,0.039858,-25.343740,-35.679859,20.322140,,,,,,,
1525956095.682046,-1.524441,0.807509,0.898442,-0.258127,0.853988,2.471969,-0.690558,-0.722567,-0.032034,0.815939,-0.764463,0.044104,-26.845505,-34.827435,19.867447,,,,,,,
1525956095.702027,-1.506244,0.755372,0.893473,-0.364494,0.641312,2.660957,-0.726500,-0.685560,-0.046963,1.298659,-1.039889,-0.101414,-29.382614,-33.191597,19.061134,,,,,,,
1525956095.722022,-1.493336,0.699441,0.889683,-0.261070,0.476223,2.895409,-0.762908,-0.643790,-0.059214,1.311385,-1.089181,-0.230306,-30.867348,-32.078056,18.615898,,,,,,,
1525956095.742008,-1.485213,0.639542,0.898471,0.355402,0.860972,2.939088,-0.799433,-0.596828,-0.068586,1.119959,-1.097188,-0.492342,-32.894806,-30.271677,18.163254,,,,,,,
1525956095.761999,-1.472906,0.586606,0.917856,0.600697,1.208114,2.682101,-0.828837,-0.553538,-0.081396,0.462825,-0.607107,-0.328211,-35.396351,-27.668678,17.603668,,,,,,,
1525956095.781963,-1.464555,0.535081,0.938345,0.590118,0.853905,2.570870,-0.855377,-0.509911,-0.091220,-0.109818,-0.540001,-0.205457,-35.869415,-27.138567,17.470837,,,,,,,
1525956095.801974,-1.455222,0.492901,0.958690,0.680869,0.958147,1.911067,-0.875087,-0.473183,-0.101590,-0.763570,-0.410667,0.084393,-37.964737,-24.469166,16.978981,,,,,,,
1525956095.821963,-1.448764,0.467025,0.973917,0.414657,0.531209,1.035567,-0.886272,-0.450231,-0.108694,-0.117085,-0.188364,-0.035837,-39.643791,-22.078678,16.408791,,,,,,,
1525956095.841930,-1.444127,0.457352,0.983014,0.344820,0.305280,0.261440,-0.890036,-0.441574,-0.113347,-0.237024,0.175476,-0.081645,-40.039040,-21.496239,16.221394,,,,,,,
1525956095.861937,-1.448454,0.460600,0.991932,0.453760,-0.166506,-0.304572,-0.889090,-0.444486,-0.109320,-0.469217,0.205396,0.060858,-40.190922,-21.230038,16.196360,,,,,,,
1525956095.881927,-1.458516,0.473928,1.002391,0.601017,-0.295956,-0.826705,-0.884180,-0.456385,-0.099695,-0.282965,0.219675,0.137918,-39.882328,-21.448662,16.664383,,,,,,,
1525956095.901901,-1.470345,0.500638,1.014262,0.696885,-0.293342,-1.572888,-0.872854,-0.479986,-0.087975,0.037237,0.343145,0.088006,-39.480164,-21.881880,17.054243,,,,,,,
1525956095.921901,-1.481272,0.544664,1.024066,0.502121,-0.382491,-2.501683,-0.851876,-0.518131,-0.076468,0.114953,0.436512,-0.003686,-38.877468,-22.629862,17.457907,,,,,,,
1525956095.941891,-1.493571,0.605660,1.021146,-0.079563,-0.916611,-3.356041,-0.819676,-0.569305,-0.063426,0.022176,0.464629,0.120051,-36.749493,-25.374458,18.274532,,,,,,,
1525956095.961865,-1.506310,0.679530,1.006191,-0.434962,-1.124849,-3.904954,-0.776251,-0.628428,-0.050127,-0.054025,0.488657,0.249757,-35.077682,-27.327051,18.738611,,,,,,,
1525956095.981864,-1.515064,0.761578,0.988248,-0.416731,-0.923589,-4.262811,-0.722624,-0.690065,-0.040316,-0.109789,0.504182,0.247896,-32.385723,-30.155132,19.240053,,,,,,,
1525956096.001854,-1.514171,0.850919,0.968058,-0.471333,-0.552882,-4.659674,-0.658236,-0.751887,-0.037313,-0.195936,0.479380,0.149541,-28.507233,-33.681755,19.524956,,,,,,,
1525956096.021822,-1.502354,0.947939,0.942892,-0.496433,-0.276410,-5.060617,-0.581993,-0.812215,-0.039895,-0.282204,0.674886,0.154473,-25.896597,-35.750881,19.483009,,,,,,,
1525956096.041828,-1.471870,1.051793,0.906933,-0.571255,0.142119,-5.356679,-0.493590,-0.868314,-0.048989,-0.375566,0.807340,0.111046,-22.033211,-38.391270,19.209238,,,,,,,
,,,,,,,,,,,,,,,,50.059786,19.920362,206.509476,1.250000,95.273438,1525956095.999383,
1525956096.061818,-1.416721,1.160292,0.847969,-0.624208,0.074257,-5.686207,-0.394345,-0.916919,-0.061244,-0.584980,0.813022,0.015529,-16.674282,-41.305237,18.552425,,,,,,,
1525956096.081806,-1.324325,1.271414,0.750501,-0.536697,0.083118,-5.815238,-0.286017,-0.955519,-0.071958,-0.329034,0.612074,-0.076724,-11.832484,-43.156509,18.051453,,,,,,,
1525956096.101793,-1.129893,1.375534,0.556038,-0.436150,0.338738,-5.578896,-0.175469,-0.980997,-0.082801,-0.324180,0.483225,-0.082589,-8.098617,-44.161438,17.678417,,,,,,,
1525956096.121758,-0.657000,1.457295,0.083548,-0.247731,0.193514,-5.191512,-0.069172,-0.993566,-0.089681,-0.105404,-0.012202,-0.071757,-2.104400,-45.031460,17.207153,,,,,,,
1525956096.141769,0.320322,1.474474,-0.892513,0.075116,0.461925,-4.808601,0.030282,-0.995365,-0.091282,-0.097345,-0.237408,-0.189739,1.297747,-45.112770,17.073391,,,,,,,
1525956096.161746,0.923217,1.427917,-1.487337,0.209631,0.467187,-3.639369,0.113566,-0.989810,-0.085900,0.099660,-0.577695,-0.300422,4.411983,-44.888721,17.143032,,,,,,,
1525956096.181739,1.107495,1.387248,-1.676411,0.372379,-0.335278,-1.774267,0.163278,-0.983202,-0.081569,0.678381,-0.054563,0.390300,8.789825,-44.108868,17.478373,,,,,,,
1525956096.201733,1.164540,1.380672,-1.741336,0.337458,-0.396812,0.079619,0.173599,-0.981981,-0.074680,0.489746,-0.298598,0.194035,9.795561,-43.773125,17.785034,,,,,,,
1525956096.221719,1.111215,1.399290,-1.705736,-0.030501,-1.244668,1.531751,0.152958,-0.985329,-0.075703,0.220669,-0.259529,0.130787,9.770987,-43.746124,17.864813,,,,,,,
1525956096.241690,0.913029,1.437782,-1.540523,0.033205,-2.068834,2.670566,0.104952,-0.991167,-0.081079,-0.617784,0.047166,-0.052161,8.283303,-44.202152,17.490093,,,,,,,
1525956096.261696,0.565982,1.476133,-1.236659,0.396841,-2.108512,2.152669,0.050687,-0.995523,-0.079783,-0.783658,-0.137946,-0.541281,6.686987,-44.550617,17.287962,,,,,,,
1525956096.281679,0.305286,1.493248,-1.004614,0.060653,-1.288238,0.987974,0.023285,-0.996995,-0.073888,-0.210159,-1.101150,-0.714549,6.002798,-44.595688,17.422333,,,,,,,
1525956096.301674,-0.117232,1.484106,-0.618580,-0.688374,-2.120316,1.753454,-0.010127,-0.996245,-0.085987,-0.511739,-0.405626,-0.221447,5.270823,-44.883438,16.912771,,,,,,,
1525956096.321662,-0.482567,1.461043,-0.294886,-0.543619,-2.061678,1.891858,-0.050829,-0.993983,-0.097025,-0.676527,0.107905,0.105784,4.354630,-45.274601,16.111935,,,,,,,
1525956096.341649,-0.737000,1.432092,-0.082222,-0.415658,-2.312847,1.902368,-0.092921,-0.990396,-0.102380,-0.747213,0.372766,0.597726,3.556648,-45.500359,15.665718,,,,,,,
1525956096.361638,-0.923470,1.402023,0.059922,-0.042402,-2.155367,1.789935,-0.133992,-0.985792,-0.101297,-0.788829,0.472654,0.739862,2.304414,-45.762577,15.126917,,,,,,,
1525956096.381599,-1.080948,1.376435,0.191225,0.644462,-0.838966,1.657886,-0.170427,-0.981171,-0.090871,-1.029555,0.489121,0.646336,1.234921,-45.781921,15.193340,,,,,,,
1525956096.401613,-1.240437,1.358741,0.362327,1.486817,1.076770,1.370482,-0.199089,-0.977600,-0.068273,-1.001915,0.440232,0.511037,0.575435,-45.676605,15.545524,,,,,,,
1525956096.421602,-1.365012,1.343844,0.524086,1.401431,1.847352,1.083118,-0.220262,-0.974357,-0.045977,-0.521789,0.084052,0.030078,-1.802950,-44.943672,17.468897,,,,,,,
1525956096.441571,-1.432123,1.328045,0.627516,0.858785,1.532890,0.941947,-0.238067,-0.970680,-0.033227,-0.276078,-0.104439,-0.149741,-2.981855,-44.571022,18.244991,,,,,,,
1525956096.461577,-1.448130,1.309224,0.668253,0.136791,0.855082,1.056593,-0.256656,-0.965985,-0.031642,-0.212796,-0.242298,-0.270726,-4.040143,-44.288589,18.722836,,,,,,,
1525956096.481566,-1.453436,1.288506,0.676596,-0.043542,-0.264457,1.020109,-0.276640,-0.960420,-0.032616,0.082487,-0.042494,-0.104881,-5.788202,-44.055775,18.813089,,,,,,,
1525956096.501537,-1.477163,1.267633,0.689997,0.140556,-0.588816,1.056655,-0.297233,-0.954397,-0.027913,0.002646,0.114660,0.157856,-6.536189,-43.912613,18.902576,,,,,,,
1525956096.521540,-1.504720,1.248891,0.709730,0.282266,-0.295944,0.900492,-0.315685,-0.948634,-0.020890,-0.058003,0.167277,0.229080,-6.884125,-43.813202,19.009438,,,,,,,
1525956096.541530,-1.526970,1.232599,0.733476,0.339280,0.165529,0.805664,-0.331469,-0.943354,-0.014536,-0.244139,0.061183,0.044169,-7.922791,-43.446888,19.440784,,,,,,,
1525956096.561516,-1.536055,1.217293,0.749883,0.226187,0.401807,0.785414,-0.345978,-0.938166,-0.012025,-0.062698,-0.025412,-0.156234,-8.507721,-43.261787,19.605692,,,,,,,
1525956096.581504,-1.540415,1.200889,0.763517,0.218630,0.381802,0.811908,-0.361362,-0.932361,-0.010982,0.020328,-0.069775,-0.193913,-9.132045,-43.093369,19.695530,,,,,,,
1525956096.601493,-1.546470,1.184593,0.777656,0.281347,0.373075,0.851377,-0.376563,-0.926346,-0.009162,0.019370,0.005630,-0.042748,-10.412008,-42.723457,19.865620,,,,,,,
1525956096.621466,-1.555348,1.166821,0.796989,0.381682,0.491046,0.927322,-0.393030,-0.919506,-0.006072,-0.024603,-0.006825,0.045089,-11.085932,-42.488747,20.003881,,,,,,,
1525956096.641468,-1.563619,1.147550,0.818885,0.455521,0.647219,1.010017,-0.410711,-0.911761,-0.002948,-0.005136,-0.028929,0.023792,-11.822219,-42.214836,20.161596,,,,,,,
1525956096.661431,-1.570849,1.126071,0.841089,0.443524,0.609391,1.118545,-0.430210,-0.902729,0.000022,0.303318,-0.122830,-0.031623,-12.908789,-41.788418,20.382292,,,,,,,
1525956096.681438,-1.577376,1.102958,0.858663,0.360716,0.370945,1.179284,-0.450948,-0.892545,0.002967,0.407964,-0.099993,-0.002479,-14.646892,-41.060555,20.684448,,,,,,,
1525956096.701419,-1.584479,1.077778,0.873319,0.363466,0.300319,1.319539,-0.473242,-0.880908,0.006476,0.391761,-0.110303,0.002146,-15.204986,-40.809647,20.778069,,,,,,,
1525956096.721395,-1.589117,1.048988,0.887755,0.348805,0.449681,1.485375,-0.498365,-0.866919,0.009131,0.376936,-0.249994,0.059182,-16.383244,-40.249454,20.974211,,,,,,,
1525956096.741408,-1.589065,1.018085,0.898821,0.297626,0.470183,1.585889,-0.524909,-0.851104,0.009590,0.535071,-0.337326,0.033760,-18.088564,-39.427677,21.133118,,,,,,,
1525956096.761385,-1.587249,0.983752,0.907575,0.231321,0.469778,1.789752,-0.553828,-0.832581,0.009113,0.611979,-0.412856,0.024396,-19.170668,-38.889305,21.176729,,,,,,,
1525956096.781376,-1.579352,0.945814,0.910725,0.041919,0.572505,1.963543,-0.585061,-0.810974,0.005006,0.695565,-0.439789,0.033385,-20.724033,-38.084763,21.175743,,,,,,,
1525956096.801373,-1.563592,0.903905,0.909290,-0.061829,0.845023,2.179597,-0.618530,-0.785748,-0.004456,0.712494,-0.480884,0.030747,-23.348930,-36.749947,20.799414,,,,,,,
1525956096.821359,-1.543159,0.857915,0.907349,-0.138323,0.979958,2.376207,-0.653767,-0.756480,-0.018073,0.765263,-0.561925,0.116096,-24.332729,-36.239090,20.566801,,,,,,,
1525956096.841340,-1.522163,0.807586,0.903639,-0.270027,0.847802,2.601178,-0.690428,-0.722621,-0.033604,0.815244,-0.724233,0.168690,-26.398594,-35.098183,19.989473,,,,,,,
1525956096.861321,-1.504857,0.752833,0.898689,-0.366896,0.616068,2.802803,-0.728169,-0.683709,-0.048085,1.124165,-0.954673,-0.152721,-29.548475,-33.062939,19.028309,,,,,,,
1525956096.881324,-1.490345,0.693593,0.895470,-0.273518,0.657229,3.090468,-0.766467,-0.639304,-0.061797,1.213092,-1.074838,-0.290437,-30.585833,-32.284370,18.723591,,,,,,,
1525956096.901313,-1.477304,0.629027,0.904308,0.350516,1.124545,3.241709,-0.805069,-0.588358,-0.075488,1.214401,-1.216970,-0.815458,-33.874554,-29.368587,17.842289,,,,,,,
1525956096.921302,-1.456339,0.570300,0.924289,0.495473,1.672920,2.900088,-0.836231,-0.539885,-0.096133,0.771977,-0.897036,-0.367673,-34.445328,-28.784212,17.701290,,,,,,,
1525956096.941289,-1.442871,0.516715,0.941796,0.383296,0.784178,2.641662,-0.862342,-0.494026,-0.110921,-0.511818,-0.612190,-0.053660,-37.620689,-25.347527,16.447906,,,,,,,
1525956096.961279,-1.436236,0.475668,0.956937,0.402386,0.689767,1.772776,-0.880951,-0.457933,-0.119262,-0.856217,-0.625411,0.085402,-38.431705,-24.262831,16.206966,,,,,,,
1525956096.981244,-1.432069,0.450731,0.965703,0.099585,0.174338,0.967933,-0.891481,-0.435623,-0.124472,-0.232008,-0.362228,0.066779,-40.066010,-21.838078,15.689488,,,,,,,
1525956097.001253,-1.435939,0.441313,0.968983,0.145071,-0.244503,0.241163,-0.895982,-0.427127,-0.121568,-0.262481,0.114322,-0.034545,-40.470108,-21.108604,15.650690,,,,,,,
1525956097.021221,-1.450108,0.442792,0.975339,0.397482,-0.725297,-0.189228,-0.896986,-0.428464,-0.108785,-0.608659,0.247327,0.055394,-40.385071,-20.890877,16.154385,,,,,,,
1525956097.041210,-1.469087,0.453922,0.987712,0.722320,-0.599920,-0.736539,-0.894090,-0.438494,-0.091252,-0.455047,0.245501,0.113758,-40.000748,-20.998947,16.950850,,,,,,,
,,,,,,,,,,,,,,,,50.059788,19.920400,206.023880,1.120000,99.140625,1525956096.999394,
1525956097.061188,-1.484440,0.480379,1.002190,0.778723,-0.349929,-1.596760,-0.883515,-0.462116,-0.076487,-0.270553,0.308719,0.101954,-39.728355,-21.204603,17.331171,,,,,,,
1525956097.081191,-1.495494,0.525514,1.013599,0.573844,-0.302750,-2.579776,-0.862615,-0.501657,-0.065080,0.026921,0.540506,-0.063780,-38.407223,-22.829388,18.222263,,,,,,,
1525956097.101178,-1.504821,0.589200,1.016209,0.188310,-0.456416,-3.498665,-0.829577,-0.555696,-0.054811,-0.003385,0.647523,0.075365,-37.315910,-24.298662,18.586140,,,,,,,
1525956097.121116,-1.511714,0.667461,1.010057,-0.099497,-0.551006,-4.151065,-0.784025,-0.618994,-0.046376,-0.069841,0.709418,0.171193,-35.866852,-26.161272,18.907766,,,,,,,
1525956097.141104,-1.514398,0.755539,0.996434,-0.364169,-0.626348,-4.572652,-0.726745,-0.685681,-0.041030,-0.122697,0.673276,0.189651,-31.985313,-30.507504,19.354048,,,,,,,
1525956097.161114,-1.513411,0.850313,0.974841,-0.497245,-0.784702,-4.909515,-0.658662,-0.751487,-0.037839,-0.119582,0.685081,0.227475,-29.583622,-32.779396,19.459370,,,,,,,
1525956097.181091,-1.509792,0.953241,0.949353,-0.499875,-0.824487,-5.372189,-0.577967,-0.815296,-0.035302,-0.159124,0.818714,0.138360,-25.873400,-35.724262,19.562494,,,,,,,
1525956097.201080,-1.492924,1.064142,0.912036,-0.691443,-0.659142,-5.745504,-0.483784,-0.874373,-0.037750,-0.443645,0.919432,0.115219,-20.376081,-39.148148,19.508589,,,,,,,
1525956097.221078,-1.443326,1.179944,0.846810,-0.889162,-0.352957,-5.966938,-0.377886,-0.924585,-0.048432,-0.624785,0.949228,0.065552,-15.444584,-41.540585,19.083797,,,,,,,
1525956097.241048,-1.324014,1.296410,0.718193,-1.030012,0.072314,-6.227757,-0.262748,-0.962592,-0.066191,-0.807748,0.845313,-0.011019,-11.557663,-43.019989,18.548521,,,,,,,
1525956097.261055,-1.022354,1.404298,0.421884,-0.750467,0.987503,-6.073574,-0.141424,-0.986171,-0.086405,-0.329127,0.304759,0.120905,-4.873767,-44.737137,17.412119,,,,,,,
1525956097.281042,-0.278889,1.468374,-0.304371,-0.389252,1.127347,-5.294698,-0.028146,-0.994759,-0.098293,-0.289008,0.086175,0.079509,-0.028890,-45.224098,16.826378,,,,,,,
1525956097.301015,0.628677,1.450010,-1.195132,0.215323,1.115727,-4.575799,0.070859,-0.992714,-0.097456,0.248309,-0.690132,-0.626910,3.183010,-45.158188,16.701891,,,,,,,
1525956097.321022,0.996100,1.393244,-1.557614,-0.033319,-0.125230,-3.339797,0.148248,-0.984279,-0.096007,0.298072,-0.039097,0.129424,7.665543,-44.534679,16.918892,,,,,,,
1525956097.341006,1.115399,1.366249,-1.686557,0.651645,-0.111317,-0.806655,0.182423,-0.979153,-0.089338,0.646618,0.157254,0.636747,9.924232,-44.033676,17.055561,,,,,,,
1525956097.360983,1.143750,1.376029,-1.714747,0.240869,-0.253495,0.931920,0.176157,-0.981093,-0.080160,0.642798,-0.305040,0.169165,10.112309,-43.826897,17.472576,,,,,,,
1525956097.380958,1.011965,1.409482,-1.600717,-0.226238,-1.422002,2.490870,0.136182,-0.987017,-0.085158,-0.065381,-0.040693,0.055205,8.866024,-44.104248,17.451525,,,,,,,
1525956097.400971,0.668611,1.452879,-1.300976,0.055709,-2.824239,3.057407,0.072928,-0.993056,-0.092314,-0.955313,0.284743,0.072157,7.021432,-44.620747,16.971600,,,,,,,
1525956097.420957,0.278961,1.479394,-0.961710,0.464655,-2.229526,1.402167,0.025133,-0.995826,-0.087746,-0.629427,-0.131616,-0.282585,5.871560,-44.839916,16.830133,,,,,,,
1525956097.440948,0.101620,1.483183,-0.818186,-0.373406,-1.673349,0.701105,0.008877,-0.996164,-0.087050,-0.110271,-0.761572,-0.567888,5.516535,-44.861931,16.891483,,,,,,,
1525956097.460935,-0.217083,1.473092,-0.533383,-0.230008,-1.688648,1.580814,-0.021010,-0.995231,-0.095259,-0.608003,-0.621957,-0.139421,5.090640,-45.132992,16.292484,,,,,,,
1525956097.480921,-0.558872,1.456933,-0.223600,-0.100671,-1.699407,1.910718,-0.060243,-0.993525,-0.096331,-0.721297,-0.077856,0.130510,4.357651,-45.293835,16.056976,,,,,,,
1525956097.500912,-0.811340,1.429568,-0.012462,-0.308679,-2.493237,1.877329,-0.102080,-0.990044,-0.096917,-0.736360,0.334404,0.650200,2.955720,-45.524410,15.720634,,,,,,,
1525956097.520881,-0.987317,1.398383,0.116237,0.055601,-2.123155,1.828849,-0.143176,-0.985174,-0.094518,-0.854841,0.465200,0.470967,2.281451,-45.670132,15.407175,,,,,,,
1525956097.540886,-1.158071,1.372177,0.265675,0.885570,-0.654202,1.721862,-0.180748,-0.980340,-0.079145,-1.076424,0.537133,0.436521,1.507633,-45.708111,15.389680,,,,,,,
1525956097.560876,-1.312152,1.352718,0.436579,1.509130,1.387336,1.384240,-0.209157,-0.976315,-0.055337,-1.193156,0.429516,0.227792,-0.625016,-45.255699,16.729546,,,,,,,
1525956097.580864,-1.402238,1.334488,0.571063,1.057102,2.322562,1.054385,-0.230797,-0.972209,-0.039275,-0.611579,-0.038594,-0.071824,-1.960080,-44.854794,17.679146,,,,,,,
1525956097.600850,-1.424868,1.318555,0.638081,0.528654,1.792390,0.910093,-0.246922,-0.968355,-0.036291,-0.315563,-0.173582,-0.171702,-3.288742,-44.528881,18.295073,,,,,,,
1525956097.620840,-1.438178,1.301197,0.669820,0.142892,0.363197,0.892902,-0.264007,-0.963878,-0.035219,0.068511,-0.288579,-0.132735,-5.355993,-44.146542,18.728130,,,,,,,
1525956097.640820,-1.454129,1.284994,0.684910,0.178419,-0.202621,0.805305,-0.280011,-0.959436,-0.032817,0.026409,0.088312,0.276027,-6.132535,-44.012695,18.804817,,,,,,,
1525956097.660816,-1.487080,1.269779,0.716111,0.445005,-0.064507,0.798300,-0.295454,-0.955035,-0.024792,0.041852,0.083911,0.268002,-6.132535,-44.012695,18.804817,,,,,,,
1525956097.680805,-1.515877,1.254839,0.748638,0.432277,0.249356,0.764008,-0.310258,-0.950499,-0.017056,-0.193236,0.078292,0.069486,-7.108479,-43.651588,19.296505,,,,,,,
1525956097.700774,-1.534532,1.240775,0.779749,0.476364,0.682416,0.708400,-0.323850,-0.946036,-0.011749,-0.037326,0.055670,-0.063477,-8.069206,-43.289761,19.728945,,,,,,,
1525956097.720779,-1.547768,1.224585,0.810775,0.469122,0.815865,0.861277,-0.339246,-0.940665,-0.007813,0.035200,-0.063424,-0.088347,-8.998297,-42.968849,20.026384,,,,,,,
1525956097.740769,-1.558647,1.207199,0.839982,0.505388,0.849536,0.886184,-0.355613,-0.934623,-0.004321,0.051795,-0.012810,-0.017270,-10.336451,-42.515812,20.344782,,,,,,,
1525956097.760741,-1.566281,1.188862,0.867395,0.484223,0.918454,0.954089,-0.372713,-0.927945,-0.001683,0.126314,0.031369,0.052800,-11.175937,-42.217281,20.521856,,,,,,,
1525956097.780744,-1.571394,1.168091,0.892095,0.453932,0.831076,1.085616,-0.391908,-0.920004,0.000234,0.283311,-0.022455,0.051920,-12.367291,-41.789768,20.712610,,,,,,,
1525956097.800734,-1.576792,1.145968,0.912238,0.371990,0.521826,1.101808,-0.412157,-0.911110,0.002471,0.340791,-0.085243,0.035187,-13.300162,-41.439743,20.837471,,,,,,,
1525956097.820705,-1.582903,1.124201,0.926640,0.282885,0.284438,1.082382,-0.431866,-0.901923,0.005229,0.224789,-0.004724,-0.037898,-14.706719,-40.859463,21.037193,,,,,,,
1525956097.840708,-1.587988,1.101224,0.939065,0.295713,0.355368,1.201580,-0.452438,-0.891762,0.007779,0.105377,-0.001961,-0.058270,-15.461287,-40.522404,21.147810,,,,,,,
1525956097.860684,-1.588128,1.075293,0.951753,0.331670,0.673555,1.346652,-0.475403,-0.879730,0.008241,0.142151,-0.174164,-0.052628,-16.557417,-40.018723,21.276758,,,,,,,
1525956097.880685,-1.583375,1.046120,0.963576,0.276276,0.736455,1.511627,-0.500893,-0.865486,0.006301,0.544015,-0.240471,0.003480,-18.247206,-39.258091,21.311703,,,,,,,
1525956097.900658,-1.578941,1.014072,0.970414,0.147066,0.353649,1.653059,-0.528390,-0.848991,0.004304,0.922494,-0.400719,0.037322,-19.363283,-38.744362,21.266998,,,,,,,
1525956097.920654,-1.578286,0.979389,0.971539,-0.026926,-0.055360,1.785664,-0.557514,-0.830157,0.004176,0.763187,-0.348066,0.027319,-21.461830,-37.644032,21.228834,,,,,,,
1525956097.940649,-1.575465,0.941913,0.966001,-0.210222,-0.047828,1.938262,-0.588236,-0.808685,0.002746,0.513056,-0.335099,0.058014,-22.793343,-36.874046,21.192341,,,,,,,
1525956097.960628,-1.566525,0.900767,0.957590,-0.267109,0.219118,2.126543,-0.621003,-0.783803,-0.002653,0.467958,-0.375910,0.112043,-23.508785,-36.466728,21.115433,,,,,,,
1525956097.980624,-1.552381,0.855927,0.949986,-0.256789,0.530106,2.315298,-0.655408,-0.755179,-0.012071,0.379926,-0.533167,0.155458,-25.976431,-35.039749,20.634628,,,,,,,
1525956098.000613,-1.533889,0.806762,0.943698,-0.287164,0.781105,2.535476,-0.691369,-0.722050,-0.025528,0.589471,-0.762691,-0.038772,-27.884398,-33.859680,20.107943,,,,,,,
1525956098.020588,-1.511635,0.753412,0.938919,-0.313214,1.051103,2.752637,-0.728083,-0.684131,-0.043125,0.843638,-0.898144,-0.145566,-28.902477,-33.191185,19.782274,,,,,,,
1525956098.040565,-1.485765,0.696559,0.936676,-0.226027,1.393278,2.860611,-0.764283,-0.641582,-0.065145,1.472413,-1.047490,-0.626277,-32.161983,-30.845324,18.507290,,,,,,,
1525956098.060576,-1.451955,0.639387,0.942010,-0.029003,2.057063,2.834025,-0.796802,-0.596704,-0.095141,1.653033,-1.042655,-0.757352,-34.485859,-28.978096,17.301504,,,,,,,
,,,,,,,,,,,,,,,,50.059778,19.920400,205.940689,1.250000,88.945312,1525956097.999412,
1525956098.080565,-1.426860,0.585440,0.948823,-0.136020,0.843948,2.681398,-0.824850,-0.552566,-0.119552,0.732534,-0.778366,-0.207978,-36.139839,-27.520947,16.274395,,,,,,,
1525956098.100556,-1.426504,0.534884,0.953633,-0.145094,-0.098211,2.406529,-0.851387,-0.509741,-0.123708,-0.498405,-0.757410,-0.078333,-38.088428,-25.148342,15.658192,,,,,,,
1525956098.120543,-1.431116,0.496102,0.958774,0.001997,-0.073725,1.623228,-0.870879,-0.476001,-0.122442,-0.601792,-0.720166,0.080557,-39.098969,-23.519007,15.699482,,,,,,,
1525956098.140531,-1.437430,0.468581,0.960106,-0.179473,-0.427521,1.186231,-0.884287,-0.451621,-0.118639,-0.336538,-0.298013,0.073427,-39.594902,-22.629345,15.763985,,,,,,,
1525956098.160520,-1.448162,0.452801,0.959221,-0.081237,-0.628771,0.542728,-0.892472,-0.437486,-0.109999,-0.410506,0.061265,0.096801,-39.968170,-21.683447,16.146824,,,,,,,
1525956098.180479,-1.462016,0.448889,0.960481,0.090880,-0.639953,0.029220,-0.895605,-0.433965,-0.097810,-0.607646,0.214391,0.209627,-39.934166,-21.455517,16.530891,,,,,,,
1525956098.200494,-1.473806,0.455561,0.965389,0.357627,-0.393831,-0.557552,-0.893794,-0.439966,-0.086962,-0.585088,0.249521,0.243060,-39.784378,-21.414812,16.939770,,,,,,,
1525956098.220484,-1.483106,0.477628,0.972036,0.375251,-0.273618,-1.397693,-0.884675,-0.459674,-0.077777,-0.069274,0.368106,0.110721,-39.143547,-22.031403,17.628006,,,,,,,
1525956098.240447,-1.489999,0.517634,0.974714,0.201972,-0.311111,-2.343059,-0.866157,-0.494826,-0.070136,0.062141,0.546461,0.093161,-38.523758,-22.888004,17.899887,,,,,,,
1525956098.260458,-1.494054,0.576079,0.968371,-0.184429,-0.408764,-3.271021,-0.836137,-0.544740,-0.064294,0.018739,0.627427,0.128426,-37.612968,-24.172628,18.146494,,,,,,,
1525956098.280450,-1.495568,0.649130,0.952893,-0.436315,-0.585991,-3.924184,-0.794357,-0.604494,-0.059871,-0.063263,0.688356,0.320766,-34.767029,-27.908524,18.458467,,,,,,,
1525956098.300432,-1.494305,0.731044,0.930914,-0.605106,-0.627979,-4.322951,-0.742301,-0.667647,-0.056891,-0.102960,0.624633,0.352271,-32.859325,-30.060139,18.574169,,,,,,,
1525956098.320422,-1.485753,0.820858,0.902289,-0.699046,-0.566771,-4.720673,-0.679130,-0.731731,-0.057895,-0.154945,0.624034,0.344135,-30.665920,-32.286404,18.588610,,,,,,,
1525956098.340413,-1.467863,0.918825,0.865741,-0.706386,-0.402469,-5.144030,-0.603543,-0.794889,-0.062345,-0.189944,0.703168,0.211820,-27.304148,-35.244781,18.456318,,,,,,,
1525956098.360379,-1.432495,1.024267,0.818600,-0.716421,-0.072155,-5.535906,-0.514763,-0.854333,-0.071650,-0.306938,0.835870,0.090708,-22.360382,-38.759895,18.056314,,,,,,,
1525956098.380388,-1.371859,1.133694,0.746431,-0.782713,-0.247552,-5.724476,-0.414967,-0.905982,-0.083659,-0.548382,0.878806,0.006739,-17.867592,-41.258762,17.516014,,,,,,,
1525956098.400379,-1.265995,1.242342,0.625572,-0.856116,-0.298113,-5.865949,-0.307712,-0.946542,-0.096808,-0.690106,0.857110,-0.006815,-11.612427,-43.732990,16.760792,,,,,,,
1525956098.420348,-1.044935,1.343986,0.398487,-0.716396,0.436848,-5.855599,-0.194489,-0.974389,-0.112876,-0.439148,0.359795,0.166907,-6.365666,-45.066982,16.024742,,,,,,,
1525956098.440327,-0.593968,1.424342,-0.043330,-0.075350,0.998475,-5.484574,-0.081671,-0.989295,-0.120937,-0.342340,0.099555,0.266460,-3.818151,-45.463390,15.711422,,,,,,,
1525956098.460335,0.202522,1.449810,-0.822778,0.363704,1.353056,-5.031350,0.024276,-0.992690,-0.118224,-0.098022,-0.534669,-0.304673,3.145971,-45.542011,15.632506,,,,,,,
1525956098.480329,0.826643,1.412636,-1.424370,0.406040,1.090074,-4.028110,0.115868,-0.987519,-0.106684,0.051643,-0.329284,-0.180594,6.948482,-44.913616,16.212109,,,,,,,
1525956098.500295,1.049382,1.374791,-1.646071,0.571008,-0.090024,-1.632796,0.168873,-0.980852,-0.097008,0.495678,-0.137647,-0.009590,8.513571,-44.554817,16.454006,,,,,,,
1525956098.520302,1.111335,1.375900,-1.710302,0.521178,-0.094208,0.350813,0.173580,-0.981068,-0.085883,0.566075,-0.368114,0.219367,10.362331,-43.885078,17.177567,,,,,,,
1525956098.540295,1.055877,1.400131,-1.666499,0.067087,-0.915189,1.800997,0.147816,-0.985472,-0.083639,-0.016788,-0.111604,0.063559,9.719852,-43.951061,17.383198,,,,,,,
1525956098.560258,0.840356,1.443479,-1.474706,0.179231,-1.540775,3.017555,0.094581,-0.991906,-0.084717,-0.111564,0.080758,-0.000916,9.027943,-44.124588,17.316578,,,,,,,
1525956098.580272,0.427723,1.485073,-1.095507,0.578141,-1.615779,2.325321,0.035515,-0.996328,-0.077906,-1.100837,0.116659,-0.422537,6.040114,-44.630756,17.319340,,,,,,,
1525956098.600259,0.198499,1.499579,-0.887011,0.067016,-0.910874,0.439788,0.014032,-0.997465,-0.069759,-0.278039,-0.587145,-0.786243,5.231786,-44.619511,17.608934,,,,,,,
1525956098.620228,-0.071868,1.489330,-0.645828,-0.524253,-1.676126,1.209237,-0.005843,-0.996683,-0.081165,-0.224748,-0.334020,-0.339871,5.088505,-44.728752,17.372177,,,,,,,
1525956098.640236,-0.438212,1.476185,-0.309037,-0.103819,-1.425914,1.782092,-0.040086,-0.995528,-0.085544,-0.692168,-0.546022,-0.079450,4.243428,-45.069901,16.704617,,,,,,,
1525956098.660224,-0.756705,1.454192,-0.016600,-0.122570,-1.577872,1.885252,-0.079871,-0.993209,-0.084591,-0.608972,0.014312,0.411724,3.014017,-45.215439,16.577904,,,,,,,
1525956098.680211,-0.939405,1.421797,0.124297,-0.412468,-2.390432,1.760869,-0.119829,-0.988920,-0.087624,-0.458724,0.241713,0.636544,2.193690,-45.351200,16.334110,,,,,,,
1525956098.700187,-1.075911,1.393874,0.224747,0.250130,-1.374297,1.549124,-0.154885,-0.984390,-0.083588,-0.691169,0.521530,0.471085,1.135149,-45.527954,15.945646,,,,,,,
1525956098.720173,-1.229654,1.374137,0.373755,1.212849,0.290455,1.369382,-0.184135,-0.980725,-0.065372,-1.113000,0.522152,0.371967,0.333954,-45.424076,16.275410,,,,,,,
1525956098.740153,-1.367118,1.357656,0.538399,1.360952,1.545138,1.189334,-0.207158,-0.977371,-0.042787,-0.903346,0.155197,0.097261,-1.046899,-44.994484,17.399628,,,,,,,
1525956098.760158,-1.441472,1.338997,0.650816,0.839310,1.805628,1.080374,-0.227811,-0.973255,-0.029627,-0.398929,-0.075726,-0.113211,-3.086335,-44.373344,18.703684,,,,,,,
1525956098.780149,-1.456673,1.319320,0.697799,0.302158,1.262964,1.034179,-0.247215,-0.968546,-0.028336,-0.108375,-0.212927,-0.161132,-4.647051,-44.075310,19.081900,,,,,,,
1525956098.800130,-1.465182,1.299040,0.719478,0.052890,0.219886,0.994101,-0.266928,-0.963301,-0.028297,0.012168,-0.235796,-0.147515,-5.324825,-43.968510,19.151070,,,,,,,
1525956098.820130,-1.481391,1.281334,0.732994,0.211166,-0.259952,0.873261,-0.284297,-0.958397,-0.025486,0.106029,0.044732,0.198551,-6.705423,-43.736031,19.249517,,,,,,,
1525956098.840094,-1.511099,1.265124,0.763810,0.450070,0.184791,0.832868,-0.300399,-0.953645,-0.017954,-0.167161,0.119630,0.260691,-7.400637,-43.487579,19.555256,,,,,,,
1525956098.860104,-1.532329,1.249045,0.793604,0.397657,0.423926,0.815897,-0.315995,-0.948683,-0.012162,-0.209411,0.104567,0.154999,-7.807406,-43.336678,19.731274,,,,,,,
1525956098.880094,-1.543554,1.233749,0.816951,0.365425,0.651333,0.803101,-0.330580,-0.943735,-0.009008,-0.003359,-0.019583,-0.058497,-9.102625,-42.907799,20.109947,,,,,,,
1525956098.900082,-1.551891,1.217679,0.840073,0.369643,0.644988,0.815855,-0.345762,-0.938299,-0.006537,0.018309,-0.048822,-0.056359,-10.066343,-42.602657,20.298494,,,,,,,
1525956098.920068,-1.561817,1.201863,0.864045,0.438893,0.644565,0.776404,-0.360606,-0.932712,-0.003238,-0.022481,-0.004391,-0.034161,-10.540333,-42.442345,20.393515,,,,,,,
1525956098.940059,-1.569351,1.185959,0.888243,0.432975,0.809562,0.824955,-0.375408,-0.926859,-0.000543,-0.060917,0.039240,0.027810,-11.958439,-41.908749,20.712290,,,,,,,
1525956098.960046,-1.574023,1.168440,0.911436,0.448882,0.831808,0.913795,-0.391585,-0.920141,0.001264,0.056930,-0.047510,-0.025113,-13.016273,-41.512024,20.872831,,,,,,,
