timestamp(unix),attitude_roll(radians),attitude_pitch(radians),attitude_yaw(radians),rotation_rate_x(radians/s),rotation_rate_y(radians/s),rotation_rate_z(radians/s),gravity_x(G),gravity_y(G),gravity_z(G),user_acc_x(G),user_acc_y(G),user_acc_z(G),magnetic_field_x(microteslas),magnetic_field_y(microteslas),magnetic_field_z(microteslas),latitude(degree),longitude(degree),altitude(meter),speed(m/s),course(degree),timestamp(unix),User Mark
1558216575.861937,0.114080,0.524349,0.230523,0.007280,-0.051585,-0.044296,0.098539,-0.500650,-0.860023,-0.040098,-0.014945,-0.056359,2.870198,-32.454227,-29.496782,,,,,,,
1558216575.881922,0.113631,0.525377,0.229524,0.127431,-0.072234,-0.000625,0.098095,-0.501539,-0.859556,0.031834,0.011701,-0.024538,2.867861,-32.446514,-29.505491,,,,,,,
1558216575.901907,0.111994,0.527449,0.230538,0.066765,-0.029506,0.086215,0.096571,-0.503331,-0.858680,0.015612,0.011342,-0.016167,2.806544,-32.515133,-29.435764,,,,,,,
1558216575.921884,0.111029,0.528009,0.233371,-0.016113,0.040772,0.139136,0.095711,-0.503814,-0.858493,0.006309,0.006561,-0.011578,2.770764,-32.534458,-29.417799,,,,,,,
1558216575.941860,0.109923,0.527617,0.236245,-0.030057,-0.008893,0.100214,0.094783,-0.503475,-0.858795,-0.006908,-0.011326,-0.010010,2.669393,-32.531445,-29.430502,,,,,,,
1558216575.961861,0.108271,0.528568,0.238221,0.020067,0.000295,0.059772,0.093313,-0.504297,-0.858474,-0.014990,-0.013342,0.009917,2.611753,-32.529160,-29.438198,,,,,,,
1558216575.981821,0.107831,0.529313,0.239059,0.034970,-0.014631,0.026544,0.092895,-0.504940,-0.858141,-0.010162,-0.013630,0.012438,2.611753,-32.529160,-29.438198,,,,,,,
1558216576.001827,0.107083,0.530066,0.239204,0.028494,-0.048443,0.012335,0.092212,-0.505590,-0.857832,0.003125,0.003072,0.010481,2.540295,-32.582142,-29.385811,,,,,,,
1558216576.021816,0.105996,0.530666,0.239848,0.017882,-0.025090,0.041377,0.091247,-0.506108,-0.857630,-0.000213,0.011128,0.010981,2.488820,-32.613243,-29.355694,,,,,,,
1558216576.041788,0.105528,0.529944,0.240931,-0.085215,0.019836,0.034251,0.090884,-0.505485,-0.858036,-0.001041,0.007026,0.010242,2.488820,-32.613243,-29.355694,,,,,,,
1558216576.061787,0.106552,0.527433,0.241729,-0.172259,0.088984,0.024166,0.091898,-0.503317,-0.859202,-0.001810,0.002538,0.007059,2.459615,-32.580631,-29.394348,,,,,,,
1558216576.081744,0.107839,0.523895,0.242865,-0.194556,0.104951,0.021098,0.093195,-0.500257,-0.860847,-0.000803,-0.006091,0.000236,2.505805,-32.437988,-29.547806,,,,,,,
1558216576.101756,0.109832,0.520602,0.243611,-0.140279,0.101496,0.021108,0.095090,-0.497402,-0.862293,0.004398,-0.004200,-0.004147,2.505805,-32.437988,-29.547806,,,,,,,
1558216576.121740,0.112159,0.518023,0.243786,-0.058604,0.022880,0.040704,0.097239,-0.495164,-0.863341,0.015828,0.015946,0.003569,2.600515,-32.292236,-29.698883,,,,,,,
1558216576.141708,0.110867,0.516925,0.245043,-0.045104,-0.070177,0.061176,0.096184,-0.494209,-0.864006,0.009742,0.016777,0.016456,2.606069,-32.218861,-29.777987,,,,,,,
1558216576.161708,0.109590,0.516001,0.246241,-0.016247,-0.034389,0.061541,0.095131,-0.493405,-0.864582,0.010765,0.016217,0.003376,2.606069,-32.218861,-29.777987,,,,,,,
1558216576.181694,0.110058,0.515221,0.247430,-0.007416,0.065995,0.069981,0.095578,-0.492727,-0.864919,0.008304,0.012777,0.000524,2.539657,-32.177345,-29.828568,,,,,,,
1558216576.201676,0.110788,0.514056,0.249455,-0.099996,0.085541,0.092514,0.096272,-0.491713,-0.865419,0.000408,0.008437,0.007493,2.554677,-32.130615,-29.877619,,,,,,,
1558216576.221664,0.111021,0.511138,0.252263,-0.183095,0.073322,0.111548,0.096632,-0.489170,-0.866819,0.000810,0.002811,0.009504,2.554677,-32.130615,-29.877619,,,,,,,
1558216576.241649,0.111326,0.508181,0.254841,-0.153264,0.067837,0.082693,0.097057,-0.486589,-0.868223,0.003574,-0.005263,0.002897,2.527952,-32.003551,-30.015951,,,,,,,
1558216576.261615,0.111078,0.506330,0.256918,-0.101201,0.032664,0.070654,0.096941,-0.484971,-0.869141,-0.006289,-0.009963,0.003510,2.497315,-31.893204,-30.135725,,,,,,,
1558216576.281619,0.110107,0.504218,0.258770,-0.155514,0.018128,0.055525,0.096210,-0.483123,-0.870250,-0.009464,-0.016465,-0.006092,2.482810,-31.863930,-30.167870,,,,,,,
1558216576.301602,0.109884,0.501115,0.261049,-0.222340,0.094598,0.066881,0.096180,-0.480404,-0.871758,-0.009052,-0.011417,-0.004753,2.423803,-31.802378,-30.237541,,,,,,,
1558216576.321582,0.109853,0.497278,0.263563,-0.154388,0.055175,0.096453,0.096354,-0.477035,-0.873586,-0.001810,-0.013733,-0.025034,2.417385,-31.650759,-30.396719,,,,,,,
1558216576.341572,0.109228,0.497148,0.265960,0.076504,0.020122,0.086694,0.095815,-0.476921,-0.873708,-0.012548,-0.007500,-0.022913,2.368177,-31.575941,-30.478298,,,,,,,
1558216576.361558,0.106963,0.501793,0.267544,0.215846,-0.033532,0.041453,0.093598,-0.480998,-0.871711,-0.025727,-0.028523,-0.016137,2.314863,-31.624596,-30.431911,,,,,,,
1558216576.381450,0.107083,0.506937,0.268769,0.224078,0.219099,0.075909,0.093437,-0.485502,-0.869228,-0.066841,-0.036577,-0.039006,2.183500,-31.817976,-30.239439,,,,,,,
1558216576.401460,0.115639,0.512060,0.271530,0.260362,0.617555,0.179043,0.100582,-0.489974,-0.865915,-0.090603,-0.026993,-0.040274,2.247960,-31.922743,-30.124077,,,,,,,
1558216576.421445,0.127083,0.518757,0.275646,0.320137,0.688127,0.224608,0.110067,-0.495801,-0.861433,-0.036779,0.002012,0.006468,2.484399,-32.084053,-29.933529,,,,,,,
1558216576.441430,0.136985,0.524780,0.280189,0.232342,0.539568,0.236995,0.118181,-0.501023,-0.857327,-0.019106,-0.017822,0.022686,2.797704,-32.330925,-29.638809,,,,,,,
1558216576.461414,0.143192,0.528126,0.284424,0.088079,0.347877,0.188068,0.123260,-0.503916,-0.854913,-0.027084,-0.030096,0.024011,2.922113,-32.442993,-29.504042,,,,,,,
1558216576.481396,0.146213,0.531739,0.289634,0.129899,0.449157,0.209359,0.125576,-0.507033,-0.852730,-0.067120,-0.018479,0.030235,3.017446,-32.518749,-29.410896,,,,,,,
1558216576.501385,0.155804,0.537578,0.294022,0.346639,0.659462,0.237169,0.133287,-0.512057,-0.848547,-0.043551,-0.000318,0.016180,3.142231,-32.718468,-29.175385,,,,,,,
1558216576.521349,0.165760,0.546436,0.296683,0.398271,0.446559,0.122002,0.140975,-0.519646,-0.842671,-0.016844,0.007378,0.006444,3.257982,-32.834480,-29.032007,,,,,,,
1558216576.541342,0.171840,0.550161,0.295176,0.020795,0.141659,-0.113966,0.145764,-0.522825,-0.839885,0.034580,0.000455,0.015575,3.540905,-33.135887,-28.653963,,,,,,,
1558216576.561322,0.174117,0.547348,0.292235,-0.130695,0.038863,-0.117207,0.147930,-0.520424,-0.840997,0.007404,0.031716,0.004495,3.674250,-33.079865,-28.701870,,,,,,,
1558216576.581302,0.177011,0.546224,0.293483,-0.032506,0.238519,0.149559,0.150466,-0.519464,-0.841140,0.019334,0.038156,-0.011734,3.723519,-33.043037,-28.737921,,,,,,,
1558216576.601297,0.179338,0.546698,0.299451,-0.034683,0.285238,0.283461,0.152379,-0.519869,-0.840545,0.026133,0.039797,-0.014023,3.766172,-33.031296,-28.745857,,,,,,,
1558216576.621293,0.180761,0.546415,0.307212,-0.096522,0.280360,0.338882,0.153601,-0.519627,-0.840473,0.027170,0.006611,-0.002453,3.719146,-33.021233,-28.763542,,,,,,,
1558216576.641257,0.181988,0.544365,0.314443,-0.206224,0.214188,0.233531,0.154825,-0.517875,-0.841329,0.037329,0.001029,-0.008997,3.689171,-33.002895,-28.788433,,,,,,,
1558216576.661247,0.181880,0.539831,0.319938,-0.263876,0.132004,0.187870,0.155157,-0.513991,-0.843647,0.008921,-0.009996,-0.024197,3.624047,-32.839417,-28.982994,,,,,,,
1558216576.681247,0.182884,0.536685,0.324728,-0.141251,0.184173,0.162843,0.156297,-0.511290,-0.845076,0.013090,-0.010790,-0.058641,3.598988,-32.723061,-29.117409,,,,,,,
1558216576.701209,0.185293,0.537249,0.328809,0.084613,0.257022,0.193616,0.158280,-0.511774,-0.844414,0.008819,0.003992,-0.021187,3.608261,-32.699890,-29.142282,,,,,,,
1558216576.721217,0.187572,0.541006,0.332481,0.199236,0.158133,0.203437,0.159844,-0.514998,-0.842156,0.005119,-0.016557,-0.001289,3.621179,-32.787159,-29.042456,,,,,,,
1558216576.741201,0.187397,0.545214,0.335728,0.155177,0.005009,0.144283,0.159292,-0.518601,-0.840047,0.025279,-0.017853,0.019140,3.561715,-32.911995,-28.908295,,,,,,,
1558216576.761186,0.185238,0.547377,0.336162,0.024760,-0.220692,0.017101,0.157270,-0.520449,-0.839285,0.008624,-0.002225,0.017873,3.529269,-32.984493,-28.829540,,,,,,,
1558216576.781172,0.182494,0.545207,0.334506,-0.163100,-0.131174,-0.156219,0.155171,-0.518595,-0.840822,-0.010243,-0.009481,0.014024,3.405815,-32.964935,-28.866734,,,,,,,
1558216576.801129,0.182997,0.539733,0.330716,-0.322494,-0.080768,-0.230599,0.156109,-0.513907,-0.843522,-0.000317,-0.003427,0.012224,3.451160,-32.880993,-28.956949,,,,,,,
1558216576.821141,0.181622,0.532193,0.328316,-0.335634,-0.141841,-0.120159,0.155644,-0.507424,-0.847523,-0.006520,-0.003379,0.009465,3.526505,-32.730659,-29.117737,,,,,,,
1558216576.841126,0.178987,0.526726,0.328248,-0.153656,-0.108821,-0.017203,0.153902,-0.502706,-0.850647,-0.001940,0.016210,-0.012481,3.514583,-32.453747,-29.427486,,,,,,,
1558216576.861096,0.176668,0.525151,0.328839,-0.062156,-0.105016,0.021342,0.152068,-0.501344,-0.851780,0.009889,0.008500,-0.021160,3.467758,-32.377361,-29.517048,,,,,,,
1558216576.881095,0.174318,0.524017,0.329668,-0.057775,-0.066985,0.022777,0.150164,-0.500362,-0.852695,0.005719,0.009136,-0.022259,3.410770,-32.349846,-29.553829,,,,,,,
1558216576.901080,0.173005,0.522242,0.330334,-0.077822,-0.023581,-0.002447,0.149197,-0.498825,-0.853765,-0.005657,0.003952,-0.019679,3.335584,-32.297379,-29.619724,,,,,,,
1558216576.921038,0.173403,0.520235,0.330372,-0.106329,0.039965,-0.018944,0.149709,-0.497084,-0.854690,-0.001302,-0.005128,-0.010850,3.325987,-32.241867,-29.681221,,,,,,,
1558216576.941050,0.174046,0.518210,0.330601,-0.097894,0.026214,0.004419,0.150433,-0.495326,-0.855583,0.002582,-0.001745,-0.007225,3.351944,-32.194420,-29.729763,,,,,,,
1558216576.961019,0.174318,0.516598,0.331123,-0.061962,-0.032040,0.049798,0.150804,-0.493925,-0.856327,0.009642,-0.001680,-0.004406,3.396923,-32.134033,-29.789928,,,,,,,
1558216576.980991,0.172054,0.515582,0.333114,-0.027774,0.005828,0.049121,0.148951,-0.493041,-0.857160,-0.014201,-0.006120,-0.014391,3.324425,-32.070992,-29.865946,,,,,,,
1558216577.001004,0.171997,0.515120,0.334129,-0.041398,0.055527,0.015422,0.148941,-0.492639,-0.857393,-0.012603,-0.007285,-0.007475,3.290843,-32.058811,-29.882738,,,,,,,
1558216577.020988,0.171863,0.514560,0.334766,-0.073388,0.028179,-0.006217,0.148872,-0.492152,-0.857685,-0.010246,-0.010411,0.002613,3.268340,-32.052822,-29.891626,,,,,,,
1558216577.040974,0.171656,0.513509,0.335538,-0.083005,0.029326,0.021546,0.148784,-0.491237,-0.858225,-0.001445,-0.005269,-0.003485,3.263944,-32.009968,-29.937994,,,,,,,
1558216577.060936,0.171115,0.512382,0.336894,-0.052221,0.015462,0.048130,0.148413,-0.490254,-0.858850,-0.006735,-0.003490,-0.002493,3.255401,-31.978245,-29.972811,,,,,,,
1558216577.080923,0.169451,0.512250,0.338386,-0.023369,0.026862,0.000221,0.146995,-0.490139,-0.859160,-0.016898,-0.008869,-0.005174,3.183947,-31.955994,-30.004196,,,,,,,
1558216577.100929,0.169783,0.511934,0.338087,-0.011575,0.034136,-0.040270,0.147307,-0.489864,-0.859264,-0.011336,-0.001042,-0.007619,3.184033,-31.952953,-30.007427,,,,,,,
1558216577.120883,0.170732,0.511765,0.337539,0.003352,0.051000,-0.019811,0.148136,-0.489717,-0.859205,-0.007221,0.002962,0.000654,3.192210,-31.946951,-30.012949,,,,,,,
1558216577.140890,0.171449,0.511614,0.337702,-0.039324,0.034354,0.008822,0.148764,-0.489585,-0.859171,-0.004248,0.000053,0.007105,3.238339,-31.942631,-30.012606,,,,,,,
1558216577.160882,0.171560,0.510287,0.338242,-0.107462,0.029421,0.005518,0.148970,-0.488427,-0.859794,-0.002822,-0.005256,0.007469,3.241196,-31.908638,-30.048437,,,,,,,
1558216577.180854,0.172268,0.508398,0.338661,-0.086085,0.053613,0.000428,0.149737,-0.486779,-0.860596,-0.002383,-0.002159,0.005829,3.247274,-31.882133,-30.075899,,,,,,,
1558216577.200852,0.173361,0.507437,0.338805,-0.048836,0.048122,-0.006001,0.150758,-0.485939,-0.860892,0.000716,-0.001320,0.010428,3.294480,-31.814522,-30.142288,,,,,,,
1558216577.220836,0.174160,0.506303,0.338428,-0.095763,0.006042,-0.037403,0.151541,-0.484948,-0.861313,0.001703,-0.003822,0.008774,3.330583,-31.787735,-30.166574,,,,,,,
1558216577.240822,0.174169,0.504032,0.338084,-0.097926,0.000784,-0.026779,0.151740,-0.482960,-0.862395,-0.001121,-0.000225,-0.001924,3.345663,-31.760937,-30.193119,,,,,,,
1558216577.260806,0.174537,0.501861,0.338322,-0.084076,0.021907,0.010802,0.152239,-0.481058,-0.863369,0.002577,0.007822,-0.002323,3.372090,-31.662209,-30.293701,,,,,,,
1558216577.280791,0.174321,0.500254,0.339152,-0.064996,0.004918,0.026669,0.152186,-0.479649,-0.864162,-0.000102,0.007145,0.002041,3.371270,-31.606606,-30.351803,,,,,,,
1558216577.300754,0.173520,0.499217,0.339416,-0.040661,-0.059752,-0.016636,0.151580,-0.478738,-0.864774,-0.000975,0.000406,-0.003558,3.365201,-31.584459,-30.375523,,,,,,,
1558216577.320733,0.172707,0.498565,0.338638,-0.003370,-0.058922,-0.037952,0.150930,-0.478165,-0.865204,0.009287,0.000428,-0.014618,3.330234,-31.549702,-30.415470,,,,,,,
1558216577.340718,0.172732,0.498042,0.337999,-0.023437,0.001472,-0.011767,0.150995,-0.477706,-0.865446,0.010977,0.003295,-0.014925,3.345131,-31.531061,-30.433163,,,,,,,
1558216577.360721,0.173490,0.496602,0.338769,-0.097803,0.071708,0.043295,0.151770,-0.476440,-0.866008,0.004755,0.001175,-0.008351,3.350461,-31.521191,-30.442799,,,,,,,
1558216577.380697,0.174088,0.494673,0.340450,-0.105323,0.058030,0.059173,0.152446,-0.474744,-0.866821,0.000416,-0.004535,-0.003708,3.376482,-31.433626,-30.530334,,,,,,,
1558216577.400677,0.173939,0.493487,0.341681,-0.045773,0.022780,0.022584,0.152414,-0.473700,-0.867397,-0.006922,-0.008417,-0.007908,3.361886,-31.388065,-30.578781,,,,,,,
1558216577.420685,0.173983,0.493493,0.341647,0.011671,-0.010360,-0.024664,0.152452,-0.473705,-0.867388,-0.007189,-0.008045,-0.003599,3.364234,-31.377392,-30.589479,,,,,,,
1558216577.440670,0.173908,0.493909,0.340703,0.003099,-0.034649,-0.039850,0.152353,-0.474071,-0.867205,0.000464,-0.004505,0.003878,3.369729,-31.391632,-30.574261,,,,,,,
1558216577.460644,0.173643,0.492913,0.340449,-0.080905,0.009182,-0.004265,0.152204,-0.473194,-0.867710,-0.005628,0.001881,0.004475,3.369504,-31.378387,-30.587875,,,,,,,
1558216577.480640,0.173819,0.490661,0.341512,-0.136166,0.052861,0.030273,0.152541,-0.471209,-0.868731,-0.008453,-0.000761,0.004092,3.374376,-31.350819,-30.615597,,,,,,,
1558216577.500625,0.173591,0.488287,0.342710,-0.147879,0.034897,-0.006207,0.152536,-0.469114,-0.869865,-0.016000,-0.005419,0.005729,3.376967,-31.236219,-30.732225,,,,,,,
1558216577.520609,0.173767,0.486053,0.342829,-0.090333,0.040892,-0.034929,0.152870,-0.467139,-0.870868,-0.019553,-0.004128,0.005390,3.370405,-31.164768,-30.805399,,,,,,,
1558216577.540594,0.175018,0.485150,0.342216,-0.013669,0.050010,-0.029442,0.154032,-0.466341,-0.871091,-0.012843,-0.004652,-0.003512,3.394991,-31.139164,-30.828583,,,,,,,
1558216577.560579,0.175368,0.484886,0.342061,-0.023408,0.010981,-0.009538,0.154359,-0.466107,-0.871159,-0.011887,0.001660,0.004414,3.444401,-31.119280,-30.843176,,,,,,,
1558216577.580563,0.174662,0.484105,0.342333,-0.083084,-0.013032,-0.018356,0.153807,-0.465416,-0.871626,-0.011275,-0.000557,0.010420,3.437968,-31.098970,-30.864372,,,,,,,
1558216577.600547,0.174110,0.482197,0.342244,-0.099060,-0.020362,-0.028047,0.153480,-0.463727,-0.872583,-0.009986,0.003903,0.014780,3.437968,-31.098970,-30.864372,,,,,,,
1558216577.620504,0.172675,0.480293,0.342362,-0.102412,-0.067909,-0.026369,0.152378,-0.462039,-0.873671,-0.012303,0.005817,0.012770,3.410247,-31.020859,-30.945946,,,,,,,
1558216577.640518,0.169807,0.478427,0.342421,-0.089638,-0.083888,-0.061742,0.150018,-0.460383,-0.874953,-0.018548,0.004450,0.010863,3.327559,-30.927887,-31.047832,,,,,,,
1558216577.660495,0.168488,0.476363,0.341246,-0.096999,-0.066974,-0.085073,0.149022,-0.458550,-0.876084,-0.021062,0.007440,0.014237,3.327559,-30.927887,-31.047832,,,,,,,
1558216577.680471,0.165295,0.473717,0.340851,-0.149261,-0.106835,-0.082277,0.146424,-0.456197,-0.877750,-0.029282,0.009252,0.020084,3.267155,-30.834110,-31.147366,,,,,,,
1558216577.700451,0.161276,0.470137,0.340600,-0.182371,-0.137308,-0.075119,0.143156,-0.453008,-0.879937,-0.040220,0.011129,0.020944,3.152679,-30.687325,-31.303732,,,,,,,
1558216577.720431,0.157976,0.465816,0.339875,-0.230208,-0.130761,-0.103919,0.140558,-0.449152,-0.882330,-0.047494,0.002314,0.012487,3.096031,-30.627224,-31.368183,,,,,,,
1558216577.740438,0.154310,0.460782,0.339401,-0.237404,-0.057813,-0.114967,0.137669,-0.444649,-0.885062,-0.048939,0.008034,0.009040,2.984691,-30.405838,-31.593536,,,,,,,
1558216577.760419,0.153446,0.455287,0.337518,-0.270519,-0.101002,-0.132489,0.137275,-0.439720,-0.887582,-0.050239,0.004890,0.011194,2.959451,-30.281990,-31.714626,,,,,,,
1558216577.780411,0.152037,0.449759,0.335043,-0.239734,-0.140317,-0.161667,0.136390,-0.434748,-0.890164,-0.056159,-0.014287,0.011319,2.971490,-30.148069,-31.840841,,,,,,,
1558216577.800397,0.147752,0.445273,0.332588,-0.215401,-0.204989,-0.202835,0.132861,-0.430705,-0.892660,-0.075884,-0.029272,-0.011057,2.896509,-29.918335,-32.063660,,,,,,,
1558216577.820355,0.145481,0.440266,0.328029,-0.220672,-0.217738,-0.264884,0.131144,-0.426180,-0.895082,-0.069209,-0.036512,-0.021117,2.894637,-29.805073,-32.169140,,,,,,,
1558216577.840366,0.144010,0.435148,0.321975,-0.204540,-0.199960,-0.336234,0.130139,-0.421544,-0.897421,-0.066250,-0.029139,-0.030420,2.909085,-29.687504,-32.276371,,,,,,,
1558216577.860351,0.141136,0.431019,0.315482,-0.107755,-0.230086,-0.347119,0.127802,-0.417797,-0.899507,-0.053187,-0.008381,-0.041030,3.006005,-29.475956,-32.460850,,,,,,,
1558216577.880330,0.138199,0.429172,0.308672,-0.031468,-0.321335,-0.310563,0.125266,-0.416118,-0.900641,-0.046546,-0.018269,-0.041604,2.971535,-29.416191,-32.518188,,,,,,,
1558216577.900320,0.133821,0.427616,0.301245,-0.023100,-0.395465,-0.374258,0.121408,-0.414702,-0.901822,-0.059412,-0.016191,-0.041721,2.941725,-29.375648,-32.557526,,,,,,,
1558216577.920305,0.128898,0.427482,0.292743,0.097447,-0.341219,-0.429157,0.116974,-0.414581,-0.902463,-0.074113,-0.012589,-0.044818,2.919795,-29.354656,-32.578426,,,,,,,
1558216577.940289,0.126382,0.428697,0.282601,0.103907,-0.334964,-0.464325,0.114640,-0.415686,-0.902254,-0.074723,-0.014566,-0.026258,2.891246,-29.389645,-32.549416,,,,,,,
1558216577.960269,0.123867,0.428288,0.272308,0.009223,-0.319673,-0.467457,0.112392,-0.415314,-0.902708,-0.070323,-0.029968,-0.039476,2.941921,-29.419273,-32.518093,,,,,,,
1558216577.980260,0.122656,0.427595,0.262130,0.038481,-0.181423,-0.508815,0.111333,-0.414684,-0.903129,-0.065755,-0.037754,-0.068902,3.065648,-29.394932,-32.528675,,,,,,,
1558216578.000237,0.124100,0.427749,0.249727,0.099174,-0.215695,-0.595574,0.112629,-0.414823,-0.902904,-0.054188,-0.050310,-0.050266,3.223126,-29.405403,-32.503979,,,,,,,
1558216578.020229,0.123695,0.428854,0.234397,0.148927,-0.375814,-0.761484,0.112207,-0.415829,-0.902494,-0.052316,-0.050160,-0.046297,3.326482,-29.419754,-32.480576,,,,,,,
1558216578.040213,0.123425,0.430340,0.215720,0.191549,-0.406835,-0.857835,0.111887,-0.417180,-0.901911,-0.006357,-0.052059,-0.032461,3.629103,-29.497938,-32.377090,,,,,,,
1558216578.060199,0.123865,0.431843,0.197112,0.156625,-0.323077,-0.810085,0.112207,-0.418545,-0.901238,0.002753,-0.032917,-0.022285,3.875309,-29.556053,-32.295460,,,,,,,
1558216578.080170,0.126233,0.431173,0.179313,0.003671,-0.226098,-0.818888,0.114376,-0.417936,-0.901248,-0.012203,-0.025270,-0.024167,4.015248,-29.570185,-32.265415,,,,,,,
1558216578.100146,0.130038,0.428100,0.160610,-0.044016,-0.194247,-0.892289,0.117970,-0.415143,-0.902075,0.016796,-0.025775,-0.045343,4.344563,-29.520386,-32.268353,,,,,,,
1558216578.120153,0.133707,0.425406,0.140241,0.024893,-0.289772,-0.913433,0.121428,-0.412691,-0.902741,0.013918,-0.051222,-0.062194,4.945426,-29.358727,-32.329288,,,,,,,
1558216578.140127,0.136712,0.426865,0.121208,0.283676,-0.226561,-0.850698,0.124057,-0.414019,-0.901775,0.007122,-0.014921,-0.077916,4.945426,-29.358727,-32.329288,,,,,,,
1558216578.160112,0.140559,0.431482,0.100370,0.380642,-0.242016,-0.950059,0.127256,-0.418217,-0.899389,-0.018019,-0.006420,-0.074229,5.463920,-29.402870,-32.205463,,,,,,,
1558216578.180109,0.145189,0.435923,0.077331,0.356159,-0.268400,-1.007985,0.131149,-0.422247,-0.896943,0.020035,0.003943,-0.056594,6.077710,-29.594215,-31.918941,,,,,,,
1558216578.200076,0.149178,0.440111,0.055619,0.355020,-0.239687,-0.895608,0.134462,-0.426040,-0.894656,-0.004792,0.009368,-0.067639,6.077710,-29.594215,-31.918941,,,,,,,
1558216578.220053,0.154189,0.444581,0.035351,0.374534,-0.128793,-0.888125,0.138649,-0.430080,-0.892081,-0.023979,0.014354,-0.085199,6.868216,-29.803932,-31.561497,,,,,,,
1558216578.240063,0.163152,0.449749,0.013554,0.421898,0.004053,-0.947671,0.146277,-0.434740,-0.888597,-0.006598,0.005647,-0.084715,7.379099,-29.924387,-31.331371,,,,,,,
1558216578.260043,0.172194,0.454775,-0.008879,0.417359,-0.077300,-0.938845,0.153929,-0.439260,-0.885074,0.024614,0.009466,-0.076138,7.804738,-30.011372,-31.144478,,,,,,,
1558216578.280016,0.178747,0.460362,-0.030253,0.469136,-0.165212,-0.876654,0.159286,-0.444273,-0.881618,0.012802,0.017713,-0.088567,8.413093,-30.155544,-30.845387,,,,,,,
1558216578.300016,0.185541,0.467662,-0.051485,0.562979,-0.112850,-0.873942,0.164670,-0.450800,-0.877304,0.015979,0.021143,-0.091613,8.846946,-30.317299,-30.564157,,,,,,,
1558216578.319980,0.194181,0.475750,-0.074028,0.598340,-0.070850,-0.937571,0.171534,-0.458006,-0.872242,0.046667,0.029249,-0.086162,9.206438,-30.458988,-30.316113,,,,,,,
1558216578.339970,0.203521,0.484376,-0.097833,0.654706,-0.089124,-0.943039,0.178868,-0.465656,-0.866701,0.043101,0.046909,-0.074492,9.868921,-30.694901,-29.866409,,,,,,,
1558216578.359972,0.212955,0.494113,-0.121066,0.699431,-0.054382,-0.878612,0.186070,-0.474251,-0.860502,0.046291,0.059624,-0.065828,10.257685,-30.854076,-29.569933,,,,,,,
1558216578.379955,0.222675,0.503881,-0.143092,0.672745,-0.046744,-0.812366,0.193393,-0.482828,-0.854094,0.108060,0.050592,-0.041185,10.767021,-31.079510,-29.149788,,,,,,,
1558216578.399941,0.230049,0.513620,-0.162349,0.666907,-0.124676,-0.640158,0.198603,-0.491334,-0.848026,0.092046,0.033601,-0.061612,11.315163,-31.350060,-28.648136,,,,,,,
1558216578.419925,0.236230,0.523995,-0.179051,0.675486,-0.076003,-0.575626,0.202638,-0.500343,-0.841781,0.071120,0.049217,-0.063691,11.550694,-31.531301,-28.353720,,,,,,,
1558216578.439910,0.245088,0.534391,-0.196509,0.690854,0.037984,-0.635379,0.208812,-0.509317,-0.834861,0.080067,0.075647,-0.025307,11.887494,-31.775944,-27.938358,,,,,,,
1558216578.459896,0.254163,0.544621,-0.214548,0.685109,-0.069734,-0.590506,0.215058,-0.518094,-0.827846,0.104476,0.078199,-0.012181,12.403770,-32.060127,-27.383747,,,,,,,
1558216578.479866,0.258380,0.555718,-0.229282,0.700321,-0.213287,-0.401827,0.217065,-0.527553,-0.821322,0.085639,0.073894,-0.008100,12.614796,-32.240963,-27.073273,,,,,,,
1558216578.499864,0.261306,0.567325,-0.241718,0.693019,-0.146588,-0.355285,0.217871,-0.537378,-0.814713,0.066675,0.076792,0.006867,12.758474,-32.516644,-26.673290,,,,,,,
1558216578.519850,0.266838,0.578516,-0.254777,0.696481,-0.073700,-0.374871,0.220775,-0.546782,-0.807643,0.087895,0.068221,0.022243,12.989820,-32.848892,-26.149376,,,,,,,
1558216578.539807,0.271292,0.589985,-0.266727,0.680178,-0.135849,-0.287932,0.222675,-0.556349,-0.800557,0.104611,0.064802,0.031835,13.135745,-33.047504,-25.824205,,,,,,,
1558216578.559819,0.273786,0.600679,-0.276271,0.585156,-0.174302,-0.183748,0.223049,-0.565203,-0.794226,0.080784,0.063188,0.051993,13.267443,-33.309814,-25.416649,,,,,,,
1558216578.579804,0.274672,0.609104,-0.283526,0.430928,-0.135435,-0.180296,0.222454,-0.572133,-0.789416,0.073308,0.055760,0.038363,13.309828,-33.592735,-25.019024,,,,,,,
1558216578.599774,0.282404,0.613935,-0.293237,0.370953,0.056140,-0.226561,0.227778,-0.576088,-0.785009,0.068075,0.043282,0.021353,13.505823,-33.656689,-24.827301,,,,,,,
1558216578.619774,0.288488,0.619620,-0.300773,0.353936,0.077424,-0.190070,0.231614,-0.580726,-0.780457,0.076903,0.032111,0.008285,13.638581,-33.748569,-24.629215,,,,,,,
1558216578.639759,0.295423,0.624637,-0.307844,0.335285,-0.027962,-0.050170,0.236169,-0.584803,-0.776035,0.053260,0.004969,-0.003613,13.977819,-33.900394,-24.227232,,,,,,,
1558216578.659739,0.296380,0.630166,-0.310464,0.268263,-0.005379,-0.027587,0.235964,-0.589279,-0.772704,0.052885,-0.006409,-0.005418,13.979858,-34.010231,-24.071613,,,,,,,
1558216578.679728,0.299854,0.633957,-0.314607,0.215509,0.077147,-0.160296,0.237985,-0.592338,-0.769740,0.045508,-0.013329,-0.013906,14.014002,-34.121975,-23.892960,,,,,,,
1558216578.699714,0.308059,0.636100,-0.323021,0.256412,0.157080,-0.286550,0.243907,-0.594063,-0.766550,0.018559,-0.005257,-0.052191,14.173433,-34.140903,-23.771568,,,,,,,
1558216578.719698,0.319682,0.639317,-0.333144,0.378050,0.250601,-0.253518,0.252199,-0.596647,-0.761845,0.062102,0.006285,-0.053646,14.573470,-34.220509,-23.412512,,,,,,,
1558216578.739667,0.329473,0.645951,-0.340857,0.416198,0.248452,-0.142473,0.258359,-0.601958,-0.755577,0.074587,0.003584,-0.052314,14.850227,-34.264160,-23.173538,,,,,,,
1558216578.759664,0.337554,0.651595,-0.346513,0.358247,0.158026,-0.029150,0.263327,-0.606455,-0.750247,0.059564,-0.025533,-0.069852,15.069314,-34.452644,-22.748760,,,,,,,
1558216578.779653,0.343531,0.658013,-0.350107,0.353135,0.219351,-0.034973,0.266490,-0.611546,-0.744980,0.046254,-0.020885,-0.085449,15.226472,-34.569023,-22.465801,,,,,,,
1558216578.799625,0.351988,0.665507,-0.354677,0.469512,0.323377,-0.039222,0.271193,-0.617458,-0.738376,0.039201,-0.001683,-0.088146,15.290802,-34.643925,-22.306156,,,,,,,
1558216578.819601,0.361698,0.675355,-0.359852,0.646876,0.252854,0.074481,0.276185,-0.625174,-0.729986,0.073074,-0.021524,-0.054743,15.551192,-34.927425,-21.675108,,,,,,,
1558216578.839607,0.366497,0.690109,-0.363138,0.789871,0.084191,0.177610,0.276349,-0.636621,-0.719962,0.063693,-0.017340,-0.057443,15.561211,-35.171421,-21.269579,,,,,,,
1558216578.859590,0.370338,0.707134,-0.366762,0.855835,0.066910,0.162550,0.275149,-0.649658,-0.708687,0.044416,-0.021454,-0.041587,15.474072,-35.562252,-20.674965,,,,,,,
1558216578.879557,0.375619,0.723236,-0.372134,0.791197,0.112557,0.065779,0.275014,-0.661814,-0.697402,0.049769,-0.017126,-0.016328,15.388447,-36.043068,-19.891401,,,,,,,
1558216578.899561,0.382707,0.736417,-0.378208,0.646597,0.158750,0.053294,0.276669,-0.671638,-0.687283,0.058414,-0.007333,-0.025944,15.399467,-36.276375,-19.453949,,,,,,,
1558216578.919528,0.388432,0.748873,-0.381308,0.616693,0.184457,0.175227,0.277409,-0.680813,-0.677892,0.078990,0.001263,-0.021312,15.420881,-36.541569,-18.933701,,,,,,,
1558216578.939505,0.392796,0.762129,-0.382481,0.655792,0.138937,0.266640,0.276886,-0.690463,-0.668278,0.072342,-0.006452,-0.020992,15.317579,-36.907532,-18.297020,,,,,,,
1558216578.959515,0.394902,0.777712,-0.382671,0.759883,0.083471,0.297154,0.274119,-0.701651,-0.657681,0.061956,-0.004694,-0.022342,15.171804,-37.237000,-17.742519,,,,,,,
1558216578.979501,0.397130,0.794100,-0.383711,0.762045,0.080246,0.268298,0.271100,-0.713233,-0.646377,0.057574,-0.006310,-0.037690,15.075893,-37.416378,-17.444397,,,,,,,
1558216578.999472,0.401372,0.809363,-0.385857,0.712408,0.170255,0.202926,0.269555,-0.723848,-0.635126,0.056205,0.008271,-0.043844,14.835086,-37.916428,-16.548105,,,,,,,
1558216579.019454,0.407714,0.823503,-0.388872,0.702922,0.205206,0.216063,0.269492,-0.733531,-0.623944,0.072686,0.030101,-0.025287,14.762533,-38.195015,-15.961935,,,,,,,
1558216579.039455,0.412020,0.838593,-0.389357,0.695239,0.191691,0.340842,0.267712,-0.743704,-0.612564,0.086734,0.030859,-0.020904,14.673287,-38.413410,-15.513844,,,,,,,
1558216579.059440,0.414793,0.854236,-0.387042,0.689766,0.197174,0.452992,0.264688,-0.754069,-0.601099,0.068121,0.017756,-0.010062,14.422192,-38.799805,-14.769918,,,,,,,
1558216579.079419,0.416359,0.869737,-0.383125,0.638989,0.270298,0.401336,0.260871,-0.764159,-0.589921,0.035043,0.004989,-0.022124,14.203970,-39.043877,-14.331707,,,,,,,
1558216579.099408,0.422941,0.883580,-0.381617,0.610944,0.435186,0.298262,0.260381,-0.773015,-0.578489,0.042750,0.013432,-0.011049,13.993286,-39.326725,-13.753963,,,,,,,
1558216579.119394,0.431214,0.896722,-0.380880,0.575798,0.438570,0.317484,0.260889,-0.781285,-0.567037,0.082785,0.019200,0.006704,13.847303,-39.630447,-13.009800,,,,,,,
1558216579.139355,0.437081,0.909584,-0.377421,0.511423,0.364124,0.491811,0.259935,-0.789248,-0.556346,0.086271,0.015948,0.000422,13.769360,-39.796947,-12.577056,,,,,,,
1558216579.159363,0.436905,0.922421,-0.367080,0.394428,0.430391,0.571358,0.255529,-0.797066,-0.547166,0.057490,0.022347,0.005448,13.457739,-40.058174,-12.075059,,,,,,,
1558216579.179348,0.440739,0.930974,-0.357180,0.261233,0.665594,0.465667,0.254707,-0.802202,-0.539997,0.037193,0.024416,-0.005322,15.763629,-42.739590,-13.210046,,,,,,,
1558216579.199322,0.449320,0.938640,-0.349100,0.240380,0.742684,0.343608,0.256653,-0.806755,-0.532236,0.086594,0.012352,0.006128,15.629987,-42.889423,-12.879084,,,,,,,
1558216579.219318,0.456205,0.946205,-0.342793,0.276778,0.497319,0.378656,0.257615,-0.811202,-0.524962,0.117446,0.007888,0.015502,15.545845,-43.016613,-12.552586,,,,,,,
1558216579.239302,0.456723,0.955986,-0.332786,0.324249,0.434929,0.528635,0.254375,-0.816883,-0.517682,0.088947,0.038456,-0.004153,15.375683,-43.192917,-12.150311,,,,,,,
1558216579.259286,0.460316,0.965794,-0.322291,0.328238,0.683328,0.541689,0.252663,-0.822501,-0.509563,0.077644,0.048956,0.017711,14.927735,-43.521435,-11.520302,,,,,,,
1558216579.279265,0.465107,0.974996,-0.310224,0.207080,0.724073,0.502479,0.251696,-0.827700,-0.501560,0.088377,0.043657,0.020618,14.927735,-43.521435,-11.520302,,,,,,,
1558216579.299228,0.466010,0.982068,-0.296037,0.111752,0.565030,0.545721,0.249512,-0.831648,-0.496091,0.084625,0.047697,0.023450,14.344596,-43.921341,-10.715316,,,,,,,
1558216579.319238,0.462517,0.989463,-0.279202,0.138148,0.522686,0.596583,0.245027,-0.835731,-0.491442,0.045149,0.062721,0.006838,13.958034,-44.106781,-10.461115,,,,,,,
1558216579.339206,0.460711,0.997187,-0.263273,0.171557,0.621787,0.540973,0.241262,-0.839948,-0.486087,0.040690,0.072995,0.004352,13.750280,-44.203831,-10.325738,,,,,,,
1558216579.359182,0.462039,1.004869,-0.250171,0.187494,0.576132,0.460475,0.239024,-0.844092,-0.479976,0.085958,0.084982,0.035701,13.239120,-44.467388,-9.851236,,,,,,,
1558216579.379189,0.460013,1.012519,-0.236840,0.181452,0.394479,0.542008,0.235177,-0.848169,-0.474659,0.092292,0.096322,0.034718,13.009954,-44.585007,-9.622268,,,,,,,
1558216579.399172,0.450726,1.020515,-0.217354,0.112989,0.369722,0.710403,0.227797,-0.852378,-0.470703,0.058031,0.118460,0.012695,12.595387,-44.756054,-9.376647,,,,,,,
1558216579.419149,0.439746,1.027502,-0.192808,-0.001262,0.588071,0.713469,0.220074,-0.856010,-0.467775,0.032474,0.114799,0.012789,11.889791,-44.994598,-9.153629,,,,,,,
1558216579.439151,0.433541,1.032304,-0.169674,-0.036896,0.706477,0.601403,0.215438,-0.858483,-0.465396,0.042420,0.121850,0.020083,11.513896,-45.111977,-9.055907,,,,,,,
1558216579.459109,0.427026,1.037284,-0.147660,0.011467,0.544569,0.647936,0.210628,-0.861026,-0.462893,0.062855,0.141040,0.023913,11.091509,-45.243114,-8.927969,,,,,,,
1558216579.479121,0.414409,1.043837,-0.121982,0.045099,0.471648,0.775383,0.202495,-0.864340,-0.460339,0.054356,0.150946,0.020702,10.435352,-45.430492,-8.766047,,,,,,,
1558216579.499105,0.399669,1.050586,-0.092356,-0.021617,0.598911,0.823524,0.193414,-0.867714,-0.457889,0.058021,0.153298,0.023746,9.957065,-45.557568,-8.662235,,,,,,,
1558216579.519090,0.382681,1.054849,-0.058416,-0.187667,0.633712,0.893121,0.184225,-0.869826,-0.457673,0.037562,0.147749,0.027344,9.304049,-45.709877,-8.585558,,,,,,,
1558216579.539075,0.359903,1.057188,-0.017366,-0.285769,0.648183,1.037313,0.173036,-0.870977,-0.459845,0.010360,0.110815,0.012579,8.375937,-45.869213,-8.690742,,,,,,,
1558216579.559060,0.333845,1.059466,0.027389,-0.231518,0.653237,1.073705,0.160346,-0.872094,-0.462321,0.014734,0.092446,0.010066,7.733068,-45.959408,-8.809193,,,,,,,
1558216579.579045,0.309896,1.062651,0.069326,-0.165498,0.616811,0.979456,0.148380,-0.873649,-0.463381,0.003643,0.095298,0.025514,6.870919,-46.076309,-8.912568,,,,,,,
1558216579.599027,0.289405,1.063856,0.108151,-0.255475,0.724951,0.880060,0.138554,-0.874234,-0.465314,-0.060506,0.092007,0.028379,5.910886,-46.186508,-9.029826,,,,,,,
1558216579.618985,0.273289,1.063239,0.143095,-0.251192,0.684605,0.775048,0.131183,-0.873934,-0.468006,0.000271,0.085513,0.044087,5.274285,-46.231125,-9.194284,,,,,,,
1558216579.638999,0.255217,1.063408,0.176493,-0.188083,0.469753,0.810410,0.122667,-0.874017,-0.470157,0.034117,0.085641,0.056308,4.978718,-46.248482,-9.271456,,,,,,,
1558216579.658984,0.229121,1.062902,0.215231,-0.303616,0.377605,0.986665,0.110458,-0.873770,-0.473629,0.002976,0.101294,0.012661,3.946468,-46.300365,-9.506375,,,,,,,
1558216579.678967,0.199388,1.060172,0.260832,-0.395598,0.604406,1.065632,0.096801,-0.872440,-0.479039,-0.059020,0.122791,-0.006907,3.072086,-46.306286,-9.795920,,,,,,,
1558216579.698952,0.178103,1.056307,0.302301,-0.358506,0.793139,0.879562,0.087180,-0.870544,-0.484306,-0.053504,0.106811,-0.003029,2.648299,-46.297199,-9.961203,,,,,,,
1558216579.718925,0.162270,1.052531,0.335781,-0.319748,0.534864,0.752222,0.080032,-0.868680,-0.488866,0.008759,0.088269,0.021611,1.672437,-46.245827,-10.401744,,,,,,,
1558216579.738896,0.139046,1.049017,0.369994,-0.279341,0.254727,0.875555,0.069081,-0.866933,-0.493613,-0.014790,0.117574,-0.025933,1.031247,-46.201385,-10.678885,,,,,,,
1558216579.758885,0.110659,1.046856,0.410281,-0.206744,0.394116,1.040298,0.055249,-0.865855,-0.497236,-0.006223,0.109888,-0.019747,1.031247,-46.201385,-10.678885,,,,,,,
1558216579.778891,0.083909,1.044312,0.452605,-0.278623,0.540337,1.023490,0.042115,-0.864579,-0.500729,-0.005661,0.106354,0.012295,-0.215048,-46.136967,-11.000175,,,,,,,
1558216579.798877,0.060484,1.037355,0.492581,-0.503187,0.528752,0.969816,0.030737,-0.861062,-0.507569,-0.038382,0.095529,0.009111,-1.435507,-46.005383,-11.450489,,,,,,,
1558216579.818851,0.035448,1.027533,0.532308,-0.519566,0.425321,1.016857,0.018320,-0.856026,-0.516608,-0.024164,0.088295,0.000846,-1.435507,-46.005383,-11.450489,,,,,,,
1558216579.838847,0.009592,1.019992,0.572366,-0.325880,0.416926,1.031879,0.005020,-0.852104,-0.523349,-0.006088,0.091972,-0.003339,-2.642534,-45.759117,-12.197960,,,,,,,
1558216579.858807,-0.015753,1.014463,0.611987,-0.268474,0.411397,1.070307,-0.008319,-0.849197,-0.528011,-0.023450,0.112197,0.027370,-3.901929,-45.536343,-12.684084,,,,,,,
1558216579.878787,-0.044024,1.007055,0.654122,-0.391151,0.368824,1.150943,-0.023517,-0.845262,-0.533835,-0.032956,0.106828,0.027380,-3.901929,-45.536343,-12.684084,,,,,,,
1558216579.898794,-0.068795,0.996384,0.694459,-0.519408,0.504697,1.084879,-0.037350,-0.839512,-0.542057,-0.050083,0.096500,0.016437,-5.723591,-45.125706,-13.438036,,,,,,,
1558216579.918786,-0.090086,0.983262,0.731073,-0.594186,0.408851,1.050804,-0.049868,-0.832310,-0.552063,-0.033368,0.096516,0.012634,-6.544830,-44.842945,-13.998048,,,,,,,
1558216579.938754,-0.115113,0.969600,0.768226,-0.543810,0.232202,1.143107,-0.064968,-0.824660,-0.561886,-0.028660,0.088621,-0.004124,-7.186376,-44.606773,-14.431265,,,,,,,
1558216579.958731,-0.141605,0.957009,0.806489,-0.467029,0.285743,1.168236,-0.081287,-0.817473,-0.570202,-0.051754,0.106474,0.004315,-8.374557,-44.192764,-15.051130,,,,,,,
1558216579.978742,-0.162558,0.942686,0.842410,-0.633367,0.503235,1.121073,-0.095102,-0.809139,-0.579870,-0.078940,0.085888,0.011068,-9.279758,-43.833683,-15.561625,,,,,,,
1558216579.998726,-0.177546,0.923070,0.875347,-0.872626,0.594386,1.153783,-0.106565,-0.797458,-0.593890,-0.061068,0.047473,0.018465,-9.686187,-43.622303,-15.904152,,,,,,,
1558216580.018698,-0.189686,0.903466,0.906556,-0.686063,0.664177,1.121504,-0.116692,-0.785477,-0.607791,-0.058509,0.073761,-0.008512,-10.850626,-42.864323,-17.163439,,,,,,,
1558216580.038696,-0.202944,0.889546,0.938854,-0.375747,0.500799,1.105241,-0.126931,-0.776786,-0.616840,-0.050940,0.097465,0.014210,-11.401297,-42.518776,-17.658819,,,,,,,
1558216580.058658,-0.222445,0.878864,0.970307,-0.313126,0.115700,1.093064,-0.140758,-0.770015,-0.622306,-0.068349,0.093577,0.031775,-12.177250,-42.128963,-18.070271,,,,,,,
1558216580.078634,-0.242638,0.866537,1.000534,-0.417031,0.232487,1.072746,-0.155564,-0.762092,-0.628503,-0.122787,0.081702,0.025949,-13.259382,-41.626858,-18.467888,,,,,,,
1558216580.098645,-0.253337,0.852303,1.026731,-0.525407,0.563726,0.955185,-0.164981,-0.752798,-0.637241,-0.113385,0.071615,0.054432,-13.819283,-41.290916,-18.808437,,,,,,,
1558216580.118625,-0.258328,0.835041,1.047621,-0.754412,0.480234,0.865588,-0.171454,-0.741324,-0.648878,-0.090051,0.049979,0.078718,-14.383091,-40.814049,-19.416740,,,,,,,
1558216580.138619,-0.264511,0.813034,1.066934,-0.951733,0.415915,0.985458,-0.179686,-0.726376,-0.663394,-0.150759,-0.002399,0.015917,-15.060289,-40.083809,-20.399654,,,,,,,
1558216580.158603,-0.268797,0.789027,1.086842,-0.962749,0.598745,0.924208,-0.187105,-0.709668,-0.679237,-0.182585,0.044049,-0.028405,-15.527043,-39.550625,-21.079102,,,,,,,
1558216580.178588,-0.263532,0.766941,1.101012,-0.925595,0.778932,0.678269,-0.187564,-0.693936,-0.695178,-0.162839,-0.010685,-0.005368,-15.951414,-38.857315,-22.030235,,,,,,,
1558216580.198575,-0.256518,0.747136,1.108230,-0.861282,0.475915,0.427725,-0.186134,-0.679540,-0.709633,-0.113426,0.017888,-0.023262,-16.139709,-38.099396,-23.186541,,,,,,,
1558216580.218559,-0.252468,0.729672,1.112929,-0.764821,0.336890,0.394443,-0.186195,-0.666625,-0.721763,-0.099709,0.026351,-0.028725,-16.221634,-37.707104,-23.763474,,,,,,,
1558216580.238544,-0.250708,0.711915,1.120646,-0.716764,0.420255,0.473221,-0.187832,-0.653285,-0.733442,-0.096225,0.072108,-0.022371,-16.423519,-37.161102,-24.474277,,,,,,,
1558216580.258529,-0.249039,0.695284,1.129429,-0.724708,0.309437,0.558633,-0.189260,-0.640604,-0.744183,-0.068980,0.106790,-0.000309,-16.633705,-36.507362,-25.302216,,,,,,,
1558216580.278485,-0.251521,0.678647,1.139556,-0.697678,0.136021,0.609310,-0.193732,-0.627741,-0.753929,-0.060556,0.110056,0.022820,-16.925594,-35.948704,-25.901443,,,,,,,
1558216580.298498,-0.256607,0.661435,1.151962,-0.734121,0.123736,0.749025,-0.200277,-0.614250,-0.763273,-0.052500,0.090980,0.044584,-17.213593,-35.512989,-26.309496,,,,,,,
1558216580.318484,-0.263548,0.641460,1.166917,-0.858774,0.136165,0.848336,-0.208724,-0.598366,-0.773558,-0.109223,0.068230,0.029234,-17.818298,-34.662392,-27.031403,,,,,,,
1558216580.338452,-0.267861,0.619455,1.180078,-0.942581,0.180861,0.754743,-0.215493,-0.580592,-0.785160,-0.118797,0.029292,0.010929,-18.198210,-34.066807,-27.530849,,,,,,,
1558216580.358453,-0.270754,0.598861,1.189538,-0.834086,0.076444,0.580872,-0.220914,-0.563702,-0.795888,-0.077929,0.010006,-0.002788,-18.597151,-33.277847,-28.220573,,,,,,,
1558216580.378437,-0.275667,0.581609,1.196480,-0.687498,-0.084152,0.436389,-0.227436,-0.549369,-0.804032,-0.041638,0.015861,-0.004867,-18.853024,-32.759666,-28.653748,,,,,,,
1558216580.398423,-0.281961,0.565513,1.201117,-0.764598,-0.233878,0.412473,-0.234921,-0.535849,-0.810974,-0.074695,0.061148,-0.048691,-19.404968,-31.870052,-29.281677,,,,,,,
1558216580.418399,-0.286409,0.546815,1.205297,-0.886180,0.034233,0.444836,-0.241315,-0.519969,-0.819390,-0.068301,0.045268,-0.040275,-19.404968,-31.870052,-29.281677,,,,,,,
1558216580.438365,-0.283072,0.525977,1.209390,-0.976565,0.383508,0.436364,-0.241554,-0.502058,-0.830415,-0.072334,0.028196,-0.027648,-19.953812,-30.479553,-30.372883,,,,,,,
1558216580.458377,-0.276010,0.504197,1.211612,-1.031861,0.373138,0.375364,-0.238608,-0.483104,-0.842423,-0.026270,0.030041,-0.032943,-19.947193,-29.697495,-31.142221,,,,,,,
1558216580.478331,-0.271926,0.483701,1.213008,-0.897247,0.166208,0.305162,-0.237775,-0.465059,-0.852750,-0.023563,0.029543,-0.030505,-19.947193,-29.697495,-31.142221,,,,,,,
1558216580.498328,-0.270233,0.467165,1.214034,-0.736687,0.081761,0.238288,-0.238351,-0.450357,-0.860446,-0.066565,0.047754,-0.025296,-20.010017,-28.586035,-32.126434,,,,,,,
1558216580.518303,-0.270309,0.451168,1.214141,-0.737471,0.107996,0.110425,-0.240310,-0.436017,-0.867260,-0.092347,0.026974,0.003460,-20.196323,-27.679550,-32.796658,,,,,,,
1558216580.538299,-0.266371,0.436318,1.210804,-0.766036,0.122817,0.025132,-0.238571,-0.422605,-0.874351,-0.079407,0.007764,0.012961,-20.184856,-27.416555,-33.023838,,,,,,,
1558216580.558279,-0.260645,0.421294,1.205930,-0.806943,0.273015,-0.050333,-0.235171,-0.408941,-0.881738,-0.079740,0.020391,0.020120,-20.057570,-26.637625,-33.731300,,,,,,,
1558216580.578287,-0.249830,0.404053,1.198596,-0.977276,0.525261,-0.195389,-0.227330,-0.393148,-0.890930,-0.082240,0.009008,0.012603,-20.004787,-26.506403,-33.865746,,,,,,,
1558216580.598239,-0.234553,0.385528,1.187514,-1.032454,0.528558,-0.305369,-0.215349,-0.376048,-0.901228,-0.038847,0.006908,0.012541,-19.420628,-25.618017,-34.874435,,,,,,,
1558216580.618246,-0.222428,0.366548,1.176195,-1.045935,0.326783,-0.276349,-0.205944,-0.358395,-0.910571,-0.016667,0.035702,-0.024029,-18.814907,-24.846123,-35.753868,,,,,,,
1558216580.638240,-0.212701,0.347585,1.166783,-1.012961,0.352085,-0.204548,-0.198477,-0.340629,-0.919010,-0.033899,0.028525,-0.026791,-20.511278,-23.253384,-34.918037,,,,,,,
1558216580.658206,-0.200655,0.328346,1.157865,-1.029434,0.508565,-0.234026,-0.188663,-0.322478,-0.927585,-0.060681,0.017302,-0.047635,-20.152557,-22.618195,-35.538620,,,,,,,
1558216580.678209,-0.187769,0.309839,1.147848,-0.972001,0.448924,-0.331706,-0.177779,-0.304905,-0.935643,-0.037752,-0.020031,-0.053005,-19.563160,-21.831059,-36.350918,,,,,,,
1558216580.698195,-0.177253,0.293646,1.135705,-0.859521,0.277949,-0.469912,-0.168779,-0.289444,-0.942197,-0.039306,-0.005356,-0.044253,-19.111279,-21.300438,-36.901924,,,,,,,
1558216580.718180,-0.170356,0.279719,1.122850,-0.754680,0.109321,-0.477848,-0.162944,-0.276085,-0.947220,-0.052586,0.009362,-0.052566,-18.831993,-20.974457,-37.230762,,,,,,,
1558216580.738165,-0.164603,0.266322,1.111330,-0.771522,0.186692,-0.416250,-0.158084,-0.263185,-0.951705,-0.045087,-0.013838,-0.078934,-18.483416,-20.482491,-37.676685,,,,,,,
1558216580.758148,-0.154815,0.251490,1.099216,-0.852554,0.427978,-0.509026,-0.149347,-0.248848,-0.956959,-0.028494,-0.023537,-0.079906,-18.098688,-20.032284,-38.103107,,,,,,,
1558216580.778135,-0.139913,0.236272,1.083809,-0.861276,0.605329,-0.692039,-0.135583,-0.234080,-0.962717,-0.026313,-0.020604,-0.070379,-17.816368,-19.800951,-38.356239,,,,,,,
1558216580.798119,-0.125979,0.221925,1.067443,-0.774620,0.427341,-0.661644,-0.122564,-0.220108,-0.967745,-0.025171,0.016754,-0.093504,-16.769077,-19.167881,-39.141949,,,,,,,
1558216580.818102,-0.116647,0.210397,1.053718,-0.574046,0.281610,-0.572128,-0.113816,-0.208848,-0.971302,-0.005508,-0.020263,-0.113063,-16.367500,-18.895100,-39.443401,,,,,,,
1558216580.838088,-0.107759,0.201963,1.040339,-0.471585,0.330642,-0.645244,-0.105364,-0.200593,-0.973992,-0.006727,-0.038406,-0.097617,-15.920984,-18.641489,-39.745678,,,,,,,
1558216580.858074,-0.097864,0.194066,1.024618,-0.462862,0.338874,-0.764735,-0.095873,-0.192850,-0.976533,-0.016920,0.012995,-0.108382,-15.273270,-18.432768,-40.095661,,,,,,,
1558216580.878033,-0.088503,0.187800,1.008220,-0.325708,0.292714,-0.756526,-0.086834,-0.186698,-0.978572,-0.022663,0.021095,-0.091511,-14.860720,-18.343910,-40.290962,,,,,,,
1558216580.898043,-0.080718,0.184739,0.993735,-0.161022,0.238069,-0.670438,-0.079258,-0.183690,-0.979784,-0.028576,0.023839,-0.074370,-14.359797,-18.318413,-40.483746,,,,,,,
1558216580.918026,-0.073467,0.182214,0.979694,-0.182185,0.259262,-0.708686,-0.072186,-0.181207,-0.980792,-0.034747,0.022256,-0.033902,-13.816025,-18.375725,-40.646675,,,,,,,
1558216580.938000,-0.064892,0.178159,0.964104,-0.299054,0.299952,-0.769246,-0.063820,-0.177218,-0.982100,-0.047874,0.045092,-0.051652,-13.449354,-18.395878,-40.760376,,,,,,,
1558216580.957998,-0.056237,0.172895,0.949081,-0.269300,0.327418,-0.675006,-0.055369,-0.172035,-0.983534,-0.057698,0.039253,-0.045168,-12.933376,-18.342831,-40.950825,,,,,,,
1558216580.977982,-0.047417,0.168585,0.936586,-0.257704,0.330650,-0.592757,-0.046727,-0.167788,-0.984715,-0.040690,-0.041532,-0.014247,-12.300252,-18.279772,-41.173481,,,,,,,
1558216580.997937,-0.038353,0.162751,0.922358,-0.372418,0.326764,-0.767981,-0.037837,-0.162033,-0.986060,-0.029775,-0.055725,-0.008478,-11.922602,-18.220329,-41.310688,,,,,,,
1558216581.017952,-0.031355,0.154668,0.904117,-0.452689,0.118707,-0.934454,-0.030975,-0.154052,-0.987577,0.002472,-0.042680,-0.032839,-11.386292,-18.086929,-41.520081,,,,,,,
1558216581.037937,-0.028058,0.147882,0.885209,-0.293460,-0.001525,-0.902381,-0.027748,-0.147343,-0.988696,-0.013557,0.017231,-0.075208,-10.888489,-17.911358,-41.729195,,,,,,,
1558216581.057904,-0.025465,0.144681,0.867875,-0.123183,0.022008,-0.824081,-0.025196,-0.144177,-0.989231,-0.027217,0.006436,-0.039578,-10.571978,-17.913399,-41.809628,,,,,,,
1558216581.077906,-0.022249,0.143071,0.851891,-0.107204,0.045242,-0.781140,-0.022020,-0.142583,-0.989538,-0.030394,0.004842,-0.039271,-10.338350,-17.970139,-41.843689,,,,,,,
1558216581.097892,-0.019890,0.140476,0.835344,-0.169093,-0.029578,-0.845964,-0.019692,-0.140015,-0.989954,-0.003943,-0.009979,-0.024085,-10.099703,-18.022104,-41.879604,,,,,,,
1558216581.117876,-0.018449,0.136755,0.817698,-0.218057,-0.042048,-0.874949,-0.018276,-0.136329,-0.990495,-0.034855,0.015769,-0.044524,-9.674689,-18.055283,-41.965569,,,,,,,
1558216581.137861,-0.016949,0.132216,0.800390,-0.246808,-0.033403,-0.849266,-0.016800,-0.131831,-0.991130,-0.045776,0.018962,-0.043828,-9.474113,-18.030365,-42.022003,,,,,,,
1558216581.157845,-0.015076,0.128131,0.782567,-0.195612,-0.026351,-0.901472,-0.014952,-0.127781,-0.991690,-0.027543,0.004139,-0.026285,-9.264782,-17.995777,-42.083458,,,,,,,
1558216581.177806,-0.013056,0.125013,0.764126,-0.173142,0.000988,-0.918275,-0.012953,-0.124688,-0.992111,0.056563,-0.046623,-0.040069,-8.806145,-18.000109,-42.179970,,,,,,,
1558216581.197788,-0.009353,0.121422,0.744648,-0.197154,0.108813,-0.996268,-0.009284,-0.121124,-0.992594,0.079810,-0.047760,-0.047796,-8.538347,-18.006905,-42.232094,,,,,,,
1558216581.217785,-0.003944,0.117727,0.724412,-0.188501,0.152111,-0.992644,-0.003916,-0.117455,-0.993070,0.111872,-0.010170,-0.056383,-7.954121,-18.008169,-42.345478,,,,,,,
1558216581.237785,0.000699,0.114830,0.705504,-0.111138,0.091598,-0.896006,0.000694,-0.114578,-0.993414,0.122932,-0.009812,-0.057352,-7.598683,-18.010902,-42.409542,,,,,,,
1558216581.257761,0.003162,0.113974,0.689539,-0.002027,0.006714,-0.728043,0.003142,-0.113727,-0.993507,0.139070,-0.020291,-0.043953,-7.299647,-18.039978,-42.449688,,,,,,,
1558216581.277731,0.004803,0.113859,0.676694,-0.028781,0.022902,-0.598724,0.004771,-0.113614,-0.993514,0.154912,-0.046344,-0.023210,-6.896709,-18.177570,-42.458370,,,,,,,
1558216581.297740,0.007329,0.111905,0.665261,-0.123362,0.091114,-0.554373,0.007283,-0.111671,-0.993719,0.149410,-0.046242,-0.025782,-6.714178,-18.200216,-42.477921,,,,,,,
1558216581.317706,0.010852,0.109435,0.655210,-0.105292,0.124979,-0.463285,0.010787,-0.109216,-0.993959,0.142320,-0.032645,-0.029753,-6.505805,-18.178408,-42.519661,,,,,,,
1558216581.337692,0.013743,0.108345,0.647172,-0.005518,0.081259,-0.367535,0.013662,-0.108133,-0.994043,0.119502,-0.023275,-0.028922,-6.112882,-18.148651,-42.590618,,,,,,,
1558216581.357694,0.015277,0.109606,0.640793,0.099534,0.018468,-0.283708,0.015184,-0.109387,-0.993883,0.116392,-0.027378,-0.020582,-5.975986,-18.197670,-42.589134,,,,,,,
1558216581.377658,0.015628,0.111362,0.635844,0.078047,-0.014098,-0.224249,0.015531,-0.111132,-0.993684,0.097552,-0.023969,-0.014540,-5.886563,-18.283777,-42.564701,,,,,,,
1558216581.397587,0.026502,0.113691,0.630833,0.037697,0.039057,-0.174677,0.026328,-0.113446,-0.993195,0.067956,-0.010150,-0.008804,-5.769760,-18.414597,-42.524277,,,,,,,
1558216581.417602,0.028712,0.113915,0.627903,0.003855,0.128095,-0.126875,0.028522,-0.113669,-0.993109,0.034970,-0.006204,-0.020380,-5.205914,-18.515785,-42.553093,,,,,,,
1558216581.437578,0.032355,0.114073,0.625756,0.029521,0.176623,-0.099699,0.032139,-0.113826,-0.992981,0.030315,-0.010304,-0.024399,-5.123923,-18.522604,-42.560078,,,,,,,
1558216581.457554,0.039327,0.116401,0.623257,0.107974,0.082153,-0.094142,0.039051,-0.116139,-0.992465,0.030544,0.003910,-0.010602,-4.679989,-18.629395,-42.564598,,,,,,,
1558216581.477556,0.040390,0.117483,0.621830,0.097063,0.025207,-0.043449,0.040101,-0.117213,-0.992297,0.000823,0.009074,-0.002561,-4.604816,-18.732014,-42.527740,,,,,,,
1558216581.497542,0.040896,0.118597,0.621409,0.035280,0.027696,-0.009310,0.040597,-0.118320,-0.992145,-0.005609,0.005130,-0.006314,-4.582612,-18.726988,-42.532356,,,,,,,
1558216581.517526,0.041373,0.119536,0.621014,0.023783,0.079508,-0.036581,0.041066,-0.119251,-0.992014,-0.007313,-0.005138,-0.007345,-4.524706,-18.776104,-42.516899,,,,,,,
1558216581.537502,0.043397,0.120021,0.620195,0.020623,0.091157,-0.033269,0.043071,-0.119733,-0.991871,-0.001644,-0.002643,-0.004528,-4.489778,-18.815060,-42.503380,,,,,,,
1558216581.557496,0.044418,0.120042,0.619843,-0.006213,0.034255,-0.009279,0.044084,-0.119754,-0.991824,-0.003557,-0.000592,-0.000851,-4.411071,-18.831383,-42.504391,,,,,,,
1558216581.577481,0.042999,0.119389,0.620314,-0.024283,0.056588,0.021885,0.042679,-0.119105,-0.991964,-0.015030,0.002208,-0.008128,-4.410137,-18.818092,-42.510372,,,,,,,
1558216581.597438,0.041722,0.119046,0.621225,-0.038122,0.059840,0.030450,0.041415,-0.118765,-0.992058,-0.014727,-0.007456,-0.010597,-4.497450,-18.778316,-42.518814,,,,,,,
1558216581.617450,0.040142,0.118902,0.622119,-0.030768,0.028081,0.026953,0.039848,-0.118622,-0.992140,-0.018577,-0.004287,-0.006838,-4.517002,-18.769756,-42.520519,,,,,,,
1558216581.637435,0.037520,0.118864,0.622466,0.000080,0.001424,-0.015980,0.037247,-0.118584,-0.992245,-0.023651,-0.003806,-0.013431,-4.659841,-18.758675,-42.509998,,,,,,,
1558216581.657417,0.035392,0.118875,0.621882,0.023636,0.023427,-0.059520,0.035135,-0.118595,-0.992321,-0.011255,0.002094,-0.014378,-4.788754,-18.769623,-42.490833,,,,,,,
1558216581.677404,0.035602,0.119131,0.620594,0.014044,0.020307,-0.058489,0.035343,-0.118850,-0.992283,-0.007953,0.000381,-0.014507,-4.781006,-18.781183,-42.486595,,,,,,,
1558216581.697389,0.034970,0.118556,0.619983,-0.004122,0.014105,-0.026532,0.034718,-0.118279,-0.992373,-0.012028,0.005455,-0.019025,-4.776569,-18.781504,-42.486954,,,,,,,
1558216581.717374,0.034053,0.117890,0.619472,0.002297,0.017216,-0.042510,0.033810,-0.117617,-0.992483,-0.008190,0.001345,-0.020593,-4.819864,-18.746277,-42.497620,,,,,,,
1558216581.737359,0.034393,0.117869,0.618276,0.015164,0.034022,-0.067962,0.034147,-0.117596,-0.992474,-0.007109,0.002255,-0.018985,-4.809118,-18.746454,-42.498760,,,,,,,
1558216581.757319,0.035109,0.117908,0.616775,0.036552,0.057139,-0.083737,0.034858,-0.117635,-0.992445,-0.006629,0.005941,-0.010561,-4.791782,-18.743896,-42.501846,,,,,,,
1558216581.777330,0.036533,0.118764,0.614897,0.046108,0.038084,-0.090302,0.036268,-0.118485,-0.992293,0.002764,-0.000701,-0.005158,-4.681378,-18.794170,-42.491947,,,,,,,
1558216581.797283,0.037407,0.119376,0.613198,0.033265,0.025494,-0.072283,0.037133,-0.119093,-0.992189,0.005394,0.003248,-0.001037,-4.633802,-18.828346,-42.482029,,,,,,,
1558216581.817279,0.038757,0.119138,0.612283,-0.005041,0.052192,-0.025082,0.038473,-0.118857,-0.992166,0.003092,0.006613,-0.000159,-4.548928,-18.847681,-42.482628,,,,,,,
1558216581.837283,0.039983,0.118534,0.611965,-0.026331,0.056546,-0.015449,0.039692,-0.118257,-0.992189,0.000469,0.004075,-0.004713,-4.502703,-18.831686,-42.494648,,,,,,,
1558216581.857256,0.040802,0.118182,0.611586,-0.000862,0.028916,-0.024234,0.040506,-0.117907,-0.992198,-0.000864,-0.000135,-0.013341,-4.460915,-18.810520,-42.508427,,,,,,,
1558216581.877232,0.041123,0.118515,0.610895,0.029924,-0.001917,-0.036249,0.040823,-0.118238,-0.992146,-0.001989,0.004056,-0.016033,-4.417999,-18.816685,-42.510181,,,,,,,
1558216581.897237,0.041457,0.118974,0.610328,0.020445,0.038330,-0.015586,0.041152,-0.118694,-0.992078,-0.001968,-0.000142,-0.009143,-4.403124,-18.834133,-42.503998,,,,,,,
1558216581.917205,0.042428,0.119013,0.610343,-0.000886,0.037423,0.010012,0.042116,-0.118732,-0.992033,0.005461,0.000461,-0.005144,-4.365049,-18.844341,-42.503399,,,,,,,
1558216581.937199,0.042764,0.119109,0.610777,0.002274,0.033197,0.022785,0.042448,-0.118827,-0.992007,-0.006269,-0.001824,-0.007199,-4.336752,-18.845366,-42.505840,,,,,,,
1558216581.957192,0.043345,0.119195,0.611060,-0.004049,0.044831,0.005810,0.043024,-0.118913,-0.991972,-0.008021,-0.004897,-0.006502,-4.326235,-18.845755,-42.506741,,,,,,,
1558216581.977177,0.043866,0.119341,0.610841,0.017213,0.024597,-0.019991,0.043540,-0.119057,-0.991932,-0.006278,-0.000114,-0.002620,-4.309975,-18.849304,-42.506817,,,,,,,
1558216581.997163,0.043844,0.119894,0.610379,0.022474,0.004480,-0.023382,0.043515,-0.119607,-0.991867,-0.009687,0.001061,-0.000793,-4.286727,-18.874863,-42.497826,,,,,,,
1558216582.017147,0.044322,0.120024,0.609927,0.000240,0.040534,-0.024122,0.043989,-0.119736,-0.991831,0.000475,-0.000533,0.002558,-4.274581,-18.888784,-42.492863,,,,,,,
1558216582.037130,0.045800,0.119975,0.609291,-0.003866,0.081762,-0.035475,0.045455,-0.119687,-0.991771,0.001512,-0.001162,0.003962,-4.249561,-18.890495,-42.494617,,,,,,,
1558216582.057096,0.047901,0.119507,0.608335,-0.018747,0.080758,-0.052579,0.047541,-0.119222,-0.991729,0.005010,0.004751,0.000457,-4.117071,-18.886272,-42.509529,,,,,,,
1558216582.077072,0.049932,0.118812,0.607266,-0.022021,0.059648,-0.045311,0.049559,-0.118532,-0.991713,0.012804,0.002672,-0.006792,-4.088458,-18.878122,-42.515911,,,,,,,
1558216582.097064,0.051852,0.118376,0.606679,-0.005001,0.071235,-0.013158,0.051466,-0.118100,-0.991667,0.010317,0.002072,-0.010866,-3.940975,-18.845417,-42.544338,,,,,,,
1558216582.117056,0.054127,0.118288,0.606837,-0.008153,0.099845,0.022346,0.053722,-0.118012,-0.991558,0.009678,-0.001006,-0.004826,-3.831819,-18.837309,-42.557899,,,,,,,
1558216582.137050,0.056021,0.118116,0.607383,-0.027363,0.088329,0.029693,0.055602,-0.117842,-0.991475,-0.000609,-0.004488,-0.004314,-3.801989,-18.835667,-42.561302,,,,,,,
1558216582.157019,0.057194,0.117478,0.608201,-0.048748,0.063085,0.037976,0.056768,-0.117208,-0.991484,-0.005667,-0.004527,-0.005480,-3.704069,-18.811346,-42.580688,,,,,,,
1558216582.177026,0.058099,0.116470,0.608676,-0.057203,0.066250,0.004902,0.057673,-0.116207,-0.991549,-0.006952,-0.003834,-0.009122,-3.662312,-18.757538,-42.608028,,,,,,,
1558216582.196982,0.059163,0.115813,0.608636,-0.020049,0.030100,-0.006090,0.058733,-0.115554,-0.991563,0.002028,-0.002564,-0.012816,-3.656021,-18.747593,-42.612946,,,,,,,
1558216582.216994,0.059182,0.115678,0.608625,-0.003124,0.001484,0.002190,0.058752,-0.115420,-0.991578,-0.003637,-0.000821,-0.015212,-3.604426,-18.716675,-42.630928,,,,,,,
1558216582.236980,0.059039,0.115508,0.608781,-0.005222,0.014189,0.009784,0.058611,-0.115252,-0.991606,-0.003466,-0.003370,-0.018999,-3.614043,-18.706537,-42.634563,,,,,,,
1558216582.256964,0.059312,0.115694,0.609216,0.027802,0.028836,0.024898,0.058881,-0.115436,-0.991568,-0.006009,0.003024,-0.022409,-3.612504,-18.706886,-42.634537,,,,,,,
1558216582.276950,0.059271,0.116191,0.609798,0.022450,0.022528,0.030172,0.058837,-0.115930,-0.991513,-0.009780,-0.000250,-0.019076,-3.615403,-18.720709,-42.628227,,,,,,,
1558216582.296935,0.059434,0.116310,0.610287,0.001214,0.033189,0.017445,0.058998,-0.116048,-0.991490,-0.007026,-0.001079,-0.015880,-3.619041,-18.731791,-42.623047,,,,,,,
1558216582.316919,0.059590,0.116115,0.610730,-0.014730,0.040672,0.018572,0.059154,-0.115855,-0.991503,-0.016429,-0.000616,-0.012998,-3.619573,-18.727333,-42.624962,,,,,,,
1558216582.336903,0.059453,0.115984,0.611027,0.006545,0.028906,0.002462,0.059019,-0.115724,-0.991526,-0.016523,-0.002822,-0.010198,-3.625260,-18.711300,-42.631519,,,,,,,
1558216582.356860,0.059298,0.116451,0.610843,0.027862,0.027702,-0.018885,0.058862,-0.116188,-0.991482,-0.020532,0.000785,-0.009297,-3.622996,-18.728970,-42.623951,,,,,,,
1558216582.376872,0.059163,0.116841,0.610468,0.030034,0.037189,-0.027333,0.058725,-0.116575,-0.991444,-0.017923,0.003157,0.003453,-3.638671,-18.741190,-42.617245,,,,,,,
1558216582.396840,0.060035,0.117306,0.609580,0.015203,0.047799,-0.051799,0.059586,-0.117037,-0.991338,-0.013520,0.002443,0.008840,-3.622435,-18.759150,-42.610725,,,,,,,
1558216582.416814,0.060600,0.117654,0.608668,0.019416,0.038277,-0.042277,0.060144,-0.117382,-0.991264,0.004675,-0.009174,0.017539,-3.558512,-18.788216,-42.603306,,,,,,,
1558216582.436813,0.060888,0.118089,0.607582,0.002212,-0.022967,-0.061028,0.060427,-0.117815,-0.991195,0.007338,-0.010252,0.021133,-3.535805,-18.806473,-42.597141,,,,,,,
1558216582.456804,0.060516,0.117692,0.606155,-0.042497,-0.029093,-0.073934,0.060060,-0.117421,-0.991264,0.002256,-0.006252,0.015846,-3.524536,-18.822168,-42.591141,,,,,,,
1558216582.476780,0.061075,0.116142,0.604501,-0.112497,0.037831,-0.097906,0.060626,-0.115881,-0.991411,-0.003390,-0.000635,0.003084,-3.490690,-18.776686,-42.613998,,,,,,,
1558216582.496754,0.062482,0.113128,0.602725,-0.134784,0.062272,-0.089149,0.062042,-0.112887,-0.991669,-0.003128,0.006701,-0.003677,-3.427123,-18.705557,-42.650425,,,,,,,
1558216582.516741,0.063069,0.110921,0.601500,-0.072246,-0.004604,-0.058777,0.062640,-0.110694,-0.991879,0.002943,0.009131,-0.010609,-3.354877,-18.588823,-42.707169,,,,,,,
1558216582.536753,0.061693,0.109559,0.600819,-0.012954,-0.084137,-0.022123,0.061284,-0.109340,-0.992113,-0.011693,0.013698,-0.030393,-3.366110,-18.518652,-42.736759,,,,,,,
1558216582.556737,0.060394,0.109439,0.600593,0.020278,-0.010313,-0.016051,0.059996,-0.109221,-0.992205,-0.014846,0.010695,-0.027708,-3.415953,-18.503029,-42.739574,,,,,,,
1558216582.576722,0.061046,0.109106,0.599873,-0.034768,0.068144,-0.049509,0.060645,-0.108889,-0.992202,-0.018623,0.005404,-0.021119,-3.436716,-18.496477,-42.740742,,,,,,,
1558216582.596708,0.061975,0.107427,0.598938,-0.076273,0.066228,-0.061304,0.061578,-0.107221,-0.992326,-0.028390,0.004026,-0.020506,-3.367155,-18.437988,-42.771538,,,,,,,
1558216582.616692,0.062941,0.106444,0.597599,-0.015709,0.026782,-0.073377,0.062543,-0.106243,-0.992371,-0.031797,0.004238,-0.019409,-3.312895,-18.398001,-42.792992,,,,,,,
1558216582.636677,0.062272,0.106686,0.596037,0.035275,-0.014739,-0.090816,0.061878,-0.106484,-0.992387,-0.038272,0.005013,-0.014067,-3.306605,-18.391392,-42.796318,,,,,,,
1558216582.656661,0.060226,0.107238,0.593982,0.056706,0.013630,-0.123623,0.059844,-0.107033,-0.992453,-0.052306,0.003319,-0.026102,-3.312068,-18.436083,-42.776661,,,,,,,
1558216582.676621,0.059891,0.108591,0.591547,0.106953,0.077833,-0.127238,0.059503,-0.108377,-0.992327,-0.057931,0.004709,-0.027112,-3.324601,-18.476921,-42.758064,,,,,,,
1558216582.696631,0.059759,0.110964,0.588581,0.132681,0.113564,-0.169580,0.059356,-0.110737,-0.992076,-0.054977,0.004215,-0.002340,-3.325698,-18.574556,-42.715652,,,,,,,
1558216582.716615,0.059474,0.112400,0.584717,0.051643,0.048369,-0.221515,0.059064,-0.112163,-0.991933,-0.049482,0.003139,0.015447,-3.244282,-18.703831,-42.665482,,,,,,,
1558216582.736598,0.057108,0.112067,0.579912,-0.032774,-0.071768,-0.269708,0.056719,-0.111833,-0.992107,-0.052553,0.003480,0.012310,-3.264419,-18.717039,-42.658154,,,,,,,
1558216582.756585,0.053470,0.110933,0.574138,-0.054094,-0.103448,-0.319139,0.053116,-0.110706,-0.992433,-0.046448,-0.005765,0.004625,-3.338378,-18.722692,-42.649940,,,,,,,
1558216582.776568,0.050998,0.109940,0.567386,-0.036777,-0.049678,-0.370907,0.050668,-0.109718,-0.992670,-0.039590,-0.004448,0.003184,-3.368197,-18.707588,-42.654224,,,,,,,
1558216582.796535,0.049416,0.108549,0.559855,-0.101601,-0.026120,-0.391018,0.049105,-0.108336,-0.992901,-0.044359,-0.007311,0.004848,-3.383604,-18.710434,-42.651760,,,,,,,
1558216582.816519,0.048287,0.106202,0.552376,-0.115526,-0.048235,-0.381632,0.047997,-0.106002,-0.993207,-0.023262,-0.012528,-0.006259,-3.318152,-18.661556,-42.678307,,,,,,,
