timestamp(unix),attitude_roll(radians),attitude_pitch(radians),attitude_yaw(radians),rotation_rate_x(radians/s),rotation_rate_y(radians/s),rotation_rate_z(radians/s),gravity_x(G),gravity_y(G),gravity_z(G),user_acc_x(G),user_acc_y(G),user_acc_z(G),magnetic_field_x(microteslas),magnetic_field_y(microteslas),magnetic_field_z(microteslas),latitude(degree),longitude(degree),altitude(meter),speed(m/s),course(degree),timestamp(unix),User Mark
1558219218.016430,0.078194,0.101463,0.644717,0.360656,-0.140559,0.126502,0.077713,-0.101289,-0.991817,0.011398,0.010117,-0.014256,1.154001,-18.768864,-42.799995,,,,,,,
1558219218.016063,0.081229,0.094338,0.643166,0.239292,-0.168539,0.073822,0.080779,-0.094199,-0.992271,0.016786,0.003592,-0.028847,1.238199,-18.650721,-42.849258,,,,,,,
1558219218.056056,0.074278,0.105494,0.647484,0.040844,-0.259300,0.177423,0.073798,-0.105299,-0.991699,-0.005347,-0.028079,0.025466,0.891350,-19.159088,-42.633045,,,,,,,
1558219218.076030,0.067927,0.102716,0.652848,-0.243698,-0.316863,0.267394,0.067517,-0.102535,-0.992435,-0.022992,0.062954,-0.029186,0.567092,-19.088724,-42.670139,,,,,,,
1558219218.096024,0.058071,0.098942,0.657535,-0.124835,-0.447571,0.220330,0.057755,-0.098781,-0.993432,0.014587,-0.016835,0.062081,0.355038,-18.981995,-42.720013,,,,,,,
1558219218.116009,0.046746,0.099901,0.661655,0.064002,-0.661081,0.181070,0.046496,-0.099735,-0.993927,0.003263,-0.029858,0.032211,-0.397432,-18.882343,-42.763779,,,,,,,
1558219218.135966,0.031004,0.101003,0.664616,0.000741,-0.814062,0.149660,0.030841,-0.100831,-0.994425,-0.014575,-0.002242,0.032801,-1.084419,-18.935734,-42.728256,,,,,,,
1558219218.155978,0.017918,0.099091,0.666411,-0.106670,-0.504999,0.050038,0.017829,-0.098929,-0.994935,0.006570,0.003928,0.044831,-1.451534,-18.921366,-42.723724,,,,,,,
1558219218.175962,0.009264,0.099291,0.666785,0.100429,-0.345487,0.006890,0.009219,-0.099128,-0.995032,-0.031451,-0.008644,0.000067,-2.157594,-18.834980,-42.732071,,,,,,,
1558219218.195933,0.008405,0.103150,0.667124,0.201072,0.161371,0.021431,0.008360,-0.102967,-0.994650,-0.020827,0.027803,0.014394,-2.310591,-18.932245,-42.681061,,,,,,,
1558219218.215914,0.015345,0.105802,0.667930,0.096431,0.408273,0.067484,0.015259,-0.105605,-0.994291,-0.018097,0.019881,0.006727,-2.149554,-19.086756,-42.620617,,,,,,,
1558219218.235901,0.019155,0.108064,0.672109,0.212614,-0.047438,0.382441,0.019042,-0.107854,-0.993984,-0.006072,-0.039867,-0.087452,-1.843086,-19.174385,-42.595631,,,,,,,
1558219218.255870,0.014821,0.115600,0.682258,0.447463,-0.116147,0.499412,0.014722,-0.115343,-0.993217,0.034381,0.042757,-0.040536,-2.060272,-19.338326,-42.511482,,,,,,,
1558219218.275880,0.017619,0.123533,0.687263,0.306951,0.351204,0.105540,0.017484,-0.123219,-0.992226,0.041125,0.067356,-0.029686,-2.267520,-19.600206,-42.380795,,,,,,,
1558219218.295857,0.028515,0.127778,0.689602,0.021544,0.664617,0.170236,0.028278,-0.127431,-0.991444,-0.023151,-0.004863,0.006550,-1.878729,-19.998590,-42.213367,,,,,,,
1558219218.315837,0.039760,0.125503,0.693761,-0.199220,0.554845,0.206376,0.039437,-0.125174,-0.991351,-0.004311,-0.011773,0.004427,-1.435610,-19.936829,-42.259953,,,,,,,
1558219218.335811,0.050884,0.120139,0.697488,-0.235549,0.480939,0.135175,0.050495,-0.119850,-0.991507,-0.025974,-0.043984,-0.027460,-1.230018,-19.836462,-42.313633,,,,,,,
1558219218.355822,0.054366,0.120998,0.698668,0.194058,-0.008702,0.067841,0.053941,-0.120703,-0.991222,-0.047670,-0.046427,-0.086918,-0.778580,-19.647278,-42.412498,,,,,,,
1558219218.375807,0.053892,0.129078,0.701183,0.457025,0.024868,0.115349,0.053418,-0.128719,-0.990241,0.002902,0.006695,-0.014352,-0.845735,-19.925406,-42.281254,,,,,,,
1558219218.395790,0.054408,0.137187,0.701900,0.228483,0.086204,0.038883,0.053870,-0.136757,-0.989139,-0.007971,-0.033562,0.002719,-0.845735,-19.925406,-42.281254,,,,,,,
1558219218.415748,0.057392,0.137988,0.701810,-0.050047,0.161541,-0.039625,0.056815,-0.137551,-0.988864,0.021432,-0.015952,-0.025434,-0.828483,-20.391716,-42.058685,,,,,,,
1558219218.435760,0.059293,0.136656,0.700440,-0.032422,0.006029,-0.066723,0.058706,-0.136231,-0.988936,-0.015188,0.011444,-0.044542,-0.630317,-20.348984,-42.082813,,,,,,,
1558219218.455721,0.059249,0.138778,0.700038,0.205996,0.039793,0.024541,0.058645,-0.138333,-0.988648,-0.024664,0.026638,-0.016097,-0.630317,-20.348984,-42.082813,,,,,,,
1558219218.475727,0.059911,0.144531,0.701231,0.283575,0.032119,0.100330,0.059251,-0.144028,-0.987798,0.012832,-0.022507,0.007314,-0.611754,-20.486040,-42.016537,,,,,,,
1558219218.495714,0.059553,0.148102,0.703420,0.092754,-0.039771,0.128315,0.058867,-0.147562,-0.987300,-0.005949,-0.013083,-0.004995,-0.646514,-20.793297,-41.864811,,,,,,,
1558219218.515688,0.057863,0.149422,0.705602,0.041796,-0.021612,0.077202,0.057187,-0.148867,-0.987202,-0.017056,-0.007826,-0.005809,-0.691218,-20.824108,-41.848778,,,,,,,
1558219218.535682,0.056803,0.150700,0.706249,0.060848,-0.078870,0.024354,0.056129,-0.150130,-0.987072,-0.009331,-0.005143,0.025264,-0.807971,-20.899136,-41.809269,,,,,,,
1558219218.555667,0.052961,0.150450,0.708113,0.072047,-0.169631,0.161221,0.052338,-0.149883,-0.987318,-0.021775,0.046947,0.081708,-0.927555,-20.943520,-41.784569,,,,,,,
1558219218.575624,0.047714,0.152734,0.714970,0.091595,-0.231628,0.476667,0.047140,-0.152141,-0.987234,-0.037909,0.009654,0.076773,-0.927555,-20.943520,-41.784569,,,,,,,
1558219218.595631,0.041355,0.153934,0.723435,-0.041112,-0.198405,0.315664,0.040854,-0.153327,-0.987331,-0.014121,-0.020028,0.042567,-1.628589,-20.968002,-41.750832,,,,,,,
1558219218.615603,0.039619,0.150317,0.728201,-0.325493,0.027018,0.209761,0.039162,-0.149752,-0.987948,-0.023644,-0.051420,0.012652,-1.843625,-20.892820,-41.779572,,,,,,,
1558219218.635591,0.043170,0.140727,0.731749,-0.525598,0.312262,0.113040,0.042730,-0.140263,-0.989192,-0.026509,0.004033,-0.025121,-1.842619,-20.630974,-41.909538,,,,,,,
1558219218.655567,0.053365,0.132014,0.732772,-0.381720,0.618870,-0.038719,0.052876,-0.131631,-0.989888,-0.028508,0.003015,-0.046169,-1.464607,-20.120228,-42.171947,,,,,,,
1558219218.675545,0.067543,0.125039,0.731520,-0.342972,0.717925,-0.106069,0.066964,-0.124714,-0.989930,0.016638,-0.011608,-0.033126,-0.866814,-19.822605,-42.329124,,,,,,,
1558219218.695558,0.079924,0.117333,0.729995,-0.412855,0.512189,-0.096350,0.079290,-0.117064,-0.989954,0.044963,-0.013628,-0.055456,-0.546081,-19.677246,-42.402229,,,,,,,
1558219218.715543,0.087599,0.108021,0.730352,-0.497831,0.315205,0.058640,0.086977,-0.107811,-0.990359,0.005705,0.001366,-0.056592,0.127635,-19.145065,-42.648468,,,,,,,
1558219218.735527,0.093067,0.098039,0.733549,-0.503451,0.258265,0.131758,0.092486,-0.097882,-0.990891,-0.013751,0.013639,-0.024093,0.302185,-18.813736,-42.794785,,,,,,,
1558219218.755511,0.094902,0.089512,0.736966,-0.394582,0.019853,0.124225,0.094380,-0.089392,-0.991515,-0.010350,-0.010812,-0.027132,0.427112,-18.492828,-42.933372,,,,,,,
1558219218.775497,0.094761,0.083912,0.739340,-0.233868,-0.010662,0.072814,0.094286,-0.083814,-0.992011,0.012022,0.004255,-0.011987,0.419868,-18.019863,-43.134090,,,,,,,
1558219218.795451,0.096669,0.081931,0.740595,-0.024543,0.183739,0.041745,0.096194,-0.081839,-0.991992,0.020673,0.009665,-0.037106,0.421010,-17.901665,-43.183270,,,,,,,
1558219218.815465,0.104203,0.083500,0.741149,0.117037,0.506434,0.037474,0.103652,-0.083403,-0.991111,0.007356,0.010634,-0.037042,0.600083,-17.899132,-43.182201,,,,,,,
1558219218.835449,0.116070,0.086279,0.742143,0.138536,0.592009,0.085286,0.115379,-0.086172,-0.989577,0.005440,-0.014826,-0.051653,1.166033,-18.030647,-43.115864,,,,,,,
1558219218.855419,0.125466,0.090574,0.743939,0.258277,0.443455,0.123463,0.124624,-0.090450,-0.988073,0.026590,0.012157,0.086019,1.487072,-18.134611,-43.062351,,,,,,,
1558219218.875418,0.127066,0.094904,0.745887,0.096483,-0.210013,0.104267,0.126154,-0.094761,-0.987474,0.061926,-0.035259,0.033113,1.726628,-18.299999,-42.983372,,,,,,,
1558219218.895402,0.119675,0.094897,0.746279,-0.149541,-0.327358,-0.063606,0.118852,-0.094754,-0.988380,-0.020723,-0.022784,-0.009422,1.428302,-18.447641,-42.931179,,,,,,,
1558219218.915370,0.118653,0.091375,0.742632,-0.134979,0.124668,-0.264256,0.117881,-0.091248,-0.988826,0.001717,0.010590,-0.018894,1.308409,-18.342266,-42.980125,,,,,,,
1558219218.935371,0.125019,0.087604,0.738943,-0.214401,0.314498,-0.124776,0.124216,-0.087492,-0.988390,-0.000589,0.029311,0.011050,1.454114,-18.248001,-43.015553,,,,,,,
1558219218.955357,0.126904,0.081478,0.740431,-0.243791,-0.090867,0.125420,0.126143,-0.081388,-0.988668,0.020509,0.016263,0.035238,1.787439,-18.028969,-43.095276,,,,,,,
1558219218.975322,0.118159,0.080158,0.744398,0.022685,-0.593171,0.206237,0.117506,-0.080072,-0.989839,0.012941,-0.011160,-0.053191,1.503266,-17.782965,-43.208195,,,,,,,
1558219218.995302,0.105491,0.084723,0.747451,0.304042,-0.523933,0.136661,0.104918,-0.084622,-0.990874,0.025529,-0.006610,-0.052156,1.033273,-17.853115,-43.193058,,,,,,,
1558219219.015310,0.100622,0.091162,0.747740,0.273857,-0.058909,-0.009451,0.100036,-0.091035,-0.990811,-0.020858,-0.001799,-0.040012,0.643672,-18.050356,-43.118580,,,,,,,
1558219219.035293,0.104571,0.092942,0.746073,0.042021,0.297351,-0.087368,0.103930,-0.092808,-0.990245,0.006880,0.012242,-0.004216,0.630569,-18.350813,-42.991764,,,,,,,
1558219219.055277,0.112720,0.091859,0.745105,-0.083291,0.417548,-0.022259,0.112007,-0.091730,-0.989464,0.008491,0.018564,0.004998,0.806709,-18.330891,-42.997318,,,,,,,
1558219219.075261,0.118534,0.090242,0.746012,-0.071405,0.187186,0.064160,0.117775,-0.090120,-0.988943,0.017463,0.007463,0.010168,1.294379,-18.231621,-43.027599,,,,,,,
1558219219.095247,0.119047,0.090592,0.747632,0.064882,-0.115798,0.086992,0.118279,-0.090468,-0.988851,0.003409,-0.001847,-0.006969,1.360041,-18.211067,-43.034275,,,,,,,
1558219219.115211,0.115530,0.093493,0.748336,0.172300,-0.170354,0.031038,0.114770,-0.093357,-0.988996,0.009925,-0.002956,-0.015582,1.287384,-18.247784,-43.020954,,,,,,,
1558219219.135212,0.114178,0.096561,0.748516,0.135450,-0.042247,0.039708,0.113400,-0.096411,-0.988861,0.002079,0.006308,-0.003113,1.105449,-18.448631,-42.940281,,,,,,,
1558219219.155201,0.114251,0.098098,0.749742,0.013226,0.035620,0.083061,0.113454,-0.097940,-0.988704,-0.005376,-0.003546,0.007930,1.085090,-18.526424,-42.907295,,,,,,,
1558219219.175162,0.114097,0.097859,0.751339,-0.027427,-0.033955,0.065281,0.113305,-0.097703,-0.988745,-0.008294,-0.010467,0.013525,1.072668,-18.537664,-42.902752,,,,,,,
1558219219.195149,0.111053,0.098702,0.751988,0.053071,-0.181385,0.011619,0.110285,-0.098542,-0.989003,-0.007883,-0.009978,-0.006511,0.965778,-18.525539,-42.910530,,,,,,,
1558219219.215155,0.104252,0.102120,0.751841,0.231492,-0.311294,0.003046,0.103522,-0.101943,-0.989389,-0.017721,-0.009279,-0.026404,0.791066,-18.599400,-42.882141,,,,,,,
1558219219.235109,0.098870,0.108127,0.751226,0.304097,-0.244026,0.003748,0.098133,-0.107917,-0.989305,-0.009860,0.003180,-0.052291,0.545999,-18.762518,-42.814850,,,,,,,
1558219219.255112,0.097248,0.112865,0.751430,0.193032,-0.007659,0.050762,0.096477,-0.112625,-0.988943,0.000890,0.005234,-0.015467,0.302092,-19.131756,-42.653557,,,,,,,
1558219219.275107,0.098401,0.116013,0.752181,0.018875,0.107377,0.027168,0.097582,-0.115753,-0.988473,-0.006624,-0.018387,0.018686,0.316984,-19.250572,-42.599960,,,,,,,
1558219219.295076,0.100167,0.114182,0.751991,-0.152524,0.072242,-0.038432,0.099348,-0.113934,-0.988509,-0.007795,-0.023914,0.024321,0.348820,-19.286692,-42.583370,,,,,,,
1558219219.315076,0.100492,0.109934,0.751898,-0.210385,-0.032064,-0.014921,0.099717,-0.109713,-0.988949,-0.016847,-0.009474,-0.023060,0.437512,-19.080250,-42.675457,,,,,,,
1558219219.335061,0.098854,0.108795,0.751486,0.058936,-0.044098,-0.045782,0.098109,-0.108580,-0.989235,-0.023188,0.000899,-0.045357,0.375177,-18.975985,-42.722511,,,,,,,
1558219219.355045,0.098606,0.113150,0.750086,0.285775,-0.009342,-0.038861,0.097817,-0.112909,-0.988779,-0.003304,0.003275,-0.032904,0.367665,-19.062962,-42.683838,,,,,,,
1558219219.375030,0.098601,0.118094,0.749260,0.205925,-0.000423,-0.010014,0.097756,-0.117820,-0.988212,-0.004509,-0.007302,0.002036,0.372355,-19.347996,-42.555351,,,,,,,
1558219219.394999,0.099272,0.120089,0.748609,0.032573,0.038508,-0.031133,0.098395,-0.119800,-0.987910,0.002694,-0.010311,0.009684,0.385867,-19.454563,-42.506618,,,,,,,
1558219219.414998,0.100295,0.118304,0.748194,-0.156798,0.075456,-0.021322,0.099427,-0.118029,-0.988020,-0.005845,-0.002928,0.011564,0.433692,-19.458244,-42.504475,,,,,,,
1558219219.434984,0.101957,0.113930,0.748610,-0.243056,0.078066,0.007460,0.101121,-0.113684,-0.988358,-0.005875,-0.003183,0.008850,0.517464,-19.269350,-42.589508,,,,,,,
1558219219.454936,0.102758,0.109263,0.749011,-0.215527,0.021862,-0.017612,0.101966,-0.109045,-0.988793,-0.011298,0.000479,0.001214,0.556389,-19.113176,-42.659328,,,,,,,
1558219219.474952,0.101879,0.106174,0.748396,-0.082533,-0.021195,-0.068096,0.101130,-0.105974,-0.989213,-0.013362,0.005114,-0.016051,0.574267,-18.976255,-42.720177,,,,,,,
1558219219.494936,0.101162,0.105018,0.746960,0.032541,0.008867,-0.070923,0.100434,-0.104825,-0.989406,-0.006943,0.012021,-0.019795,0.545981,-18.861565,-42.771309,,,,,,,
1558219219.514903,0.102130,0.105055,0.746409,-0.034458,0.061120,0.001055,0.101391,-0.104862,-0.989305,-0.004528,0.020954,0.003099,0.563451,-18.855980,-42.773548,,,,,,,
1558219219.534906,0.102627,0.102290,0.747019,-0.193165,0.032360,0.003856,0.101911,-0.102111,-0.989539,-0.013426,0.001541,0.018546,0.601303,-18.832064,-42.783566,,,,,,,
1558219219.554890,0.101013,0.097692,0.746604,-0.242156,-0.018266,-0.090620,0.100361,-0.097537,-0.990159,-0.024982,-0.005002,0.006394,0.581266,-18.684860,-42.848335,,,,,,,
1558219219.574870,0.097832,0.091965,0.744599,-0.211110,0.003650,-0.161916,0.097264,-0.091836,-0.991013,-0.030766,0.013512,-0.009888,0.486187,-18.364458,-42.987812,,,,,,,
1558219219.594858,0.097715,0.087534,0.741683,-0.143923,0.042404,-0.161491,0.097186,-0.087422,-0.991419,-0.026019,0.017110,-0.009862,0.491293,-18.212532,-43.052338,,,,,,,
1558219219.614844,0.098335,0.083380,0.739503,-0.106554,0.107833,-0.096775,0.097836,-0.083283,-0.991712,-0.017636,0.023591,-0.007922,0.495241,-18.054605,-43.118759,,,,,,,
1558219219.634827,0.098304,0.079120,0.738415,-0.155732,0.054207,-0.077042,0.097839,-0.079038,-0.992059,-0.022445,0.011136,-0.014533,0.597425,-17.817463,-43.216003,,,,,,,
1558219219.654796,0.096545,0.075828,0.736640,-0.098639,-0.086755,-0.127457,0.096118,-0.075755,-0.992483,-0.031467,0.007991,-0.022867,0.597094,-17.696705,-43.265594,,,,,,,
1558219219.674793,0.092880,0.074915,0.733628,0.069616,-0.083478,-0.166793,0.092487,-0.074845,-0.992897,-0.030872,0.014969,-0.031410,0.429370,-17.587961,-43.311901,,,,,,,
1558219219.694773,0.092103,0.076605,0.730190,0.097480,-0.023364,-0.159789,0.091703,-0.076530,-0.992841,-0.027540,0.016838,-0.023348,0.425026,-17.644077,-43.289116,,,,,,,
1558219219.714754,0.092166,0.076695,0.727284,-0.004499,0.049070,-0.143163,0.091765,-0.076620,-0.992829,-0.029478,0.013647,-0.006988,0.436536,-17.698299,-43.266861,,,,,,,
1558219219.734730,0.090485,0.075310,0.723981,-0.054776,-0.052234,-0.201825,0.090105,-0.075239,-0.993086,-0.032930,0.001692,-0.002626,0.495526,-17.668362,-43.278458,,,,,,,
1558219219.754734,0.086431,0.073539,0.719694,-0.035896,-0.152809,-0.236937,0.086090,-0.073472,-0.993575,-0.033814,0.010332,-0.007539,0.402807,-17.613384,-43.301826,,,,,,,
1558219219.774696,0.082841,0.071652,0.714756,-0.087929,-0.127214,-0.265560,0.082534,-0.071591,-0.994014,-0.036453,0.007305,-0.008779,0.334975,-17.582920,-43.314777,,,,,,,
1558219219.794703,0.078933,0.068041,0.709469,-0.172900,-0.084545,-0.298316,0.078668,-0.067989,-0.994580,-0.042444,0.001872,-0.027469,0.220931,-17.430593,-43.377033,,,,,,,
1558219219.814687,0.076613,0.064303,0.703626,-0.130266,-0.073164,-0.309917,0.076380,-0.064259,-0.995006,-0.044688,-0.001430,-0.037602,0.196814,-17.310383,-43.425262,,,,,,,
1558219219.834657,0.073990,0.063098,0.697602,0.026042,-0.124725,-0.309218,0.073775,-0.063056,-0.995279,-0.037429,0.002021,-0.036581,0.136384,-17.208500,-43.465969,,,,,,,
1558219219.854656,0.068010,0.064393,0.690979,0.087681,-0.177986,-0.358790,0.067817,-0.064348,-0.995620,-0.039726,-0.008879,-0.020355,0.027036,-17.258678,-43.446274,,,,,,,
1558219219.874640,0.064518,0.065310,0.683131,0.046320,-0.152473,-0.405556,0.064336,-0.065263,-0.995792,-0.030629,-0.001356,-0.017590,-0.033061,-17.324009,-43.420261,,,,,,,
1558219219.894625,0.061920,0.064896,0.675163,-0.011020,-0.104594,-0.395534,0.061750,-0.064851,-0.995983,-0.025205,-0.001220,-0.017262,-0.084442,-17.357782,-43.406704,,,,,,,
1558219219.914581,0.058500,0.064146,0.667435,0.005979,-0.114204,-0.395612,0.058347,-0.064102,-0.996236,-0.026196,-0.001632,-0.027842,-0.080034,-17.341141,-43.413361,,,,,,,
1558219219.934577,0.055000,0.064093,0.659131,0.015269,-0.217893,-0.429695,0.054859,-0.064049,-0.996438,-0.019672,-0.007423,-0.024055,-0.093273,-17.348669,-43.410328,,,,,,,
1558219219.954561,0.049604,0.064943,0.650204,0.113003,-0.291384,-0.458079,0.049479,-0.064897,-0.996665,-0.020991,-0.001509,-0.039056,-0.146967,-17.367193,-43.402771,,,,,,,
1558219219.974542,0.043147,0.067820,0.640413,0.184214,-0.343617,-0.500160,0.043035,-0.067768,-0.996773,-0.020696,-0.006787,-0.033348,-0.332641,-17.523821,-43.338741,,,,,,,
1558219219.994517,0.036933,0.070982,0.629747,0.166253,-0.319268,-0.537309,0.036832,-0.070922,-0.996802,-0.016873,0.004043,-0.014490,-0.432151,-17.651928,-43.285847,,,,,,,
1558219220.014528,0.032018,0.072899,0.618904,0.081423,-0.222648,-0.544993,0.031927,-0.072834,-0.996833,-0.018088,0.000019,-0.016000,-0.528036,-17.788229,-43.228947,,,,,,,
1558219220.034504,0.028559,0.073519,0.607238,0.027394,-0.174902,-0.612909,0.028478,-0.073453,-0.996892,-0.018224,-0.008258,-0.027308,-0.531456,-17.868914,-43.195614,,,,,,,
1558219220.054498,0.025689,0.073531,0.594028,0.011477,-0.190777,-0.681403,0.025617,-0.073464,-0.996969,-0.012921,-0.004417,-0.039835,-0.525126,-17.880079,-43.191071,,,,,,,
1558219220.074486,0.022317,0.073823,0.579884,0.056071,-0.242862,-0.719234,0.022254,-0.073756,-0.997028,-0.010612,-0.001271,-0.048336,-0.420201,-17.912981,-43.178585,,,,,,,
1558219220.094470,0.017405,0.076047,0.564964,0.169775,-0.318561,-0.755099,0.017354,-0.075974,-0.996959,-0.011403,-0.004990,-0.047872,-0.385102,-18.011967,-43.137711,,,,,,,
1558219220.114455,0.012115,0.079842,0.549825,0.203848,-0.310266,-0.743249,0.012077,-0.079757,-0.996741,-0.001640,0.003662,-0.032235,-0.386583,-18.050150,-43.121735,,,,,,,
1558219220.134440,0.007776,0.082913,0.535266,0.133721,-0.260183,-0.719337,0.007749,-0.082818,-0.996535,0.000521,0.005319,-0.031557,-0.388945,-18.271626,-43.028339,,,,,,,
1558219220.154424,0.003639,0.084951,0.520345,0.102818,-0.287561,-0.758059,0.003626,-0.084849,-0.996387,0.001547,0.008143,-0.038250,-0.353750,-18.398838,-42.974400,,,,,,,
1558219220.174408,-0.001922,0.086837,0.504762,0.086600,-0.377366,-0.787759,-0.001915,-0.086728,-0.996230,0.008995,0.005734,-0.041367,-0.324066,-18.536396,-42.915482,,,,,,,
1558219220.194393,-0.008447,0.087592,0.488967,-0.008184,-0.388487,-0.782603,-0.008415,-0.087480,-0.996131,0.016166,0.004823,-0.040353,-0.324066,-18.536396,-42.915482,,,,,,,
1558219220.214348,-0.014153,0.086288,0.473604,-0.095334,-0.334081,-0.755461,-0.014100,-0.086181,-0.996180,0.005509,0.001892,-0.058645,-0.385522,-18.582714,-42.894939,,,,,,,
1558219220.234361,-0.019360,0.085374,0.458203,-0.016506,-0.328190,-0.779897,-0.019288,-0.085270,-0.996171,-0.009231,-0.014446,-0.075103,-0.394290,-18.490364,-42.934750,,,,,,,
1558219220.254327,-0.025162,0.087230,0.441844,0.132408,-0.390369,-0.840161,-0.025064,-0.087119,-0.995883,0.001718,-0.016198,-0.091764,-0.391093,-18.494184,-42.933132,,,,,,,
1558219220.274311,-0.031569,0.092148,0.424414,0.262354,-0.391133,-0.894515,-0.031430,-0.092018,-0.995261,0.028317,-0.003838,-0.084313,-0.415043,-18.697926,-42.844570,,,,,,,
1558219220.294314,-0.037245,0.097766,0.406773,0.220931,-0.352830,-0.871761,-0.037059,-0.097611,-0.994534,0.044261,0.000046,-0.082828,-0.407887,-18.874088,-42.767326,,,,,,,
1558219220.314271,-0.042340,0.101070,0.390290,0.083570,-0.331915,-0.798003,-0.042111,-0.100898,-0.994005,0.049573,-0.005700,-0.089613,-0.379499,-19.052036,-42.688610,,,,,,,
1558219220.334284,-0.047907,0.103115,0.374715,0.080142,-0.394231,-0.778317,-0.047635,-0.102933,-0.993547,0.015561,-0.006564,-0.164992,-0.365283,-19.141413,-42.648735,,,,,,,
1558219220.354254,-0.056643,0.104878,0.359924,0.053270,-0.441553,-0.709395,-0.056302,-0.104686,-0.992910,0.037625,-0.015279,-0.127283,-0.455535,-19.187679,-42.627068,,,,,,,
1558219220.374252,-0.059794,0.108613,0.345017,0.195787,-0.195090,-0.795536,-0.059407,-0.108399,-0.992331,0.069874,-0.011535,-0.084192,-0.509068,-19.258234,-42.594635,,,,,,,
1558219220.394215,-0.063507,0.114942,0.329379,0.304923,-0.337265,-0.770119,-0.063045,-0.114690,-0.991399,0.069500,-0.019695,-0.094096,-0.367701,-19.506355,-42.483036,,,,,,,
1558219220.414195,-0.071579,0.122145,0.314902,0.301968,-0.576095,-0.743580,-0.070985,-0.121842,-0.990008,0.065858,-0.023315,-0.108243,-0.400160,-19.709108,-42.389061,,,,,,,
1558219220.434175,-0.081537,0.128764,0.299844,0.258405,-0.568523,-0.780911,-0.080773,-0.128408,-0.988427,0.083946,-0.027567,-0.116645,-0.589769,-19.966320,-42.266296,,,,,,,
1558219220.454189,-0.087763,0.135142,0.285375,0.263475,-0.287272,-0.705615,-0.086851,-0.134731,-0.987069,0.105726,0.000224,-0.119895,-0.733909,-20.251064,-42.128345,,,,,,,
1558219220.474175,-0.088195,0.141413,0.272851,0.245035,-0.025957,-0.613446,-0.087201,-0.140942,-0.986170,0.112729,0.009335,-0.114355,-0.657424,-20.425276,-42.045425,,,,,,,
1558219220.494142,-0.087174,0.146062,0.262132,0.143626,-0.064378,-0.509266,-0.086136,-0.145544,-0.985595,0.110932,-0.012721,-0.121476,-0.433618,-20.626354,-41.950054,,,,,,,
1558219220.514144,-0.088567,0.148350,0.252451,0.031447,-0.184234,-0.492359,-0.087480,-0.147806,-0.985140,0.099900,-0.017050,-0.153868,-0.273836,-20.750355,-41.890205,,,,,,,
1558219220.534128,-0.092636,0.149396,0.240862,0.001323,-0.341769,-0.625211,-0.091473,-0.148841,-0.984621,0.125332,0.006034,-0.148451,-0.254603,-20.760050,-41.885525,,,,,,,
1558219220.554090,-0.098233,0.151984,0.228501,0.126793,-0.369865,-0.594418,-0.096944,-0.151400,-0.983707,0.148488,-0.008665,-0.136547,-0.288132,-20.777164,-41.876820,,,,,,,
1558219220.574097,-0.103171,0.157570,0.218678,0.287588,-0.289114,-0.455790,-0.101712,-0.156919,-0.982360,0.143399,-0.000613,-0.128495,-0.362271,-20.957817,-41.786125,,,,,,,
1558219220.594080,-0.107227,0.165554,0.211635,0.394003,-0.256767,-0.362510,-0.105558,-0.164798,-0.980663,0.142759,0.011692,-0.119588,-0.399204,-21.160545,-41.683495,,,,,,,
1558219220.614065,-0.110708,0.174156,0.205498,0.396866,-0.335982,-0.315223,-0.108811,-0.173277,-0.978844,0.145875,0.004698,-0.112327,-0.399819,-21.485630,-41.516857,,,,,,,
1558219220.634043,-0.116255,0.181887,0.200810,0.334110,-0.289040,-0.245427,-0.114080,-0.180886,-0.976865,0.142568,0.015542,-0.088107,-0.577152,-21.882378,-41.307022,,,,,,,
1558219220.654033,-0.120063,0.188589,0.196908,0.305672,-0.190569,-0.231695,-0.117651,-0.187473,-0.975199,0.159140,0.016376,-0.087652,-0.681355,-22.146935,-41.164192,,,,,,,
1558219220.674019,-0.122167,0.195739,0.193301,0.365494,-0.112618,-0.201007,-0.119536,-0.194492,-0.973593,0.156218,0.021091,-0.096399,-0.708650,-22.341667,-41.058361,,,,,,,
1558219220.694004,-0.117557,0.203554,0.190274,0.528346,-0.076327,-0.111917,-0.114865,-0.202151,-0.972595,0.152997,0.039904,-0.072556,-0.711125,-22.758080,-40.828983,,,,,,,
1558219220.713969,-0.119587,0.216721,0.189972,0.718721,-0.122764,-0.101533,-0.116511,-0.215028,-0.969633,0.155818,0.046556,-0.044726,-0.476678,-23.039669,-40.674168,,,,,,,
1558219220.733971,-0.122067,0.232456,0.189140,0.789067,-0.118983,-0.153755,-0.118489,-0.230368,-0.965863,0.158040,0.041617,-0.044849,-0.529063,-23.632856,-40.331745,,,,,,,
1558219220.753937,-0.122860,0.247884,0.188068,0.751922,-0.065873,-0.111639,-0.118806,-0.245353,-0.962126,0.172867,0.037147,-0.069139,-0.524063,-24.103664,-40.052219,,,,,,,
1558219220.773941,-0.125382,0.263412,0.190061,0.825912,-0.139976,0.074550,-0.120741,-0.260377,-0.957928,0.202146,0.056184,-0.073185,-0.559717,-25.016266,-39.488159,,,,,,,
1558219220.793903,-0.130170,0.281997,0.196279,1.046059,-0.130332,0.229627,-0.124676,-0.278274,-0.952376,0.188961,0.076843,-0.058977,-0.559717,-25.016266,-39.488159,,,,,,,
1558219220.813895,-0.133185,0.303087,0.205043,1.097639,0.047073,0.295425,-0.126739,-0.298468,-0.945967,0.161804,0.068488,-0.062868,-0.860223,-26.137480,-38.749630,,,,,,,
1558219220.833895,-0.133046,0.322081,0.214168,0.930929,0.177977,0.306153,-0.125833,-0.316541,-0.940196,0.174920,0.067319,-0.037954,-1.019648,-27.351782,-37.898312,,,,,,,
1558219220.853880,-0.133249,0.338381,0.222851,0.844391,0.075881,0.292295,-0.125321,-0.331960,-0.934932,0.189866,0.082693,-0.030370,-1.019648,-27.351782,-37.898312,,,,,,,
1558219220.873864,-0.136500,0.354941,0.231527,0.906801,-0.039647,0.301915,-0.127594,-0.347535,-0.928945,0.215210,0.080064,-0.040507,-1.132204,-28.323566,-37.174389,,,,,,,
1558219220.893849,-0.139513,0.373081,0.241678,0.997639,0.102682,0.375950,-0.129495,-0.364486,-0.922161,0.203317,0.089828,-0.029758,-1.417150,-29.324802,-36.379791,,,,,,,
1558219220.913818,-0.138802,0.391958,0.253949,1.009973,0.337420,0.474295,-0.127865,-0.381998,-0.915275,0.204113,0.114039,-0.013573,-1.481120,-29.682922,-36.085617,,,,,,,
1558219220.933796,-0.138134,0.409362,0.269001,0.921261,0.294766,0.620084,-0.126318,-0.398024,-0.908637,0.221762,0.104293,0.020026,-1.593236,-30.721161,-35.201042,,,,,,,
1558219220.953802,-0.141070,0.424941,0.286272,0.863243,0.160925,0.683882,-0.128098,-0.412267,-0.902013,0.211258,0.112234,0.007756,-1.760257,-31.178722,-34.788364,,,,,,,
1558219220.973784,-0.143540,0.439845,0.303448,0.843594,0.323767,0.656599,-0.129432,-0.425799,-0.895512,0.194557,0.107562,0.009740,-2.064881,-31.746685,-34.253845,,,,,,,
1558219220.993763,-0.139967,0.453818,0.320289,0.757395,0.658247,0.664002,-0.125389,-0.438401,-0.889990,0.182777,0.122803,0.029196,-2.234569,-32.411850,-33.614288,,,,,,,
1558219221.013756,-0.134070,0.465106,0.338192,0.620009,0.680247,0.756987,-0.119470,-0.448518,-0.885753,0.186639,0.139710,0.031566,-2.225257,-32.750786,-33.284767,,,,,,,
1558219221.033738,-0.130946,0.474366,0.358400,0.568354,0.565485,0.878627,-0.116154,-0.456775,-0.881967,0.187077,0.139560,0.047967,-2.292856,-33.120144,-32.912621,,,,,,,
1558219221.053724,-0.130863,0.483407,0.380844,0.585129,0.512628,0.933652,-0.115538,-0.464798,-0.877846,0.157133,0.093796,0.077523,-2.596446,-33.533592,-32.468418,,,,,,,
1558219221.073688,-0.129709,0.491963,0.400934,0.488640,0.540331,0.741663,-0.114006,-0.472357,-0.874003,0.136009,0.093634,0.071727,-2.797763,-33.776268,-32.199036,,,,,,,
1558219221.093693,-0.126178,0.498166,0.416687,0.366430,0.549255,0.624210,-0.110548,-0.477816,-0.871477,0.118727,0.107149,0.048601,-2.937726,-34.033081,-31.914894,,,,,,,
1558219221.113677,-0.123988,0.505257,0.433215,0.528953,0.495714,0.734862,-0.108218,-0.484032,-0.868333,0.131045,0.142510,0.038117,-3.068807,-34.299583,-31.615860,,,,,,,
1558219221.133637,-0.122967,0.517825,0.454973,0.858124,0.661289,0.934226,-0.106577,-0.494992,-0.862337,0.121668,0.151623,0.056032,-3.229860,-34.552834,-31.322691,,,,,,,
1558219221.153646,-0.119836,0.533078,0.480330,0.858589,0.843226,1.023514,-0.102962,-0.508187,-0.855070,0.112727,0.148384,0.063582,-3.457315,-35.025307,-30.768761,,,,,,,
1558219221.173630,-0.117922,0.544671,0.506571,0.617445,0.689174,1.065620,-0.100625,-0.518137,-0.849358,0.071206,0.160303,0.054345,-3.751423,-35.537174,-30.140961,,,,,,,
1558219221.193614,-0.120608,0.552345,0.533490,0.484816,0.517646,1.110849,-0.102425,-0.524685,-0.845112,0.039680,0.162670,0.032109,-4.158356,-35.781647,-29.796368,,,,,,,
1558219221.213599,-0.124938,0.559966,0.561365,0.560494,0.555325,1.127284,-0.105581,-0.531157,-0.840669,0.040762,0.164138,0.016572,-4.535129,-35.928673,-29.563562,,,,,,,
1558219221.233584,-0.125193,0.568834,0.588665,0.578483,0.819394,1.067903,-0.105204,-0.538650,-0.835936,0.028376,0.146484,0.002455,-5.077874,-36.213451,-29.124607,,,,,,,
1558219221.253549,-0.121376,0.576802,0.615822,0.513973,0.968839,1.113055,-0.101489,-0.545346,-0.832044,0.022982,0.166272,-0.000018,-5.280533,-36.374290,-28.887169,,,,,,,
1558219221.273553,-0.117766,0.583750,0.645549,0.485168,1.005111,1.235091,-0.098037,-0.551157,-0.828622,0.006729,0.178873,0.016793,-5.545888,-36.544945,-28.620823,,,,,,,
1558219221.293507,-0.115330,0.590039,0.676680,0.447763,0.965157,1.246423,-0.095618,-0.556393,-0.825399,-0.003076,0.142178,0.045904,-5.792912,-36.647285,-28.440472,,,,,,,
1558219221.313523,-0.115184,0.595805,0.706940,0.423779,0.764356,1.182557,-0.095127,-0.561175,-0.822213,-0.022747,0.126620,0.057412,-6.367146,-36.799812,-28.118942,,,,,,,
1558219221.333506,-0.117828,0.601371,0.734550,0.397843,0.589901,1.059155,-0.096931,-0.565773,-0.818844,-0.020943,0.131218,0.054043,-6.701698,-36.863506,-27.957302,,,,,,,
1558219221.353491,-0.120750,0.606888,0.760539,0.415055,0.628868,1.024309,-0.098946,-0.570314,-0.815446,-0.029273,0.145265,0.048478,-7.039816,-36.920952,-27.797947,,,,,,,
1558219221.373475,-0.121081,0.613154,0.786434,0.445344,0.769270,1.009663,-0.098783,-0.575450,-0.811849,0.003354,0.170970,0.081472,-7.630687,-37.044388,-27.475945,,,,,,,
1558219221.393460,-0.121675,0.618811,0.812800,0.379021,0.695709,1.064423,-0.098868,-0.580067,-0.808546,0.004233,0.171147,0.083418,-7.881748,-37.105549,-27.322115,,,,,,,
1558219221.413444,-0.124199,0.621772,0.840860,0.219262,0.701939,1.135887,-0.100695,-0.582477,-0.806586,-0.011808,0.149676,0.098304,-8.187965,-37.131351,-27.196724,,,,,,,
1558219221.433428,-0.125673,0.620677,0.868957,0.017230,0.771715,1.141731,-0.101964,-0.581586,-0.807070,-0.019251,0.194272,0.117586,-8.865966,-36.995716,-27.168980,,,,,,,
1558219221.453410,-0.125689,0.617584,0.896672,-0.024397,0.755079,1.179974,-0.102202,-0.579067,-0.808848,-0.030046,0.145672,0.076503,-9.158625,-36.844643,-27.276978,,,,,,,
1558219221.473405,-0.130208,0.613230,0.926884,-0.085723,0.601219,1.275608,-0.106182,-0.575512,-0.810871,-0.034061,0.130612,0.090076,-9.784132,-36.532631,-27.478703,,,,,,,
1558219221.493369,-0.135061,0.607071,0.957136,-0.177100,0.648194,1.266376,-0.110591,-0.570465,-0.813843,-0.041523,0.102630,0.087585,-10.229148,-36.297165,-27.628281,,,,,,,
1558219221.513351,-0.136900,0.598856,0.985932,-0.291502,0.787159,1.196082,-0.112724,-0.563698,-0.818253,-0.044366,0.086266,0.082139,-10.644678,-36.025696,-27.825916,,,,,,,
1558219221.533339,-0.136075,0.588501,1.011835,-0.406614,0.700991,1.112949,-0.112835,-0.555115,-0.824085,-0.005711,0.124344,0.102817,-11.264812,-35.377831,-28.406948,,,,,,,
1558219221.553336,-0.139461,0.576506,1.037058,-0.473597,0.415997,1.144332,-0.116541,-0.545098,-0.830233,0.000086,0.121193,0.097521,-11.581820,-35.004852,-28.739578,,,,,,,
1558219221.573306,-0.147274,0.563557,1.063560,-0.469789,0.315680,1.224516,-0.124050,-0.534196,-0.836209,-0.025135,0.080034,0.047818,-11.997271,-34.598343,-29.059622,,,,,,,
1558219221.593281,-0.151772,0.551848,1.090587,-0.371914,0.612153,1.202876,-0.128747,-0.524262,-0.841768,-0.030326,0.094711,0.068987,-12.909390,-33.746021,-29.664713,,,,,,,
1558219221.613289,-0.152780,0.540968,1.116095,-0.386997,0.533938,1.151936,-0.130456,-0.514966,-0.847226,-0.020484,0.100736,0.069027,-13.217100,-33.350605,-29.974771,,,,,,,
1558219221.633262,-0.159747,0.529678,1.141728,-0.375402,0.191456,1.186034,-0.137271,-0.505255,-0.851982,-0.082181,0.075751,0.033470,-13.695181,-32.805595,-30.359123,,,,,,,
1558219221.653234,-0.167958,0.519746,1.166457,-0.240708,0.312134,1.071991,-0.145094,-0.496660,-0.855732,-0.100512,0.074999,0.049793,-14.495802,-32.121845,-30.716454,,,,,,,
1558219221.673241,-0.170903,0.513401,1.187905,-0.135911,0.389580,0.923346,-0.148147,-0.491143,-0.858389,-0.056092,0.041543,0.034048,-14.916450,-31.712799,-30.939289,,,,,,,
1558219221.693208,-0.173163,0.506542,1.207024,-0.246736,0.331956,0.875729,-0.150663,-0.485156,-0.861350,-0.048373,0.057437,0.051398,-15.085463,-31.532097,-31.041862,,,,,,,
1558219221.713149,-0.176145,0.497229,1.226600,-0.327841,0.310316,0.964072,-0.154016,-0.476992,-0.865308,-0.047202,0.038103,0.027082,-15.608325,-30.879589,-31.436802,,,,,,,
1558219221.733133,-0.180745,0.487185,1.247629,-0.319684,0.223672,1.013428,-0.158848,-0.468140,-0.869260,-0.029156,0.037140,0.031384,-15.919408,-30.489912,-31.660378,,,,,,,
1558219221.753119,-0.188557,0.477866,1.269040,-0.262821,0.035223,1.012738,-0.166444,-0.459885,-0.872240,-0.065047,0.060929,0.057832,-16.407272,-29.963779,-31.912617,,,,,,,
1558219221.773103,-0.196756,0.469833,1.288663,-0.184599,0.122318,0.860960,-0.174307,-0.452737,-0.874440,-0.095057,0.061990,0.071874,-17.111633,-29.350700,-32.111832,,,,,,,
1558219221.793070,-0.200792,0.463632,1.304776,-0.176812,0.162240,0.724690,-0.178391,-0.447199,-0.876464,-0.075607,0.005015,-0.012330,-17.399437,-29.059027,-32.222263,,,,,,,
1558219221.813061,-0.206606,0.455286,1.319219,-0.336031,-0.031440,0.707762,-0.184243,-0.439719,-0.879034,-0.056754,0.024238,-0.008249,-17.752079,-28.667944,-32.379845,,,,,,,
1558219221.833056,-0.216610,0.443420,1.333567,-0.498753,-0.272516,0.791803,-0.194135,-0.429031,-0.882181,-0.102435,0.062500,0.014841,-18.070776,-28.313747,-32.514923,,,,,,,
1558219221.853037,-0.231539,0.427541,1.350422,-0.546162,-0.106269,0.830727,-0.208820,-0.414635,-0.885704,-0.128887,0.036110,0.030724,-18.985521,-27.469467,-32.717274,,,,,,,
1558219221.873025,-0.231706,0.412730,1.363795,-0.604562,0.526996,0.702218,-0.210355,-0.401112,-0.891549,-0.095187,0.006794,0.087716,-19.447144,-26.792490,-33.006252,,,,,,,
1558219221.893009,-0.225412,0.396427,1.373501,-0.771989,0.380775,0.584311,-0.206174,-0.386125,-0.899111,-0.085284,-0.026580,-0.013029,-19.502924,-26.282753,-33.381050,,,,,,,
1558219221.912973,-0.227820,0.377009,1.382232,-0.875673,-0.066834,0.598094,-0.209992,-0.368141,-0.905746,-0.154540,-0.007591,-0.003846,-19.668304,-25.134239,-34.159470,,,,,,,
1558219221.932978,-0.229950,0.359144,1.388040,-0.748155,0.088604,0.376545,-0.213387,-0.351473,-0.911555,-0.143455,-0.011366,-0.002049,-19.912277,-24.529144,-34.456696,,,,,,,
1558219221.952960,-0.224474,0.345403,1.390293,-0.599862,0.432148,0.200587,-0.209447,-0.338576,-0.917332,-0.073954,-0.029328,0.023915,-20.001614,-24.027588,-34.757042,,,,,,,
1558219221.972948,-0.219977,0.335437,1.391590,-0.638346,0.336020,0.106750,-0.206046,-0.329181,-0.921512,-0.047372,-0.031018,-0.018353,-19.851404,-23.351303,-35.299858,,,,,,,
1558219221.992932,-0.217919,0.320553,1.390587,-0.790809,-0.048950,0.132837,-0.205185,-0.315091,-0.926616,-0.068268,-0.057315,-0.047948,-19.763155,-22.959595,-35.605003,,,,,,,
1558219222.012914,-0.219583,0.304412,1.389727,-0.769561,-0.068109,0.118791,-0.207808,-0.299732,-0.931116,-0.092028,-0.060131,-0.081061,-19.829258,-22.499008,-35.861359,,,,,,,
1558219222.032901,-0.217453,0.292148,1.387907,-0.501394,0.174469,-0.003587,-0.206602,-0.288010,-0.935075,-0.069384,-0.044784,-0.041594,-19.920546,-21.655464,-36.327045,,,,,,,
1558219222.052856,-0.211912,0.286911,1.384761,-0.185857,0.248712,-0.140350,-0.201732,-0.282991,-0.937668,-0.092335,-0.041961,-0.046753,-19.846329,-21.494755,-36.462860,,,,,,,
1558219222.072864,-0.212875,0.286097,1.382109,-0.113296,0.251337,-0.241691,-0.202683,-0.282210,-0.937698,-0.123199,-0.027665,-0.056000,-19.764597,-21.384399,-36.571980,,,,,,,
1558219222.092853,-0.205778,0.283713,1.375204,-0.260052,0.255150,-0.328251,-0.196160,-0.279922,-0.939769,-0.108085,-0.008286,-0.044912,-19.538033,-21.390791,-36.689796,,,,,,,
1558219222.112824,-0.197970,0.277555,1.366524,-0.430261,0.281391,-0.343084,-0.189152,-0.274005,-0.942944,-0.071514,0.005679,-0.021717,-19.292049,-21.342270,-36.847878,,,,,,,
1558219222.132800,-0.191935,0.269939,1.360006,-0.389868,0.320469,-0.217761,-0.183850,-0.266673,-0.946089,-0.055133,-0.012532,-0.036134,-18.853254,-21.034592,-37.249729,,,,,,,
1558219222.152807,-0.185080,0.262439,1.355021,-0.441377,0.222528,-0.156816,-0.177724,-0.259436,-0.949266,-0.061671,-0.042962,-0.030775,-18.618484,-20.866976,-37.461487,,,,,,,
1558219222.172766,-0.184826,0.255069,1.349190,-0.508867,0.023944,-0.301836,-0.177830,-0.252312,-0.951165,-0.074078,-0.046760,-0.028327,-18.446072,-20.662804,-37.659431,,,,,,,
1558219222.192767,-0.182898,0.247024,1.338916,-0.458842,-0.056911,-0.475529,-0.176359,-0.244519,-0.953471,-0.074160,-0.033648,-0.050938,-18.345728,-20.327961,-37.889969,,,,,,,
1558219222.212747,-0.180473,0.240165,1.327948,-0.418033,0.062351,-0.453001,-0.174343,-0.237862,-0.955524,-0.062290,-0.021537,-0.044491,-18.234087,-20.202713,-38.010658,,,,,,,
1558219222.232728,-0.174136,0.234999,1.315873,-0.481466,0.150276,-0.549369,-0.168496,-0.232842,-0.957807,0.032921,-0.052086,-0.024966,-17.947832,-20.119564,-38.190575,,,,,,,
1558219222.252704,-0.167536,0.223541,1.301341,-0.813257,0.214266,-0.628028,-0.162604,-0.221684,-0.961466,-0.003564,-0.029613,-0.023764,-17.520901,-19.827042,-38.540215,,,,,,,
1558219222.272714,-0.157571,0.206500,1.284217,-1.037307,0.342150,-0.718801,-0.153586,-0.205035,-0.966629,-0.017343,-0.007352,-0.063629,-17.040474,-19.343357,-38.998695,,,,,,,
1558219222.292695,-0.148283,0.190201,1.266483,-0.826887,0.228977,-0.734663,-0.145076,-0.189056,-0.971190,-0.003957,-0.002808,-0.065690,-16.637318,-18.930853,-39.373394,,,,,,,
1558219222.312683,-0.143027,0.181427,1.251750,-0.381576,0.057657,-0.638791,-0.140201,-0.180433,-0.973544,0.015857,0.020277,-0.035489,-16.124950,-18.516731,-39.781380,,,,,,,
1558219222.332650,-0.140958,0.178341,1.237174,-0.244558,-0.074264,-0.727491,-0.138264,-0.177397,-0.974379,0.023792,-0.014254,0.011351,-15.930241,-18.489216,-39.872520,,,,,,,
1558219222.352652,-0.140488,0.171982,1.220168,-0.579936,-0.132878,-0.812665,-0.137960,-0.171136,-0.975541,0.022177,-0.010139,0.008240,-15.726046,-18.494802,-39.950912,,,,,,,
1558219222.372636,-0.138744,0.158959,1.201539,-0.853138,-0.022579,-0.818234,-0.136555,-0.158290,-0.977904,0.016118,-0.006535,-0.025804,-15.455393,-18.152075,-40.212868,,,,,,,
1558219222.392618,-0.135079,0.144748,1.182919,-0.762278,0.096399,-0.809549,-0.133261,-0.144243,-0.980528,0.022604,-0.016218,-0.072328,-15.235472,-17.819050,-40.445065,,,,,,,
1558219222.412605,-0.129434,0.135261,1.165475,-0.489566,0.171111,-0.781924,-0.127894,-0.134849,-0.982578,0.039958,-0.018365,-0.065869,-14.859278,-17.475842,-40.733749,,,,,,,
1558219222.432590,-0.124535,0.128765,1.148877,-0.408844,0.122081,-0.770585,-0.123185,-0.128409,-0.984041,0.046738,-0.008904,-0.042082,-14.364535,-17.284403,-40.992088,,,,,,,
1558219222.452551,-0.120932,0.121579,1.133266,-0.486873,0.049641,-0.714756,-0.119747,-0.121280,-0.985369,0.022381,-0.018902,-0.038710,-14.101949,-17.186028,-41.124413,,,,,,,
1558219222.472558,-0.119003,0.113640,1.118035,-0.471225,-0.033902,-0.685649,-0.117957,-0.113396,-0.986523,0.021598,-0.044945,-0.042316,-13.821056,-16.985184,-41.302826,,,,,,,
1558219222.492543,-0.118839,0.107187,1.103118,-0.371320,-0.096841,-0.719268,-0.117879,-0.106982,-0.987248,0.047734,-0.026288,-0.045131,-13.578163,-16.763359,-41.473663,,,,,,,
1558219222.512528,-0.119257,0.102239,1.087653,-0.341540,-0.109698,-0.730044,-0.118353,-0.102061,-0.987713,0.062323,-0.024907,-0.045323,-13.455952,-16.693489,-41.541622,,,,,,,
1558219222.532512,-0.119822,0.095798,1.072637,-0.465100,-0.113209,-0.685336,-0.118988,-0.095652,-0.988278,0.056747,-0.028219,-0.042194,-13.309025,-16.589495,-41.630524,,,,,,,
1558219222.552497,-0.120502,0.087525,1.058278,-0.481052,-0.094015,-0.647806,-0.119750,-0.087414,-0.988948,0.040420,-0.034260,-0.058354,-13.129641,-16.316721,-41.794960,,,,,,,
1558219222.572466,-0.121618,0.081769,1.044190,-0.306593,-0.152085,-0.697334,-0.120913,-0.081678,-0.989297,0.034792,-0.017046,-0.068976,-13.030647,-16.169159,-41.883198,,,,,,,
1558219222.592463,-0.123948,0.078723,1.028413,-0.247049,-0.217020,-0.795064,-0.123248,-0.078642,-0.989255,0.035357,-0.019518,-0.052524,-12.933885,-16.107708,-41.936832,,,,,,,
1558219222.612445,-0.127102,0.075064,1.011227,-0.318274,-0.207195,-0.836665,-0.126403,-0.074993,-0.989140,0.037567,-0.007465,-0.024577,-12.829356,-16.093769,-41.974277,,,,,,,
1558219222.632433,-0.128775,0.069876,0.993957,-0.398883,-0.105256,-0.807995,-0.128106,-0.069819,-0.989300,0.041085,0.013712,-0.004398,-12.745501,-16.040951,-42.020016,,,,,,,
1558219222.652405,-0.128109,0.061968,0.976980,-0.519062,-0.063371,-0.789541,-0.127513,-0.061928,-0.989902,0.040065,0.017098,-0.001737,-12.531078,-15.871449,-42.148678,,,,,,,
1558219222.672382,-0.128118,0.052980,0.959677,-0.558365,-0.044159,-0.803268,-0.127589,-0.052955,-0.990412,0.058207,0.011787,-0.025319,-12.279354,-15.552929,-42.341061,,,,,,,
1558219222.692377,-0.128201,0.045191,0.942770,-0.444527,-0.046819,-0.767970,-0.127720,-0.045176,-0.990781,0.076786,0.009654,-0.034625,-12.122025,-15.358050,-42.457375,,,,,,,
1558219222.712342,-0.127901,0.039683,0.927678,-0.333944,-0.044097,-0.680309,-0.127452,-0.039673,-0.991051,0.108135,0.012543,-0.037483,-11.907965,-15.174191,-42.583870,,,,,,,
1558219222.732344,-0.128523,0.034711,0.914518,-0.332005,-0.055584,-0.578991,-0.128092,-0.034704,-0.991155,0.122858,0.004675,-0.073710,-11.713408,-15.011336,-42.695404,,,,,,,
1558219222.752341,-0.128754,0.029481,0.902952,-0.337224,-0.002636,-0.531512,-0.128342,-0.029476,-0.991292,0.117081,0.001690,-0.086726,-11.619780,-14.896338,-42.761215,,,,,,,
1558219222.772326,-0.125218,0.023960,0.891328,-0.358386,0.033410,-0.538660,-0.124855,-0.023958,-0.991886,0.132942,-0.011550,-0.090191,-11.343500,-14.732537,-42.891945,,,,,,,
1558219222.792311,-0.125100,0.018299,0.880102,-0.349084,-0.036353,-0.506223,-0.124753,-0.018298,-0.992019,0.156583,-0.004544,-0.082917,-11.131343,-14.501689,-43.025990,,,,,,,
1558219222.812294,-0.126954,0.013049,0.870421,-0.280346,-0.126404,-0.401333,-0.126602,-0.013049,-0.991868,0.164108,-0.013364,-0.099212,-11.067896,-14.359582,-43.089973,,,,,,,
1558219222.832279,-0.129903,0.010781,0.863717,-0.079460,-0.162159,-0.278735,-0.129531,-0.010781,-0.991517,0.155379,-0.010078,-0.121505,-11.072740,-14.226167,-43.132957,,,,,,,
1558219222.852263,-0.132557,0.011305,0.858717,0.009016,-0.105484,-0.237551,-0.132161,-0.011305,-0.991164,0.145284,-0.015230,-0.112047,-11.140018,-14.248358,-43.108307,,,,,,,
1558219222.872246,-0.133431,0.011369,0.854652,-0.043992,-0.014219,-0.181203,-0.133027,-0.011368,-0.991047,0.136384,-0.013671,-0.100429,-11.144392,-14.283523,-43.095535,,,,,,,
1558219222.892231,-0.121186,0.011894,0.851077,-0.054429,0.056711,-0.164529,-0.120881,-0.011893,-0.992596,0.104219,-0.012002,-0.084248,-10.594695,-14.335691,-43.216686,,,,,,,
1558219222.912188,-0.119402,0.011463,0.847676,-0.030843,0.106263,-0.167238,-0.119111,-0.011463,-0.992815,0.097199,-0.015881,-0.075011,-10.522766,-14.327445,-43.236988,,,,,,,
1558219222.932199,-0.117002,0.011583,0.844601,0.001082,0.118828,-0.133996,-0.116727,-0.011583,-0.993096,0.102048,0.002504,-0.045569,-10.315276,-14.342855,-43.281857,,,,,,,
1558219222.952155,-0.114873,0.012469,0.842865,0.057344,0.100658,-0.070066,-0.114611,-0.012469,-0.993332,0.083789,0.000475,-0.040176,-10.247418,-14.358397,-43.292820,,,,,,,
1558219222.972156,-0.106032,0.014447,0.841944,0.112561,0.071887,-0.043612,-0.105822,-0.014446,-0.994280,0.059954,0.001583,-0.023130,-9.782254,-14.463607,-43.365345,,,,,,,
1558219222.992136,-0.104987,0.016813,0.841652,0.116717,0.052878,-0.017100,-0.104779,-0.016812,-0.994353,0.046552,0.005215,-0.023835,-9.763527,-14.490121,-43.360718,,,,,,,
1558219223.012116,-0.098569,0.018425,0.841316,0.089287,0.122777,-0.030336,-0.098393,-0.018424,-0.994977,0.046452,0.006323,-0.012408,-9.478310,-14.624266,-43.378960,,,,,,,
1558219223.032125,-0.095482,0.019093,0.840810,-0.008532,0.162417,-0.019358,-0.095320,-0.019092,-0.995264,0.051329,0.012043,-0.006049,-9.320075,-14.701864,-43.387012,,,,,,,
1558219223.052108,-0.088772,0.017103,0.840931,-0.045855,0.165866,0.029754,-0.088642,-0.017102,-0.995917,0.024357,0.016507,-0.008600,-9.283445,-14.700914,-43.395187,,,,,,,
1558219223.072092,-0.085888,0.016385,0.841713,-0.017278,0.125581,0.050744,-0.085771,-0.016384,-0.996180,0.008394,0.015072,-0.019597,-8.933462,-14.591603,-43.505402,,,,,,,
1558219223.092077,-0.084429,0.015703,0.842944,0.053720,0.031142,0.056302,-0.084318,-0.015702,-0.996315,-0.007051,0.013932,-0.009773,-8.839576,-14.531241,-43.544762,,,,,,,
1558219223.112061,-0.085268,0.016921,0.843756,0.057665,-0.080978,0.018932,-0.085153,-0.016920,-0.996224,-0.020896,0.008970,0.013100,-8.849493,-14.565318,-43.531364,,,,,,,
1558219223.132045,-0.087878,0.016979,0.843349,-0.047853,-0.150280,-0.043739,-0.087753,-0.016978,-0.995998,-0.019379,0.003093,0.025569,-8.932439,-14.603815,-43.501514,,,,,,,
1558219223.152014,-0.091854,0.013715,0.842239,-0.184843,-0.048086,-0.039667,-0.091716,-0.013714,-0.995691,-0.023548,0.005932,0.027368,-9.145282,-14.494637,-43.493805,,,,,,,
1558219223.172015,-0.091399,0.009705,0.840964,-0.204720,0.052416,-0.051532,-0.091267,-0.009705,-0.995779,-0.020366,0.009781,0.008185,-9.146935,-14.371372,-43.534344,,,,,,,
1558219223.191983,-0.090012,0.006509,0.839642,-0.139722,0.073218,-0.049146,-0.089889,-0.006509,-0.995931,-0.018769,0.016335,-0.001399,-9.084640,-14.210588,-43.600117,,,,,,,
1558219223.211963,-0.090164,0.002819,0.838549,-0.108959,0.041340,-0.050493,-0.090042,-0.002819,-0.995934,-0.019059,0.002316,-0.018516,-9.054888,-14.014585,-43.669693,,,,,,,
1558219223.231969,-0.089853,0.001834,0.836774,-0.017445,0.008015,-0.101986,-0.089732,-0.001834,-0.995964,-0.020650,0.000567,-0.023033,-9.022993,-13.963767,-43.692566,,,,,,,
1558219223.251923,-0.090030,0.002094,0.834945,0.055920,-0.007138,-0.080719,-0.089908,-0.002094,-0.995948,-0.003857,0.009525,-0.024896,-8.996622,-13.948757,-43.702797,,,,,,,
1558219223.271930,-0.089066,0.001514,0.834118,0.034641,0.021594,-0.028147,-0.088948,-0.001514,-0.996035,0.005941,0.013568,-0.018766,-8.961686,-13.986504,-43.697914,,,,,,,
1558219223.291920,-0.087529,0.001303,0.833845,-0.031241,0.066367,-0.007487,-0.087417,-0.001303,-0.996171,0.005844,0.000845,-0.022140,-8.914286,-13.962409,-43.715305,,,,,,,
1558219223.311890,-0.085949,0.000612,0.833011,-0.034322,0.075815,-0.061849,-0.085843,-0.000612,-0.996309,0.003278,-0.004347,-0.021911,-8.826283,-13.934264,-43.742138,,,,,,,
1558219223.331890,-0.084092,0.000300,0.831488,-0.009985,0.024931,-0.076196,-0.083993,-0.000300,-0.996466,0.014641,0.001398,-0.016488,-8.734222,-13.919415,-43.765339,,,,,,,
1558219223.351847,-0.083034,0.000194,0.830448,0.008966,-0.019498,-0.034969,-0.082938,-0.000194,-0.996555,0.019431,0.004573,-0.012875,-8.670235,-13.921971,-43.777248,,,,,,,
1558219223.371859,-0.082760,0.000562,0.830189,0.048267,-0.034465,-0.011593,-0.082665,-0.000562,-0.996577,0.017739,0.005827,-0.010411,-8.591100,-13.915463,-43.794914,,,,,,,
1558219223.391845,-0.082542,0.001891,0.829720,0.066374,-0.044114,-0.040498,-0.082448,-0.001891,-0.996594,0.016621,-0.000260,-0.007358,-8.621199,-13.978465,-43.768929,,,,,,,
1558219223.411807,-0.083668,0.003087,0.828903,0.045048,-0.057752,-0.045984,-0.083570,-0.003087,-0.996497,0.015013,0.002736,-0.000085,-8.605598,-14.027452,-43.756325,,,,,,,
1558219223.431810,-0.083299,0.003348,0.828279,0.011079,-0.016307,-0.018924,-0.083202,-0.003348,-0.996527,0.019344,0.004279,-0.002390,-8.593322,-14.059851,-43.748341,,,,,,,
1558219223.451798,-0.081962,0.003087,0.828330,0.005756,-0.000369,0.015389,-0.081870,-0.003087,-0.996638,0.025764,0.007192,-0.005025,-8.599875,-14.069879,-43.743828,,,,,,,
1558219223.471781,-0.080128,0.003677,0.828946,0.008858,-0.019376,0.035494,-0.080042,-0.003677,-0.996785,0.015406,-0.008439,-0.008632,-8.541971,-14.056079,-43.759605,,,,,,,
1558219223.491766,-0.079596,0.004898,0.829400,0.015316,-0.009931,0.011033,-0.079511,-0.004898,-0.996822,0.006956,-0.011078,-0.005604,-8.459293,-14.102742,-43.760651,,,,,,,
1558219223.511751,-0.079232,0.005896,0.829237,-0.008064,-0.013024,-0.019977,-0.079148,-0.005896,-0.996845,0.006074,-0.011621,-0.011303,-8.443507,-14.155508,-43.746662,,,,,,,
1558219223.531717,-0.078502,0.006179,0.828698,0.004867,0.033414,-0.022725,-0.078419,-0.006179,-0.996901,0.006505,-0.002122,-0.020173,-8.431915,-14.176002,-43.742260,,,,,,,
1558219223.551720,-0.076511,0.006529,0.828903,0.022882,0.034464,0.033884,-0.076435,-0.006529,-0.997053,0.017307,0.000761,-0.021227,-8.351458,-14.199654,-43.750023,,,,,,,
1558219223.571704,-0.075293,0.007318,0.830291,0.048283,0.007999,0.080619,-0.075220,-0.007318,-0.997140,0.008829,-0.002341,-0.012748,-8.283693,-14.222662,-43.755432,,,,,,,
1558219223.591689,-0.074976,0.009053,0.832073,0.051440,-0.002584,0.082656,-0.074902,-0.009053,-0.997150,-0.000720,-0.009868,-0.006283,-8.275091,-14.279389,-43.738583,,,,,,,
1558219223.611673,-0.075739,0.009850,0.833470,0.011942,-0.047864,0.058703,-0.075662,-0.009850,-0.997085,-0.002524,-0.010230,-0.005311,-8.301832,-14.312866,-43.722569,,,,,,,
1558219223.631658,-0.077070,0.009933,0.834373,-0.039140,-0.053970,0.037251,-0.076990,-0.009933,-0.996982,-0.005178,-0.008088,-0.007351,-8.353993,-14.341665,-43.703190,,,,,,,
1558219223.651643,-0.078212,0.009579,0.834422,-0.049552,-0.006426,-0.012482,-0.078128,-0.009579,-0.996897,-0.006085,-0.001911,-0.019308,-8.448920,-14.321561,-43.691536,,,,,,,
1558219223.671627,-0.077762,0.008770,0.834236,-0.024938,0.043156,0.009366,-0.077681,-0.008770,-0.996940,-0.006502,0.002468,-0.020516,-8.444733,-14.295311,-43.700939,,,,,,,
1558219223.691596,-0.076608,0.008635,0.835116,0.049618,0.078774,0.057810,-0.076531,-0.008635,-0.997030,-0.006126,0.010970,-0.018382,-8.428674,-14.266463,-43.713463,,,,,,,
1558219223.711595,-0.076234,0.009457,0.836499,0.054831,0.047038,0.060714,-0.076157,-0.009457,-0.997051,-0.017380,-0.000340,-0.001377,-8.384056,-14.287201,-43.715275,,,,,,,
1558219223.731568,-0.076323,0.010027,0.837042,0.012219,0.008056,-0.002684,-0.076245,-0.010026,-0.997039,-0.020114,-0.002532,-0.002473,-8.393183,-14.304804,-43.707767,,,,,,,
1558219223.751556,-0.077368,0.009898,0.836370,-0.002678,-0.009903,-0.046641,-0.077287,-0.009897,-0.996960,-0.016737,0.008967,0.001690,-8.426724,-14.326276,-43.694275,,,,,,,
1558219223.771549,-0.077907,0.009637,0.835575,0.005850,0.000641,-0.032654,-0.077824,-0.009637,-0.996921,-0.014964,0.014046,0.005084,-8.443382,-14.321004,-43.692787,,,,,,,
1558219223.791533,-0.077958,0.009596,0.835284,0.032546,0.036470,-0.010937,-0.077876,-0.009596,-0.996917,-0.021352,0.017851,0.000747,-8.453154,-14.312724,-43.693611,,,,,,,
1558219223.811500,-0.078225,0.009635,0.834914,0.036801,0.029021,-0.027019,-0.078141,-0.009635,-0.996896,-0.019363,0.016150,0.019753,-8.446489,-14.322224,-43.691788,,,,,,,
1558219223.831503,-0.078579,0.009269,0.834155,-0.028184,0.003960,-0.048664,-0.078495,-0.009268,-0.996871,-0.019756,0.016776,0.022567,-8.451694,-14.324280,-43.690109,,,,,,,
1558219223.851466,-0.079221,0.007616,0.832427,-0.099436,0.003204,-0.096772,-0.079136,-0.007616,-0.996835,-0.020015,0.008333,0.002252,-8.465694,-14.292569,-43.697781,,,,,,,
1558219223.871452,-0.080131,0.005297,0.830196,-0.101529,0.011658,-0.103098,-0.080044,-0.005297,-0.996777,-0.024524,0.006807,-0.014133,-8.469215,-14.170753,-43.736755,,,,,,,
1558219223.891457,-0.081167,0.003818,0.828236,-0.033467,-0.001368,-0.089289,-0.081077,-0.003818,-0.996701,-0.024453,0.007663,-0.018833,-8.486261,-14.101005,-43.755989,,,,,,,
1558219223.911410,-0.081806,0.003854,0.826522,0.012264,-0.012173,-0.085085,-0.081714,-0.003854,-0.996648,-0.020947,0.006723,-0.018916,-8.499593,-14.089787,-43.757019,,,,,,,
1558219223.931415,-0.083221,0.003434,0.824657,-0.035601,-0.007722,-0.101095,-0.083124,-0.003434,-0.996533,-0.020391,0.002992,-0.010120,-8.530773,-14.096253,-43.748863,,,,,,,
1558219223.951409,-0.083894,0.002169,0.822009,-0.096175,0.002039,-0.146959,-0.083795,-0.002169,-0.996481,-0.026693,-0.002165,-0.013117,-8.523687,-14.059165,-43.762177,,,,,,,
1558219223.971393,-0.084105,0.000382,0.818118,-0.107695,0.031602,-0.208609,-0.084006,-0.000382,-0.996465,-0.027352,-0.003555,-0.017771,-8.526743,-14.030336,-43.770832,,,,,,,
1558219223.991379,-0.083614,-0.001118,0.813577,-0.056503,0.054563,-0.223295,-0.083517,0.001118,-0.996506,-0.022593,0.012554,-0.024002,-8.418772,-13.958051,-43.814823,,,,,,,
1558219224.011332,-0.083229,-0.001948,0.809301,-0.044882,0.038680,-0.199949,-0.083133,0.001948,-0.996537,-0.021787,0.012899,-0.019851,-8.413986,-13.940834,-43.821224,,,,,,,
1558219224.031347,-0.083756,-0.003169,0.805170,-0.062930,0.047205,-0.214829,-0.083657,0.003169,-0.996490,-0.026954,0.006994,-0.011704,-8.324438,-13.907054,-43.849052,,,,,,,
1558219224.051332,-0.083769,-0.004324,0.800029,-0.077686,0.067281,-0.269099,-0.083670,0.004324,-0.996484,-0.027048,-0.000005,-0.016455,-8.241378,-13.867296,-43.877323,,,,,,,
1558219224.071298,-0.083726,-0.005833,0.793982,-0.082982,0.057732,-0.308697,-0.083627,0.005833,-0.996480,-0.025779,0.010052,-0.003673,-8.192636,-13.843841,-43.893856,,,,,,,
1558219224.091300,-0.084280,-0.007639,0.787825,-0.082084,0.013347,-0.296309,-0.084178,0.007639,-0.996421,-0.025395,0.015005,-0.002144,-8.114763,-13.797051,-43.923042,,,,,,,
1558219224.111286,-0.086122,-0.009110,0.781821,-0.050352,-0.047072,-0.295793,-0.086012,0.009110,-0.996252,-0.025988,0.013488,-0.010934,-8.072514,-13.741777,-43.948147,,,,,,,
1558219224.131266,-0.088274,-0.009741,0.775582,-0.019475,-0.054671,-0.318262,-0.088155,0.009740,-0.996059,-0.022868,0.013194,-0.015370,-8.093557,-13.723618,-43.949951,,,,,,,
1558219224.151255,-0.089645,-0.009825,0.769228,-0.025781,-0.029269,-0.316956,-0.089521,0.009825,-0.995937,-0.023349,0.010103,-0.017125,-8.085339,-13.735972,-43.947605,,,,,,,
1558219224.171238,-0.091250,-0.010327,0.762466,-0.049043,0.003565,-0.350825,-0.091118,0.010327,-0.995787,-0.036491,0.005268,-0.019610,-8.033270,-13.756217,-43.950821,,,,,,,
1558219224.191202,-0.093147,-0.011055,0.754480,-0.070283,-0.014407,-0.423614,-0.093007,0.011055,-0.995604,-0.044765,0.006050,-0.020967,-8.025978,-13.755874,-43.952259,,,,,,,
1558219224.211207,-0.094761,-0.012322,0.745435,-0.109759,-0.053350,-0.449642,-0.094612,0.012322,-0.995438,-0.039772,0.010429,-0.019378,-7.987904,-13.753992,-43.959782,,,,,,,
1558219224.231192,-0.096892,-0.013934,0.736024,-0.112960,-0.064995,-0.471108,-0.096731,0.013934,-0.995213,-0.041452,0.014783,-0.021419,-7.937453,-13.701180,-43.985409,,,,,,,
1558219224.251169,-0.099960,-0.015812,0.725883,-0.112841,-0.050277,-0.520079,-0.099781,0.015811,-0.994884,-0.059048,0.020337,-0.031178,-7.918140,-13.670805,-43.998337,,,,,,,
1558219224.271136,-0.100980,-0.016983,0.714397,-0.119101,-0.044006,-0.590488,-0.100794,0.016982,-0.994762,-0.065481,0.021592,-0.035572,-7.884829,-13.643868,-44.012676,,,,,,,
1558219224.291125,-0.102419,-0.017966,0.701787,-0.107446,-0.084313,-0.643180,-0.102224,0.017966,-0.994599,-0.104395,0.019998,-0.046477,-7.763555,-13.631937,-44.037930,,,,,,,
1558219224.311130,-0.105940,-0.018269,0.688199,-0.065076,-0.173410,-0.699516,-0.105724,0.018268,-0.994228,-0.123203,0.014051,-0.053410,-7.642918,-13.639486,-44.056686,,,,,,,
1558219224.331097,-0.109818,-0.017658,0.672779,-0.056369,-0.170464,-0.820126,-0.109580,0.017657,-0.993821,-0.128426,0.008634,-0.062774,-7.619742,-13.692037,-44.044403,,,,,,,
1558219224.351093,-0.111829,-0.017245,0.654340,-0.106748,-0.024567,-0.977849,-0.111579,0.017244,-0.993606,-0.109459,0.011442,-0.059815,-7.470446,-13.782733,-44.041687,,,,,,,
1558219224.371083,-0.111066,-0.018341,0.633717,-0.197844,0.091057,-1.023792,-0.110819,0.018340,-0.993671,-0.105444,0.014176,-0.056438,-7.254778,-13.804464,-44.070930,,,,,,,
1558219224.391051,-0.110574,-0.020021,0.613276,-0.176958,-0.017880,-0.993856,-0.110326,0.020020,-0.993694,-0.115122,0.010574,-0.064519,-6.902997,-13.773611,-44.137035,,,,,,,
1558219224.411029,-0.113566,-0.020998,0.594357,-0.127477,-0.177726,-0.978264,-0.113297,0.020996,-0.993339,-0.113784,0.042175,-0.063301,-6.647340,-13.744297,-44.185394,,,,,,,
1558219224.431036,-0.118884,-0.019950,0.572359,-0.047753,-0.288324,-1.145812,-0.118580,0.019949,-0.992744,-0.092876,0.007761,-0.061196,-6.567403,-13.775745,-44.187550,,,,,,,
1558219224.451020,-0.126973,-0.018541,0.548626,-0.106655,-0.423400,-1.204805,-0.126610,0.018540,-0.991779,-0.080985,0.001174,-0.084072,-6.523651,-13.878386,-44.161907,,,,,,,
1558219224.471006,-0.135887,-0.017780,0.524162,-0.116252,-0.434999,-1.219871,-0.135447,0.017779,-0.990625,-0.085591,-0.000720,-0.145422,-6.563108,-13.951680,-44.132954,,,,,,,
1558219224.490990,-0.145426,-0.016328,0.500554,-0.048181,-0.425758,-1.162075,-0.144894,0.016327,-0.989312,-0.062350,0.000625,-0.133048,-6.617450,-13.991971,-44.112083,,,,,,,
1558219224.510975,-0.154673,-0.011435,0.477654,0.141121,-0.485967,-1.176379,-0.154047,0.011434,-0.987997,-0.025381,0.014643,-0.115732,-6.668938,-14.127065,-44.061241,,,,,,,
1558219224.530959,-0.166108,-0.003395,0.454851,0.242914,-0.615486,-1.195688,-0.165344,0.003395,-0.986230,0.002289,-0.000618,-0.115500,-6.813132,-14.513875,-43.913216,,,,,,,
1558219224.550942,-0.180291,0.005161,0.432129,0.199802,-0.773800,-1.187629,-0.179313,-0.005161,-0.983778,0.027259,-0.004345,-0.120973,-6.978723,-14.796562,-43.792702,,,,,,,
1558219224.570926,-0.196972,0.012442,0.409986,0.124916,-0.864236,-1.138375,-0.195686,-0.012442,-0.980588,0.033989,-0.022867,-0.167606,-7.315382,-15.130493,-43.623333,,,,,,,
1558219224.590898,-0.213145,0.019241,0.388381,0.116663,-0.782758,-1.126934,-0.211496,-0.019240,-0.977190,0.025170,-0.019991,-0.196761,-7.804971,-15.474858,-43.417194,,,,,,,
1558219224.610880,-0.226371,0.027155,0.366794,0.172526,-0.638276,-1.150063,-0.224360,-0.027152,-0.974128,0.056193,-0.016473,-0.194466,-7.887363,-15.544329,-43.377472,,,,,,,
1558219224.630853,-0.238003,0.035972,0.345217,0.177841,-0.635115,-1.138284,-0.235610,-0.035965,-0.971182,0.086425,-0.009308,-0.193613,-8.202435,-16.030745,-43.141361,,,,,,,
1558219224.650836,-0.251503,0.044408,0.325159,0.162390,-0.756443,-1.039099,-0.248615,-0.044394,-0.967585,0.091602,-0.013132,-0.198721,-8.472683,-16.447371,-42.931797,,,,,,,
1558219224.670847,-0.265482,0.052899,0.306088,0.179590,-0.706860,-1.042881,-0.262008,-0.052875,-0.963616,0.100860,-0.014630,-0.204322,-8.549255,-16.526365,-42.886261,,,,,,,
1558219224.690836,-0.276109,0.062799,0.286459,0.230344,-0.509539,-1.092199,-0.272076,-0.062758,-0.960227,0.130933,-0.002504,-0.192178,-8.936326,-17.029593,-42.609581,,,,,,,
1558219224.710803,-0.285010,0.073241,0.267743,0.251330,-0.557069,-0.994414,-0.280414,-0.073175,-0.957086,0.158450,-0.001105,-0.210913,-9.016138,-17.519335,-42.393677,,,,,,,
1558219224.730804,-0.296821,0.084008,0.252033,0.328450,-0.676725,-0.865244,-0.291450,-0.083909,-0.952899,0.160667,0.010438,-0.189725,-9.147143,-17.815939,-42.241730,,,,,,,
1558219224.750788,-0.308273,0.096967,0.237627,0.450030,-0.623509,-0.900938,-0.301988,-0.096815,-0.948383,0.190950,0.008680,-0.172024,-9.391502,-18.267317,-41.994602,,,,,,,
1558219224.770773,-0.318880,0.112632,0.223130,0.563012,-0.591376,-0.928299,-0.311516,-0.112394,-0.943570,0.206200,0.023649,-0.154360,-9.611469,-18.985508,-41.624653,,,,,,,
1558219224.790758,-0.328873,0.129716,0.210970,0.653373,-0.560980,-0.781668,-0.320263,-0.129352,-0.938456,0.215588,0.041431,-0.159826,-9.752668,-19.649487,-41.282257,,,,,,,
1558219224.810742,-0.337605,0.147873,0.202862,0.769536,-0.449317,-0.626765,-0.327613,-0.147334,-0.933254,0.223670,0.052654,-0.131123,-9.863399,-20.178749,-40.999672,,,,,,,
1558219224.830725,-0.345252,0.166802,0.196941,0.794027,-0.428245,-0.585973,-0.333737,-0.166030,-0.927930,0.242596,0.050582,-0.120334,-9.997696,-21.124348,-40.487648,,,,,,,
1558219224.850711,-0.353835,0.184942,0.191433,0.739367,-0.521969,-0.544208,-0.340589,-0.183889,-0.922054,0.251158,0.046362,-0.119145,-10.115822,-21.862835,-40.064049,,,,,,,
1558219224.870667,-0.363653,0.202290,0.187195,0.760548,-0.518792,-0.465155,-0.348438,-0.200913,-0.915546,0.256122,0.052475,-0.114483,-10.259207,-22.382080,-39.739559,,,,,,,
1558219224.890674,-0.371833,0.221197,0.186412,0.945106,-0.332462,-0.324430,-0.354472,-0.219397,-0.908964,0.276545,0.064612,-0.085376,-10.486607,-23.286993,-39.155956,,,,,,,
1558219224.910664,-0.377216,0.242408,0.189195,1.069893,-0.215649,-0.230326,-0.357565,-0.240041,-0.902512,0.276938,0.068913,-0.097961,-10.558535,-24.129086,-38.623131,,,,,,,
