timestamp(unix),attitude_roll(radians),attitude_pitch(radians),attitude_yaw(radians),rotation_rate_x(radians/s),rotation_rate_y(radians/s),rotation_rate_z(radians/s),gravity_x(G),gravity_y(G),gravity_z(G),user_acc_x(G),user_acc_y(G),user_acc_z(G),magnetic_field_x(microteslas),magnetic_field_y(microteslas),magnetic_field_z(microteslas),latitude(degree),longitude(degree),altitude(meter),speed(m/s),course(degree),timestamp(unix),User Mark
1558219168.723333,0.006964,0.060886,0.170630,0.278676,-0.681351,0.003039,0.006951,-0.060848,-0.998123,0.006919,0.006741,0.020797,5.145968,-16.457451,-45.080910,,,,,,,
1558219168.743336,-0.005543,0.064956,0.170942,0.171445,-0.578200,0.041308,-0.005531,-0.064910,-0.997876,0.023232,0.009475,0.009991,4.547062,-16.669851,-45.067253,,,,,,,
1558219168.763313,-0.014517,0.066391,0.172335,0.005002,-0.355302,0.075337,-0.014484,-0.066342,-0.997692,0.014133,0.012235,-0.004109,4.300539,-16.737373,-45.066425,,,,,,,
1558219168.783289,-0.018848,0.064237,0.173668,-0.142120,-0.107214,0.058376,-0.018808,-0.064193,-0.997760,-0.006278,0.007049,-0.002148,3.824439,-16.726301,-45.113430,,,,,,,
1558219168.803289,-0.018433,0.060934,0.174698,-0.167041,0.084238,0.060189,-0.018398,-0.060896,-0.997975,-0.009190,0.004927,-0.004711,3.776062,-16.577877,-45.172253,,,,,,,
1558219168.823271,-0.016205,0.057897,0.176354,-0.136152,0.106326,0.095657,-0.016177,-0.057865,-0.998193,-0.008848,0.002918,-0.000296,3.830310,-16.471952,-45.206425,,,,,,,
1558219168.843237,-0.015366,0.055961,0.177748,-0.107569,0.033161,0.041597,-0.015341,-0.055932,-0.998317,-0.008340,-0.016013,-0.012532,3.887073,-16.336966,-45.250542,,,,,,,
1558219168.863225,-0.014344,0.053547,0.177137,-0.140263,0.075448,-0.069060,-0.014323,-0.053521,-0.998464,-0.015005,-0.012015,-0.017497,3.916864,-16.251974,-45.278568,,,,,,,
1558219168.883217,-0.011512,0.049650,0.174903,-0.230362,0.167803,-0.121630,-0.011497,-0.049630,-0.998702,0.000282,-0.005180,-0.018587,3.969989,-16.180794,-45.299427,,,,,,,
1558219168.903193,-0.006638,0.043973,0.173332,-0.306758,0.283551,-0.033037,-0.006632,-0.043959,-0.999011,-0.001196,0.009230,-0.045270,4.272802,-15.837906,-45.392960,,,,,,,
1558219168.923178,-0.000572,0.038392,0.174273,-0.247195,0.325703,0.091262,-0.000571,-0.038383,-0.999263,-0.010446,0.003562,-0.050420,4.470860,-15.633030,-45.444878,,,,,,,
1558219168.943153,0.005868,0.035195,0.175743,-0.101386,0.296327,0.044121,0.005865,-0.035188,-0.999363,0.007639,-0.000762,-0.042903,4.743437,-15.432418,-45.485794,,,,,,,
1558219168.963161,0.011030,0.035021,0.175543,0.005971,0.213201,-0.033460,0.011023,-0.035013,-0.999326,0.001551,-0.009512,-0.017733,5.061445,-15.370427,-45.472507,,,,,,,
1558219168.983146,0.013987,0.034788,0.174495,-0.031601,0.103423,-0.064435,0.013978,-0.034781,-0.999297,-0.001267,-0.010584,-0.004487,5.198930,-15.369101,-45.457443,,,,,,,
1558219169.003129,0.014843,0.033374,0.172926,-0.088317,0.002213,-0.087870,0.014834,-0.033368,-0.999333,0.008420,-0.007831,0.004964,5.302413,-15.326069,-45.460014,,,,,,,
1558219169.023114,0.014250,0.031585,0.171208,-0.106650,-0.067444,-0.082145,0.014243,-0.031580,-0.999400,0.006891,-0.003363,-0.009344,5.328340,-15.220774,-45.492348,,,,,,,
1558219169.043088,0.012531,0.029395,0.169724,-0.101413,-0.089657,-0.073813,0.012525,-0.029391,-0.999490,0.010241,-0.004392,-0.013480,5.292088,-15.139799,-45.523594,,,,,,,
1558219169.063083,0.011864,0.027808,0.168549,-0.054397,-0.021152,-0.043225,0.011859,-0.027804,-0.999543,0.008694,0.002459,-0.015945,5.254019,-15.039713,-45.561161,,,,,,,
1558219169.083066,0.012581,0.027241,0.168453,0.004171,0.012455,0.015864,0.012576,-0.027238,-0.999550,0.009885,0.001618,-0.017220,5.265505,-14.985110,-45.577824,,,,,,,
1558219169.103029,0.012580,0.027874,0.168893,0.019996,-0.030966,0.015461,0.012575,-0.027871,-0.999532,0.001631,-0.005500,-0.012583,5.282082,-15.001735,-45.570435,,,,,,,
1558219169.123035,0.011828,0.027752,0.168516,-0.040586,-0.028618,-0.041151,0.011823,-0.027749,-0.999545,0.001071,-0.007865,-0.012204,5.265803,-15.016028,-45.567612,,,,,,,
1558219169.143019,0.012100,0.026475,0.167583,-0.075540,0.024417,-0.040671,0.012095,-0.026472,-0.999576,0.004521,0.003172,-0.014111,5.257241,-14.967997,-45.584400,,,,,,,
1558219169.162980,0.012962,0.025245,0.167263,-0.034108,0.017918,-0.000130,0.012957,-0.025242,-0.999597,0.012342,0.005345,-0.008169,5.311941,-14.894351,-45.602180,,,,,,,
1558219169.182987,0.013084,0.024894,0.167990,0.000834,-0.011774,0.058334,0.013080,-0.024891,-0.999605,0.007932,0.005116,-0.005034,5.315962,-14.881821,-45.605801,,,,,,,
1558219169.202971,0.012641,0.024920,0.169078,-0.002431,-0.040318,0.043111,0.012637,-0.024917,-0.999610,0.001813,-0.003678,-0.001230,5.286813,-14.874763,-45.611492,,,,,,,
1558219169.222947,0.011879,0.025221,0.169911,0.018877,-0.033025,0.047469,0.011875,-0.025218,-0.999611,-0.000004,-0.000447,-0.010200,5.241344,-14.892406,-45.610981,,,,,,,
1558219169.242939,0.011266,0.026886,0.171147,0.133829,-0.027256,0.067901,0.011261,-0.026883,-0.999575,0.000473,0.001889,-0.016721,5.219209,-14.908024,-45.608418,,,,,,,
1558219169.262896,0.011385,0.030699,0.172669,0.229765,0.025130,0.094103,0.011379,-0.030694,-0.999464,0.005864,0.008218,-0.012712,5.180490,-15.016069,-45.577374,,,,,,,
1558219169.282908,0.013728,0.034260,0.175574,0.204717,0.212464,0.169543,0.013719,-0.034254,-0.999319,0.002440,0.015501,0.006521,5.194798,-15.304071,-45.479847,,,,,,,
1558219169.302864,0.018155,0.037747,0.179348,0.177868,0.155576,0.202074,0.018141,-0.037738,-0.999123,0.011659,0.012118,0.020836,5.194798,-15.304071,-45.479847,,,,,,,
1558219169.322871,0.019356,0.041527,0.184083,0.240189,0.039074,0.267203,0.019338,-0.041515,-0.998951,-0.007360,0.013805,0.022632,5.398772,-15.547218,-45.373497,,,,,,,
1558219169.342841,0.018587,0.047875,0.189657,0.314782,0.067231,0.277141,0.018565,-0.047857,-0.998682,-0.010096,-0.010065,-0.029959,5.275274,-15.929270,-45.255352,,,,,,,
1558219169.362831,0.020776,0.055179,0.193983,0.366285,0.150332,0.188295,0.020743,-0.055151,-0.998263,0.001413,-0.007425,-0.029005,5.275274,-15.929270,-45.255352,,,,,,,
1558219169.382827,0.024281,0.062911,0.197968,0.391907,0.197845,0.243220,0.024231,-0.062869,-0.997728,0.004074,0.015033,-0.015090,5.369543,-16.639505,-44.987911,,,,,,,
1558219169.402813,0.028782,0.071302,0.203649,0.412242,0.262317,0.311116,0.028705,-0.071241,-0.997046,0.000866,0.017515,-0.001550,5.480863,-17.034979,-44.826183,,,,,,,
1558219169.422767,0.033555,0.078003,0.209430,0.251523,0.254662,0.282087,0.033447,-0.077924,-0.996398,-0.009323,-0.012408,0.009292,5.578735,-17.319519,-44.704914,,,,,,,
1558219169.442774,0.038242,0.079947,0.215393,-0.007191,0.258191,0.319281,0.038111,-0.079862,-0.996077,-0.001124,-0.018817,-0.003801,5.737747,-17.564417,-44.589088,,,,,,,
1558219169.462765,0.042658,0.079455,0.221014,-0.128467,0.234369,0.219665,0.042510,-0.079372,-0.995938,-0.000045,-0.046956,-0.001727,5.852809,-17.537199,-44.584843,,,,,,,
1558219169.482734,0.048335,0.077069,0.223527,-0.116145,0.357769,0.082062,0.048173,-0.076992,-0.995867,-0.007599,0.011639,-0.007734,5.978647,-17.523388,-44.573578,,,,,,,
1558219169.502705,0.057445,0.074889,0.226003,-0.074247,0.506692,0.151850,0.057252,-0.074819,-0.995552,0.004836,0.018941,-0.017235,6.371816,-17.422264,-44.558746,,,,,,,
1558219169.522718,0.067146,0.074542,0.230032,-0.004242,0.462032,0.220875,0.066909,-0.074473,-0.994976,0.010331,-0.009420,-0.004795,6.771668,-17.380949,-44.515888,,,,,,,
1558219169.542702,0.073535,0.075091,0.233923,0.031340,0.250357,0.163360,0.073262,-0.075021,-0.994487,0.001735,-0.017478,-0.001652,6.990260,-17.403511,-44.473263,,,,,,,
1558219169.562672,0.076101,0.077601,0.235388,0.077861,0.083950,0.017658,0.075799,-0.077523,-0.994105,-0.005410,-0.000037,-0.012884,7.157401,-17.527159,-44.398056,,,,,,,
1558219169.582669,0.076582,0.078682,0.233592,0.042751,0.028971,-0.115284,0.076271,-0.078601,-0.993984,0.003197,-0.019315,-0.004795,7.191422,-17.572992,-44.374435,,,,,,,
1558219169.602637,0.077682,0.078476,0.231400,-0.007131,0.078927,-0.105237,0.077365,-0.078395,-0.993916,-0.010684,0.004665,-0.012310,7.262422,-17.586605,-44.357475,,,,,,,
1558219169.622638,0.079544,0.078727,0.229556,0.051370,0.078664,-0.075299,0.079214,-0.078645,-0.993750,-0.013327,0.016908,-0.024606,7.383236,-17.564661,-44.346222,,,,,,,
1558219169.642621,0.081069,0.081375,0.228729,0.160726,0.029590,0.007595,0.080712,-0.081285,-0.993418,0.002647,0.018266,0.012171,7.455798,-17.618929,-44.312542,,,,,,,
1558219169.662606,0.079813,0.084423,0.229965,0.122899,-0.102202,0.098121,0.079444,-0.084323,-0.993267,0.005792,0.010943,-0.030995,7.465907,-17.765053,-44.252460,,,,,,,
1558219169.682591,0.078781,0.086043,0.231403,0.089476,0.070191,0.048497,0.078408,-0.085937,-0.993210,-0.006494,0.008163,-0.026763,7.337263,-17.899441,-44.219810,,,,,,,
1558219169.702561,0.083209,0.086639,0.230899,-0.014131,0.243945,-0.046011,0.082801,-0.086531,-0.992802,0.017068,-0.002703,0.008626,7.412567,-17.937374,-44.191875,,,,,,,
1558219169.722558,0.086956,0.083160,0.230613,-0.238284,0.078181,-0.002936,0.086546,-0.083064,-0.992779,0.015413,0.015254,0.028759,7.664728,-17.869795,-44.176231,,,,,,,
1558219169.742543,0.086195,0.076708,0.231863,-0.354905,-0.077565,0.049929,0.085836,-0.076633,-0.993358,-0.010625,-0.011151,0.010646,7.694363,-17.568300,-44.291859,,,,,,,
1558219169.762498,0.082959,0.071409,0.233165,-0.200847,-0.178831,0.023460,0.082653,-0.071348,-0.994021,0.001011,-0.011599,-0.019956,7.599690,-17.360836,-44.389900,,,,,,,
1558219169.782510,0.079431,0.071126,0.233179,0.102594,-0.175193,-0.011495,0.079146,-0.071066,-0.994327,0.006303,0.005988,-0.013257,7.476751,-17.232414,-44.460762,,,,,,,
1558219169.802495,0.077123,0.073979,0.232485,0.149595,-0.127881,-0.017410,0.076836,-0.073912,-0.994300,0.012993,0.005324,0.003334,7.274755,-17.345142,-44.450436,,,,,,,
1558219169.822449,0.076633,0.073962,0.232491,-0.047125,-0.044336,0.023802,0.076349,-0.073894,-0.994339,0.012488,0.007366,0.003784,7.239096,-17.389885,-44.438774,,,,,,,
1558219169.842463,0.076469,0.070746,0.233800,-0.204594,0.000961,0.073221,0.076203,-0.070687,-0.994584,0.006454,0.002312,-0.002853,7.226724,-17.318439,-44.468674,,,,,,,
1558219169.862448,0.076363,0.067160,0.236217,-0.167501,-0.026644,0.122098,0.076116,-0.067109,-0.994838,0.000071,-0.005263,-0.001561,7.223084,-17.188011,-44.519844,,,,,,,
1558219169.882402,0.073021,0.066626,0.238653,-0.063581,-0.163594,0.090977,0.072795,-0.066577,-0.995122,-0.014979,-0.018857,0.006948,7.068640,-17.053255,-44.596390,,,,,,,
1558219169.902415,0.068392,0.067139,0.239654,0.033198,-0.220220,0.027521,0.068185,-0.067089,-0.995414,-0.010751,-0.019871,0.004570,6.905429,-17.056473,-44.620724,,,,,,,
1558219169.922399,0.064458,0.069128,0.239957,0.096217,-0.157137,0.023905,0.064260,-0.069073,-0.995540,-0.000982,-0.001194,0.009349,6.727714,-17.117519,-44.624493,,,,,,,
1558219169.942384,0.062072,0.070509,0.240715,0.002645,-0.115386,0.047718,0.061878,-0.070451,-0.995594,-0.002384,-0.003585,0.014103,6.516309,-17.239563,-44.608883,,,,,,,
1558219169.962345,0.059797,0.068792,0.241617,-0.146285,-0.094549,0.028580,0.059620,-0.068738,-0.995852,-0.004765,-0.005329,0.012316,6.455061,-17.240051,-44.617599,,,,,,,
1558219169.982325,0.058023,0.065580,0.242046,-0.176908,-0.034188,-0.002896,0.057866,-0.065533,-0.996171,-0.009404,-0.008854,-0.010009,6.311646,-17.059200,-44.707539,,,,,,,
1558219170.002336,0.057683,0.063682,0.241956,-0.041618,-0.006369,-0.008927,0.057534,-0.063639,-0.996313,-0.006844,-0.005636,-0.010782,6.286156,-16.967648,-44.745953,,,,,,,
1558219170.022316,0.057311,0.064319,0.242054,0.047700,-0.025830,0.014447,0.057161,-0.064275,-0.996294,0.003249,0.000356,0.009004,6.270713,-16.951878,-44.754097,,,,,,,
1558219170.042288,0.056544,0.064104,0.242760,-0.057762,-0.035802,0.044161,0.056398,-0.064060,-0.996351,0.000304,0.004627,0.004484,6.228997,-16.982517,-44.748306,,,,,,,
1558219170.062288,0.055690,0.061254,0.243869,-0.178077,-0.043625,0.045057,0.055557,-0.061216,-0.996577,-0.001205,0.004193,-0.005117,6.191690,-16.919994,-44.777157,,,,,,,
1558219170.082252,0.054608,0.056801,0.244778,-0.233434,-0.053935,0.024629,0.054492,-0.056771,-0.996899,-0.002307,0.006600,-0.020481,6.134631,-16.744516,-44.850914,,,,,,,
1558219170.102229,0.053218,0.051713,0.245007,-0.225888,-0.044528,-0.019049,0.053121,-0.051690,-0.997249,-0.007284,0.006630,-0.039616,6.063736,-16.476543,-44.959667,,,,,,,
1558219170.122241,0.052349,0.047603,0.244521,-0.170406,-0.013137,-0.036854,0.052266,-0.047585,-0.997499,-0.012669,0.006249,-0.049102,6.033596,-16.318388,-45.021362,,,,,,,
1558219170.142225,0.052436,0.045400,0.244378,-0.070342,0.007543,0.007197,0.052358,-0.045385,-0.997597,-0.012746,0.008641,-0.045357,6.021031,-16.164228,-45.078617,,,,,,,
1558219170.162208,0.051656,0.044959,0.245066,0.017709,-0.066857,0.043923,0.051581,-0.044944,-0.997657,0.004953,0.001334,-0.027581,5.998544,-16.103994,-45.103172,,,,,,,
1558219170.182193,0.050063,0.045430,0.245720,0.015644,-0.056306,0.023737,0.049991,-0.045415,-0.997717,-0.004245,0.002553,-0.021464,5.937848,-16.125408,-45.103550,,,,,,,
1558219170.202158,0.048846,0.044917,0.245637,-0.048020,-0.020121,-0.033620,0.048777,-0.044902,-0.997800,-0.007823,-0.000279,-0.015262,5.861744,-16.130716,-45.111607,,,,,,,
1558219170.222132,0.048703,0.043608,0.244477,-0.058518,0.010541,-0.064297,0.048637,-0.043595,-0.997865,-0.002327,0.001312,-0.022445,5.852111,-16.063766,-45.136742,,,,,,,
1558219170.242127,0.049052,0.042546,0.243703,-0.010712,0.001899,-0.020568,0.048988,-0.042533,-0.997893,0.006310,0.006904,-0.028749,5.856041,-16.045897,-45.142586,,,,,,,
1558219170.262123,0.048829,0.042734,0.243833,0.041336,-0.014173,0.017755,0.048765,-0.042721,-0.997896,0.001009,0.004879,-0.026609,5.880779,-15.993175,-45.158077,,,,,,,
1558219170.282099,0.048628,0.043772,0.243894,0.058439,-0.000549,-0.000251,0.048562,-0.043758,-0.997861,0.000373,0.001155,-0.018405,5.861328,-16.039715,-45.144096,,,,,,,
1558219170.302077,0.048914,0.044456,0.243852,0.030839,0.021790,-0.002195,0.048847,-0.044441,-0.997817,0.002087,0.001518,-0.008271,5.860710,-16.051182,-45.140102,,,,,,,
1558219170.322082,0.049231,0.044861,0.243567,-0.000043,0.009240,-0.021557,0.049162,-0.044846,-0.997784,-0.001707,-0.006821,-0.002400,5.885363,-16.092573,-45.122154,,,,,,,
1558219170.342066,0.049152,0.044729,0.243050,-0.006534,-0.023497,-0.024011,0.049083,-0.044714,-0.997793,0.002584,-0.001642,-0.007044,5.896722,-16.092415,-45.120728,,,,,,,
1558219170.362034,0.048485,0.044867,0.242825,0.025326,-0.037377,-0.004901,0.048417,-0.044852,-0.997820,-0.000032,0.001227,-0.010969,5.895463,-16.091501,-45.121216,,,,,,,
1558219170.382036,0.047731,0.045884,0.242733,0.065822,-0.024911,-0.007952,0.047662,-0.045868,-0.997810,-0.002603,0.001083,-0.010338,5.849536,-16.115892,-45.118492,,,,,,,
1558219170.402019,0.047540,0.046906,0.242146,0.030805,-0.003629,-0.035535,0.047470,-0.046889,-0.997772,-0.000610,-0.000718,-0.001191,5.832365,-16.180225,-45.097683,,,,,,,
1558219170.422004,0.047399,0.046497,0.241508,-0.033119,-0.015963,-0.026096,0.047330,-0.046480,-0.997797,0.002703,0.003969,-0.012396,5.836197,-16.178528,-45.097797,,,,,,,
1558219170.441988,0.046936,0.046093,0.241094,0.005158,-0.026726,-0.020830,0.046869,-0.046076,-0.997838,-0.001565,0.002848,-0.014796,5.836197,-16.178528,-45.097797,,,,,,,
1558219170.461972,0.046190,0.046534,0.240680,0.032798,-0.036381,-0.017698,0.046124,-0.046517,-0.997852,-0.000561,0.001977,-0.013562,5.814744,-16.146265,-45.112125,,,,,,,
1558219170.481956,0.045546,0.046651,0.240527,0.000843,-0.035132,-0.001697,0.045481,-0.046634,-0.997876,0.000860,0.002917,-0.001727,5.773903,-16.171907,-45.108185,,,,,,,
1558219170.501930,0.045144,0.046249,0.240672,-0.028903,-0.011705,0.009180,0.045080,-0.046233,-0.997913,0.000620,0.002044,-0.001294,5.753889,-16.164669,-45.113342,,,,,,,
1558219170.521896,0.044493,0.045381,0.240758,-0.073593,-0.014670,-0.009034,0.044432,-0.045366,-0.997982,-0.011138,-0.004683,-0.003300,5.729698,-16.125757,-45.130341,,,,,,,
1558219170.541908,0.044121,0.043549,0.240359,-0.091639,-0.009323,-0.030350,0.044065,-0.043536,-0.998080,-0.005491,-0.000974,-0.007948,5.712119,-16.049440,-45.159763,,,,,,,
1558219170.561867,0.043961,0.042415,0.240035,-0.032051,-0.006433,-0.008922,0.043907,-0.042402,-0.998135,0.002251,0.001356,-0.011462,5.706052,-15.994864,-45.179890,,,,,,,
1558219170.581873,0.043874,0.042422,0.239814,0.014843,0.003884,-0.017344,0.043820,-0.042410,-0.998139,-0.000897,-0.001414,0.000702,5.704142,-15.972055,-45.188198,,,,,,,
1558219170.601853,0.044051,0.042368,0.239340,-0.024539,0.001966,-0.024867,0.043997,-0.042356,-0.998133,0.000788,0.000211,0.002207,5.712347,-15.979094,-45.184673,,,,,,,
1558219170.621834,0.044039,0.040776,0.238942,-0.112925,-0.008138,-0.023967,0.043988,-0.040765,-0.998200,-0.000836,0.000527,0.002686,5.723896,-15.944187,-45.195541,,,,,,,
1558219170.641830,0.043795,0.037792,0.238353,-0.159739,-0.010037,-0.044308,0.043750,-0.037783,-0.998328,-0.000369,-0.002454,-0.014566,5.724233,-15.795448,-45.247696,,,,,,,
1558219170.661814,0.043806,0.035077,0.237343,-0.109643,0.003420,-0.058019,0.043765,-0.035070,-0.998426,0.001218,-0.004740,-0.024813,5.730948,-15.687397,-45.284424,,,,,,,
1558219170.681770,0.044179,0.034313,0.236660,0.010579,0.001791,-0.018435,0.044139,-0.034306,-0.998436,0.007283,0.001317,-0.024345,5.760696,-15.597822,-45.311581,,,,,,,
1558219170.701777,0.043803,0.035582,0.236837,0.088055,-0.047169,0.028135,0.043761,-0.035574,-0.998408,0.003709,0.000586,-0.013432,5.757545,-15.632768,-45.299938,,,,,,,
1558219170.721766,0.042414,0.037658,0.237681,0.096449,-0.074664,0.049231,0.042371,-0.037650,-0.998392,-0.000318,-0.004007,-0.012365,5.713731,-15.699256,-45.282490,,,,,,,
1558219170.741737,0.040902,0.039646,0.237932,0.072108,-0.059831,-0.012570,0.040859,-0.039635,-0.998378,-0.003978,-0.011375,-0.011112,5.627086,-15.806655,-45.255970,,,,,,,
1558219170.761712,0.040154,0.040409,0.236624,-0.014863,-0.001361,-0.094289,0.040111,-0.040398,-0.998378,-0.006541,-0.004539,-0.002553,5.581963,-15.873035,-45.238319,,,,,,,
1558219170.781719,0.040935,0.038828,0.234577,-0.107315,0.044569,-0.099262,0.040893,-0.038818,-0.998409,0.000260,-0.001862,-0.004368,5.610384,-15.841305,-45.245926,,,,,,,
1558219170.801703,0.041752,0.036211,0.233473,-0.123465,0.019384,-0.033322,0.041712,-0.036204,-0.998474,0.005620,0.001886,-0.013749,5.683564,-15.727807,-45.276379,,,,,,,
1558219170.821688,0.041864,0.034085,0.233384,-0.076769,-0.008295,-0.000452,0.041827,-0.034078,-0.998544,0.002667,-0.001414,-0.043067,5.710080,-15.589567,-45.320831,,,,,,,
1558219170.841671,0.042061,0.033850,0.233461,0.036139,0.016488,0.005214,0.042024,-0.033843,-0.998543,0.002104,0.000945,-0.045829,5.709891,-15.554200,-45.333000,,,,,,,
1558219170.861656,0.042262,0.035507,0.233418,0.099978,0.001335,-0.007692,0.042223,-0.035500,-0.998477,0.001387,0.002434,-0.038876,5.722333,-15.592256,-45.318359,,,,,,,
1558219170.881638,0.041632,0.036965,0.232572,0.038112,-0.057600,-0.053147,0.041591,-0.036957,-0.998451,0.002659,-0.003235,-0.020272,5.715342,-15.689776,-45.285572,,,,,,,
1558219170.901595,0.040649,0.035971,0.231555,-0.080101,-0.069648,-0.043749,0.040611,-0.035963,-0.998528,0.010582,0.007124,-0.027183,5.681212,-15.678701,-45.293701,,,,,,,
1558219170.921594,0.039790,0.032850,0.231402,-0.180145,-0.042626,0.003406,0.039758,-0.032844,-0.998669,0.008247,0.003867,-0.046558,5.665748,-15.624260,-45.314445,,,,,,,
1558219170.941565,0.038912,0.028722,0.231525,-0.199337,-0.060523,-0.015998,0.038887,-0.028718,-0.998831,0.002587,0.005708,-0.073679,5.617500,-15.374504,-45.405785,,,,,,,
1558219170.961564,0.037941,0.023951,0.230921,-0.259857,-0.031726,-0.056342,0.037921,-0.023948,-0.998994,0.006436,-0.005440,-0.054046,5.604519,-15.320224,-45.425732,,,,,,,
1558219170.981544,0.037345,0.017299,0.229368,-0.342938,-0.064112,-0.094086,0.037331,-0.017298,-0.999153,0.012444,0.006754,-0.060676,5.573829,-14.956354,-45.550598,,,,,,,
1558219171.001521,0.035864,0.009163,0.228374,-0.410192,-0.101721,-0.040071,0.035854,-0.009163,-0.999315,0.011967,0.002663,-0.076262,5.534153,-14.512218,-45.698860,,,,,,,
1558219171.021529,0.033720,0.002245,0.228835,-0.282676,-0.132925,0.039806,0.033713,-0.002245,-0.999429,0.017694,-0.006804,-0.085913,5.520514,-14.413145,-45.731853,,,,,,,
1558219171.041514,0.031064,-0.000554,0.230216,-0.071948,-0.129754,0.073102,0.031059,0.000554,-0.999517,0.008232,-0.005422,-0.076532,5.349097,-14.011819,-45.876717,,,,,,,
1558219171.061499,0.027831,-0.001420,0.231724,-0.062541,-0.183716,0.070458,0.027828,0.001420,-0.999612,-0.005885,-0.005860,-0.075965,5.166162,-13.946522,-45.917561,,,,,,,
1558219171.081482,0.022154,-0.003334,0.232611,-0.147019,-0.321811,0.024227,0.022152,0.003334,-0.999749,-0.010280,-0.020500,-0.078849,4.925774,-13.869805,-45.967190,,,,,,,
1558219171.101466,0.014577,-0.006087,0.233148,-0.158996,-0.403136,0.025574,0.014576,0.006087,-0.999875,0.006161,-0.023391,-0.081775,4.667894,-13.783750,-46.019955,,,,,,,
1558219171.121450,0.007077,-0.008398,0.234148,-0.137639,-0.361955,0.071894,0.007077,0.008398,-0.999940,0.017230,-0.016164,-0.079849,4.391825,-13.711466,-46.068695,,,,,,,
1558219171.141435,0.001048,-0.010744,0.236877,-0.145875,-0.228571,0.178862,0.001048,0.010743,-0.999942,-0.020335,-0.011369,-0.085187,3.889652,-13.549562,-46.161640,,,,,,,
1558219171.161417,-0.001369,-0.013882,0.240710,-0.166632,-0.076235,0.179204,-0.001369,0.013881,-0.999903,-0.031911,-0.016384,-0.083105,3.707071,-13.466816,-46.200863,,,,,,,
1558219171.181386,-0.004189,-0.016963,0.243614,-0.164736,-0.168276,0.133484,-0.004188,0.016963,-0.999847,-0.034142,-0.017390,-0.069000,3.551231,-13.285131,-46.265656,,,,,,,
1558219171.201388,-0.010473,-0.019342,0.246154,-0.085647,-0.397011,0.130290,-0.010471,0.019340,-0.999758,-0.027219,-0.023155,-0.078107,3.243274,-13.183543,-46.317303,,,,,,,
1558219171.221351,-0.019261,-0.019562,0.249000,0.036573,-0.448364,0.148046,-0.019257,0.019561,-0.999623,-0.027557,-0.025313,-0.075893,2.923131,-13.151455,-46.347725,,,,,,,
1558219171.241328,-0.027358,-0.018365,0.251543,0.063502,-0.371408,0.105031,-0.027350,0.018364,-0.999457,-0.033685,-0.013725,-0.079415,2.377643,-13.214404,-46.361012,,,,,,,
1558219171.261341,-0.032233,-0.017566,0.252900,-0.007966,-0.115310,0.056178,-0.032223,0.017565,-0.999326,-0.019581,-0.009066,-0.064669,2.138377,-13.255932,-46.360809,,,,,,,
1558219171.281313,-0.031712,-0.020396,0.254635,-0.218190,0.083565,0.129445,-0.031701,0.020395,-0.999289,-0.033317,-0.012887,-0.062768,2.021682,-13.234457,-46.372181,,,,,,,
1558219171.301295,-0.029844,-0.026204,0.258006,-0.294965,0.070314,0.187977,-0.029830,0.026201,-0.999212,-0.038224,-0.020967,-0.062175,2.071127,-12.956327,-46.448479,,,,,,,
1558219171.321279,-0.030216,-0.029488,0.260811,-0.098122,0.004672,0.103163,-0.030199,0.029483,-0.999109,-0.039992,-0.020633,-0.054236,2.072351,-12.780354,-46.497150,,,,,,,
1558219171.341278,-0.032608,-0.027676,0.261172,0.179488,-0.118527,-0.018438,-0.032590,0.027672,-0.999086,-0.036075,-0.011498,-0.083586,1.950491,-12.766733,-46.506161,,,,,,,
1558219171.361261,-0.036499,-0.020076,0.260570,0.422147,-0.144156,-0.044113,-0.036484,0.020075,-0.999133,-0.015091,-0.006174,-0.045301,1.779903,-13.074183,-46.427521,,,,,,,
1558219171.381242,-0.038758,-0.010896,0.260005,0.445788,-0.075573,-0.042370,-0.038746,0.010896,-0.999190,-0.009228,0.007629,-0.023622,1.682872,-13.397185,-46.338974,,,,,,,
1558219171.401230,-0.040123,-0.004449,0.260103,0.252103,-0.035368,0.011242,-0.040112,0.004449,-0.999185,-0.018604,0.012168,-0.017798,1.597178,-13.773712,-46.231491,,,,,,,
1558219171.421215,-0.042009,-0.001913,0.260519,0.065473,-0.136906,0.018662,-0.041997,0.001913,-0.999116,0.004399,-0.015707,-0.026092,1.521096,-14.006010,-46.164219,,,,,,,
1558219171.441193,-0.045413,-0.000998,0.260606,0.036550,-0.208684,-0.017281,-0.045397,0.000998,-0.998969,0.010027,-0.009681,-0.036172,1.363302,-14.042372,-46.158100,,,,,,,
1558219171.461183,-0.047868,0.000626,0.258891,0.094597,-0.081235,-0.114238,-0.047850,-0.000626,-0.998854,0.035994,0.000564,-0.029756,1.266336,-14.093085,-46.145405,,,,,,,
1558219171.481168,-0.048493,0.002911,0.258910,0.122261,0.004530,0.081985,-0.048474,-0.002911,-0.998820,0.033536,-0.002811,-0.033712,1.232863,-14.155524,-46.127197,,,,,,,
1558219171.501145,-0.047247,0.003992,0.263121,0.103848,-0.003541,0.273001,-0.047229,-0.003992,-0.998876,0.031086,0.016504,-0.020152,1.233967,-14.276246,-46.089947,,,,,,,
1558219171.521135,-0.047558,0.006086,0.270010,0.141973,-0.024757,0.357173,-0.047540,-0.006086,-0.998851,0.030724,0.014768,-0.011098,1.163448,-14.355649,-46.067112,,,,,,,
1558219171.541112,-0.047804,0.009390,0.276844,0.218536,-0.070680,0.308750,-0.047784,-0.009390,-0.998814,0.031076,-0.001825,-0.005795,1.110608,-14.448854,-46.039268,,,,,,,
1558219171.561093,-0.047796,0.013127,0.282200,0.156966,-0.053552,0.233061,-0.047774,-0.013126,-0.998772,0.021163,0.003254,-0.006294,0.957686,-14.703903,-45.961891,,,,,,,
1558219171.581085,-0.047706,0.013940,0.286268,-0.007808,-0.009422,0.182105,-0.047683,-0.013939,-0.998765,0.026779,0.003319,-0.014708,0.897040,-14.811272,-45.928627,,,,,,,
1558219171.601069,-0.045470,0.011786,0.289500,-0.102147,0.091496,0.166935,-0.045452,-0.011786,-0.998897,0.020183,0.006247,0.001018,0.891180,-14.776016,-45.940098,,,,,,,
1558219171.621057,-0.042347,0.008209,0.293402,-0.122330,0.131857,0.224958,-0.042332,-0.008209,-0.999070,0.008305,0.018890,0.011140,0.927555,-14.744206,-45.949593,,,,,,,
1558219171.641029,-0.037230,0.005978,0.298133,-0.060295,0.229863,0.241960,-0.037221,-0.005978,-0.999289,0.030873,0.002422,0.017249,1.075357,-14.534569,-46.013119,,,,,,,
1558219171.661026,-0.030383,0.004041,0.303269,-0.076097,0.296594,0.276751,-0.030378,-0.004041,-0.999530,0.025053,0.010190,0.028659,1.342992,-14.456754,-46.030594,,,,,,,
1558219171.681010,-0.024223,0.001248,0.309660,-0.102084,0.197485,0.350516,-0.024221,-0.001248,-0.999706,0.021901,0.012814,0.032573,1.421523,-14.428742,-46.037025,,,,,,,
1558219171.700994,-0.021434,-0.000846,0.316948,-0.048456,0.003795,0.364720,-0.021432,0.000846,-0.999770,0.024285,0.009515,0.020263,1.648530,-14.273678,-46.077778,,,,,,,
1558219171.720892,-0.022124,-0.000216,0.323467,0.049390,-0.054956,0.294839,-0.022122,0.000216,-0.999755,0.009839,-0.015643,-0.004182,1.534649,-14.255030,-46.087482,,,,,,,
1558219171.740906,-0.019938,0.001621,0.328558,0.034392,0.215642,0.244035,-0.019937,-0.001621,-0.999800,-0.007911,-0.017803,-0.019518,1.512165,-14.286938,-46.078346,,,,,,,
1558219171.760877,-0.014511,0.001517,0.334402,-0.047477,0.283848,0.330034,-0.014511,-0.001517,-0.999894,-0.020386,-0.011865,-0.012375,1.616980,-14.405920,-46.037724,,,,,,,
1558219171.780853,-0.010455,0.000860,0.342508,-0.007753,0.109384,0.431957,-0.010455,-0.000860,-0.999945,0.010165,-0.007365,-0.022501,1.783134,-14.379996,-46.039692,,,,,,,
1558219171.800860,-0.009344,0.003571,0.349863,0.243617,0.099424,0.309284,-0.009344,-0.003571,-0.999950,0.018042,-0.000946,0.000728,1.737382,-14.421003,-46.028614,,,,,,,
1558219171.820813,-0.004883,0.009154,0.355187,0.249539,0.253625,0.247773,-0.004883,-0.009154,-0.999946,-0.010284,-0.017335,-0.010888,1.774580,-14.663563,-45.950493,,,,,,,
1558219171.840828,-0.001057,0.013158,0.359191,0.167397,0.157730,0.156040,-0.001057,-0.013158,-0.999913,-0.000362,-0.009837,0.010396,1.945984,-14.942710,-45.853527,,,,,,,
1558219171.860812,-0.002059,0.015991,0.360544,0.142037,-0.164708,0.033357,-0.002059,-0.015991,-0.999870,0.005416,-0.025742,0.001548,1.971237,-15.050736,-45.817101,,,,,,,
1558219171.880797,-0.007703,0.019565,0.361559,0.174508,-0.309638,0.068295,-0.007702,-0.019563,-0.999779,0.001232,-0.009886,-0.004112,1.783062,-15.201258,-45.775097,,,,,,,
1558219171.900780,-0.012837,0.021962,0.364332,0.061945,-0.181000,0.168728,-0.012833,-0.021960,-0.999676,-0.022170,0.019961,-0.015201,1.440469,-15.404643,-45.719131,,,,,,,
1558219171.920763,-0.013243,0.021406,0.367626,-0.049958,0.095445,0.153134,-0.013239,-0.021404,-0.999683,-0.028661,0.040814,-0.006283,1.282024,-15.387064,-45.729771,,,,,,,
1558219171.940750,-0.009370,0.021512,0.369432,0.057946,0.172961,0.062145,-0.009367,-0.021510,-0.999725,-0.015230,0.027064,-0.024628,1.322024,-15.369295,-45.734608,,,,,,,
1558219171.960734,-0.008649,0.025686,0.370776,0.298886,-0.037588,0.065660,-0.008646,-0.025683,-0.999633,0.013026,0.015323,-0.029420,1.471025,-15.509374,-45.682739,,,,,,,
1558219171.980708,-0.009573,0.033026,0.371894,0.376682,-0.015817,0.054187,-0.009567,-0.033020,-0.999409,0.027069,0.009324,-0.035320,1.421936,-15.741056,-45.604984,,,,,,,
1558219172.000702,-0.008205,0.039274,0.374446,0.238419,0.075995,0.176667,-0.008199,-0.039264,-0.999195,0.002599,-0.010968,-0.032436,1.420150,-16.084923,-45.484894,,,,,,,
1558219172.020687,-0.006507,0.042979,0.379606,0.176609,0.115627,0.309385,-0.006501,-0.042965,-0.999055,0.019608,0.029843,0.013429,1.428803,-16.338533,-45.394138,,,,,,,
1558219172.040652,-0.005035,0.046514,0.386331,0.235937,0.039240,0.328986,-0.005029,-0.046498,-0.998906,0.013422,0.024113,-0.007411,1.411721,-16.473537,-45.345856,,,,,,,
1558219172.060655,-0.002335,0.052091,0.392902,0.298794,0.402600,0.381626,-0.002332,-0.052067,-0.998641,-0.087329,0.003712,0.199035,1.359032,-16.674353,-45.274014,,,,,,,
1558219172.080639,-0.001917,0.051437,0.397226,-0.186912,-0.157652,0.063054,-0.001915,-0.051415,-0.998676,0.021461,-0.016533,-0.004590,1.424914,-16.833853,-45.212917,,,,,,,
1558219172.100595,-0.003894,0.051836,0.396986,0.099873,-0.066274,-0.025524,-0.003889,-0.051813,-0.998649,-0.009325,-0.017996,-0.023583,1.326406,-16.789949,-45.232239,,,,,,,
1558219172.120607,-0.002132,0.058872,0.396944,0.456257,0.212029,0.020131,-0.002129,-0.058838,-0.998265,-0.022606,-0.036270,0.016164,1.304386,-16.931890,-45.179939,,,,,,,
1558219172.140592,0.002026,0.067290,0.400677,0.206700,0.169273,0.242660,0.002022,-0.067239,-0.997735,-0.090492,0.014841,0.045846,1.495120,-17.463634,-44.971138,,,,,,,
1558219172.160548,0.003451,0.069290,0.401920,0.050094,0.002671,-0.037716,0.003443,-0.069235,-0.997594,-0.016916,-0.051981,0.064153,1.540080,-17.574753,-44.926311,,,,,,,
1558219172.180562,0.000027,0.071092,0.401204,-0.027153,-0.164935,0.001189,0.000027,-0.071032,-0.997474,-0.040554,-0.050321,0.014274,1.525439,-17.614908,-44.911079,,,,,,,
1558219172.200545,-0.002687,0.070121,0.401072,-0.018218,-0.059352,-0.046905,-0.002681,-0.070064,-0.997539,-0.036031,-0.023992,-0.008137,1.303651,-17.644026,-44.906639,,,,,,,
1558219172.220511,-0.001370,0.073785,0.399004,0.324286,0.149072,-0.125777,-0.001366,-0.073718,-0.997278,-0.022652,0.001864,-0.022787,1.339045,-17.729267,-44.872009,,,,,,,
1558219172.240515,-0.001159,0.083421,0.397187,0.547981,-0.103594,-0.072498,-0.001155,-0.083324,-0.996522,-0.014547,0.010295,-0.007537,1.436905,-17.993250,-44.763775,,,,,,,
1558219172.260497,-0.005981,0.093866,0.395377,0.495426,-0.242908,-0.114444,-0.005954,-0.093728,-0.995580,-0.022488,0.013543,-0.005595,1.390397,-18.353230,-44.618866,,,,,,,
1558219172.280482,-0.009019,0.101929,0.392463,0.344834,-0.095272,-0.167602,-0.008972,-0.101753,-0.994769,-0.035019,0.009956,-0.029523,1.144868,-18.970716,-44.366859,,,,,,,
1558219172.300463,-0.008374,0.107705,0.389325,0.320970,0.104663,-0.143287,-0.008325,-0.107497,-0.994171,-0.018561,0.015624,-0.037827,1.148386,-19.114746,-44.304905,,,,,,,
1558219172.320434,-0.005319,0.116225,0.387321,0.489175,0.134514,-0.088416,-0.005283,-0.115963,-0.993239,0.010471,0.021084,-0.012498,1.341112,-19.562635,-44.103535,,,,,,,
1558219172.340414,-0.004142,0.127294,0.385839,0.569588,-0.007528,-0.074764,-0.004109,-0.126950,-0.991901,0.006138,0.034482,0.006290,1.433776,-19.905178,-43.947075,,,,,,,
1558219172.360395,-0.005683,0.135682,0.383822,0.363936,-0.093201,-0.126996,-0.005631,-0.135266,-0.990793,-0.004104,0.032544,0.000620,1.450906,-20.272146,-43.778442,,,,,,,
1558219172.380402,-0.005988,0.141481,0.381089,0.287614,0.004445,-0.127191,-0.005928,-0.141009,-0.989991,0.022454,0.014148,-0.004303,1.428716,-20.703899,-43.576649,,,,,,,
1558219172.400388,-0.004918,0.148059,0.380080,0.305532,0.022555,0.031009,-0.004864,-0.147519,-0.989047,0.043790,0.032071,0.068652,1.470564,-20.907967,-43.477711,,,,,,,
1558219172.420371,-0.004197,0.150687,0.381768,0.169522,0.114225,0.065942,-0.004150,-0.150118,-0.988659,0.000900,0.042177,0.010159,1.504840,-21.104393,-43.381531,,,,,,,
1558219172.440338,-0.002021,0.154402,0.382940,0.204482,0.058002,0.054755,-0.001997,-0.153789,-0.988102,-0.001742,0.025417,0.004383,1.582755,-21.284821,-43.290508,,,,,,,
1558219172.460342,-0.001900,0.159675,0.382549,0.311744,-0.072750,-0.064919,-0.001876,-0.158997,-0.987277,0.016662,0.004425,0.014728,1.581658,-21.490860,-43.188637,,,,,,,
1558219172.480298,-0.003537,0.165430,0.380719,0.188017,-0.146086,-0.061450,-0.003489,-0.164676,-0.986342,0.039606,0.040546,0.065367,1.586538,-21.629950,-43.118969,,,,,,,
1558219172.500305,-0.003742,0.166251,0.379507,0.065075,0.010980,-0.077128,-0.003691,-0.165486,-0.986205,0.040037,0.012669,0.004470,1.487081,-21.839828,-43.016594,,,,,,,
1558219172.520295,-0.002513,0.169725,0.378803,0.251374,0.063006,0.027081,-0.002477,-0.168911,-0.985628,0.013647,0.036206,0.002291,1.618085,-21.928780,-42.966583,,,,,,,
1558219172.540278,-0.001469,0.176312,0.380966,0.335298,0.057431,0.128521,-0.001447,-0.175400,-0.984496,0.006329,0.039459,0.018493,1.637249,-22.047903,-42.904854,,,,,,,
1558219172.560263,-0.000096,0.177323,0.383214,-0.136295,0.045095,0.117349,-0.000094,-0.176396,-0.984319,-0.058271,0.024784,0.023260,1.672310,-22.344074,-42.750004,,,,,,,
1558219172.580223,0.003441,0.173486,0.383545,-0.104623,0.206386,-0.063650,0.003389,-0.172617,-0.984983,0.033003,0.002802,0.003385,1.706934,-22.179775,-42.834114,,,,,,,
1558219172.600232,0.003985,0.177353,0.381715,0.380803,-0.115398,-0.073815,0.003923,-0.176424,-0.984306,0.016021,0.018786,0.019920,1.881270,-22.179291,-42.827057,,,,,,,
1558219172.620217,-0.000725,0.188196,0.380469,0.562207,-0.312917,-0.062791,-0.000712,-0.187087,-0.982343,0.003810,0.028518,0.036786,1.741107,-22.656034,-42.582741,,,,,,,
1558219172.640189,-0.006300,0.196057,0.378777,0.275112,-0.230063,-0.092122,-0.006179,-0.194803,-0.980823,-0.034501,0.041056,0.048190,1.556708,-22.972336,-42.420109,,,,,,,
1558219172.660185,-0.007725,0.199052,0.377509,0.129942,-0.006199,-0.044187,-0.007572,-0.197740,-0.980225,-0.008709,0.043885,0.047745,1.428955,-23.177835,-42.312683,,,,,,,
1558219172.680170,-0.006950,0.203035,0.376635,0.315210,0.005500,-0.052468,-0.006807,-0.201643,-0.979435,0.015673,0.026381,0.051609,1.467319,-23.330833,-42.227200,,,,,,,
1558219172.700149,-0.006257,0.210121,0.375289,0.350416,0.021144,-0.070440,-0.006119,-0.208579,-0.977986,-0.013153,0.046515,0.066060,1.497788,-23.545082,-42.107040,,,,,,,
1558219172.720138,-0.005958,0.215465,0.374942,0.173249,-0.062300,0.054601,-0.005820,-0.213801,-0.976860,-0.000527,0.062816,0.091346,1.564487,-23.829128,-41.944511,,,,,,,
1558219172.740122,-0.008154,0.217776,0.376424,0.127616,-0.035688,0.019587,-0.007961,-0.216059,-0.976348,0.031597,0.021799,0.127044,1.439526,-23.988916,-41.857819,,,,,,,
1558219172.760092,-0.010580,0.219744,0.376204,0.160125,-0.185959,0.014971,-0.010325,-0.217979,-0.975899,-0.010122,0.041161,0.068993,1.411286,-24.033970,-41.832928,,,,,,,
1558219172.780092,-0.012528,0.223981,0.377124,0.252160,-0.016196,0.060444,-0.012215,-0.222113,-0.974944,-0.007194,0.039313,0.056335,1.296046,-24.134800,-41.778568,,,,,,,
1558219172.800075,-0.012304,0.230006,0.378987,0.312915,0.021582,0.090748,-0.011980,-0.227983,-0.973591,0.004213,0.026842,0.104207,1.229383,-24.464327,-41.588490,,,,,,,
1558219172.820060,-0.013914,0.234629,0.380131,0.165690,-0.108816,0.022120,-0.013532,-0.232482,-0.972506,-0.008044,0.020141,0.116351,1.190634,-24.644583,-41.483055,,,,,,,
1558219172.840042,-0.016013,0.235347,0.379705,-0.026849,-0.092028,-0.030188,-0.015571,-0.233181,-0.972309,-0.017479,0.023861,0.098087,1.095056,-24.757198,-41.418587,,,,,,,
1558219172.860012,-0.017071,0.234880,0.379767,0.023210,-0.056264,0.028914,-0.016601,-0.232726,-0.972401,0.014328,0.027694,0.076557,1.026370,-24.736984,-41.432419,,,,,,,
1558219172.880014,-0.019209,0.236609,0.380826,0.105980,-0.122192,0.057176,-0.018673,-0.234408,-0.971959,0.010112,0.036028,0.080586,0.972626,-24.762955,-41.418198,,,,,,,
1558219172.899976,-0.022939,0.237315,0.381867,-0.029450,-0.203956,0.038135,-0.022294,-0.235094,-0.971717,-0.010527,0.030748,0.078513,0.834809,-24.839504,-41.375347,,,,,,,
1558219172.919952,-0.027746,0.234916,0.382508,-0.135860,-0.196012,0.029585,-0.026980,-0.232761,-0.972160,-0.009641,0.014499,0.048621,0.602187,-24.773563,-41.418896,,,,,,,
1558219172.939966,-0.031756,0.232134,0.383278,-0.134802,-0.187528,0.052087,-0.030899,-0.230055,-0.972687,-0.013443,0.009474,0.027817,0.445112,-24.681461,-41.475830,,,,,,,
1558219172.959943,-0.034575,0.229908,0.384355,-0.083391,-0.087368,0.061628,-0.033659,-0.227888,-0.973105,-0.023303,0.009611,-0.000802,0.275852,-24.573574,-41.541309,,,,,,,
1558219172.979919,-0.036599,0.229498,0.386276,0.051855,-0.051025,0.102655,-0.035631,-0.227489,-0.973129,-0.009962,0.006603,-0.004151,0.151434,-24.522762,-41.571964,,,,,,,
1558219172.999899,-0.038873,0.231481,0.388438,0.117626,-0.124318,0.093465,-0.037827,-0.229419,-0.972592,-0.006775,0.007373,-0.000873,0.054094,-24.558449,-41.551136,,,,,,,
1558219173.019903,-0.041987,0.232645,0.389569,0.005922,-0.137582,0.019581,-0.040844,-0.230552,-0.972202,-0.032428,-0.001122,0.003086,-0.094077,-24.645882,-41.499260,,,,,,,
1558219173.039888,-0.044400,0.232387,0.389388,-0.060721,-0.033723,-0.030725,-0.043192,-0.230301,-0.972160,-0.022604,-0.024536,-0.023781,-0.213191,-24.625866,-41.510704,,,,,,,
1558219173.059873,-0.044207,0.232540,0.388595,0.055439,0.000529,-0.043116,-0.043003,-0.230450,-0.972134,-0.008450,-0.026402,-0.019215,-0.250367,-24.634338,-41.505470,,,,,,,
1558219173.079846,-0.044437,0.234230,0.387545,0.074494,-0.037643,-0.056278,-0.043209,-0.232094,-0.971733,-0.008610,-0.003913,-0.012169,-0.231799,-24.685593,-41.475113,,,,,,,
1558219173.099839,-0.045683,0.234995,0.387087,0.022184,-0.060549,-0.006360,-0.044412,-0.232838,-0.971501,-0.011146,-0.003170,-0.009792,-0.263732,-24.745350,-41.439293,,,,,,,
1558219173.119810,-0.047302,0.235765,0.387180,0.011612,-0.041479,-0.012592,-0.045977,-0.233587,-0.971248,-0.012831,-0.012568,-0.010594,-0.275481,-24.749950,-41.436470,,,,,,,
1558219173.139783,-0.048514,0.235654,0.386811,-0.035023,0.006284,-0.042066,-0.047154,-0.233479,-0.971218,-0.014751,-0.002300,-0.015934,-0.371375,-24.791012,-41.411167,,,,,,,
1558219173.159790,-0.047737,0.233795,0.385706,-0.043422,0.038022,-0.052445,-0.046421,-0.231671,-0.971686,0.002598,0.009793,-0.026529,-0.362879,-24.731560,-41.446777,,,,,,,
1558219173.179770,-0.045411,0.233014,0.384832,0.061864,0.031202,-0.005450,-0.044168,-0.230911,-0.971972,0.024851,0.010498,-0.024244,-0.342160,-24.698097,-41.466904,,,,,,,
1558219173.199763,-0.043949,0.234573,0.385372,0.149932,-0.023062,0.062430,-0.042731,-0.232428,-0.971675,0.023933,0.017569,-0.000051,-0.195740,-24.690823,-41.472183,,,,,,,
1558219173.219748,-0.044867,0.235550,0.386873,0.056011,-0.087012,0.084163,-0.043613,-0.233378,-0.971407,0.006153,0.017314,0.007418,-0.217087,-24.781509,-41.417953,,,,,,,
1558219173.239729,-0.047949,0.234356,0.388653,-0.056717,-0.063201,0.062948,-0.046620,-0.232217,-0.971546,-0.019313,0.006127,-0.005566,-0.317433,-24.756687,-41.432148,,,,,,,
1558219173.259687,-0.049501,0.233602,0.389663,0.015777,-0.042484,0.035445,-0.048137,-0.231483,-0.971647,-0.016560,0.000724,-0.016832,-0.409441,-24.713676,-41.457008,,,,,,,
1558219173.279701,-0.050862,0.236463,0.390494,0.177436,-0.085613,0.036229,-0.049425,-0.234266,-0.970915,0.003588,-0.006106,-0.000551,-0.519721,-24.771004,-41.421543,,,,,,,
1558219173.299686,-0.053505,0.240261,0.391363,0.165662,-0.107756,0.031737,-0.051944,-0.237956,-0.969886,-0.005948,0.001979,0.014564,-0.590496,-24.898876,-41.343853,,,,,,,
1558219173.319670,-0.055354,0.242544,0.392655,0.072185,-0.032168,0.065483,-0.053707,-0.240173,-0.969243,-0.009282,0.000732,0.021123,-0.678205,-25.004147,-41.278927,,,,,,,
1558219173.339655,-0.055930,0.242758,0.393585,-0.009697,-0.024396,0.027057,-0.054262,-0.240380,-0.969161,-0.011260,-0.011191,0.033538,-0.774339,-25.082649,-41.229580,,,,,,,
1558219173.359639,-0.057600,0.242757,0.393597,0.002803,-0.128116,-0.017700,-0.055880,-0.240380,-0.969069,0.007403,-0.012443,0.030333,-0.827618,-25.079885,-41.230225,,,,,,,
1558219173.379624,-0.059994,0.242987,0.393137,-0.029094,-0.113137,-0.009041,-0.058197,-0.240603,-0.968877,-0.000657,-0.001081,0.018438,-0.897402,-25.097694,-41.217926,,,,,,,
1558219173.399591,-0.060540,0.241310,0.393634,-0.109585,0.039587,0.052144,-0.058750,-0.238975,-0.969247,-0.016369,-0.006005,0.004266,-0.977364,-25.043758,-41.248901,,,,,,,
1558219173.419592,-0.059901,0.239711,0.395091,-0.063837,0.043613,0.078911,-0.058153,-0.237422,-0.969664,-0.006529,-0.012273,0.006804,-0.971863,-24.970648,-41.293331,,,,,,,
1558219173.439552,-0.061487,0.239691,0.396578,-0.000399,-0.097336,0.057327,-0.059692,-0.237402,-0.969576,-0.026322,-0.003336,0.013735,-0.979433,-24.949450,-41.305965,,,,,,,
1558219173.459533,-0.066433,0.238738,0.397613,-0.098194,-0.082119,-0.000257,-0.064501,-0.236476,-0.969494,-0.046308,-0.012486,-0.017933,-1.202159,-24.932165,-41.310516,,,,,,,
1558219173.479531,-0.065568,0.235929,0.396673,-0.138045,0.077625,-0.050007,-0.063706,-0.233746,-0.970208,-0.041244,-0.013049,-0.023688,-1.275514,-24.862841,-41.350082,,,,,,,
1558219173.499524,-0.064828,0.235430,0.395596,0.044673,-0.035377,-0.048807,-0.062996,-0.233261,-0.970371,-0.008614,-0.010498,-0.021831,-1.213755,-24.782314,-41.400249,,,,,,,
1558219173.519484,-0.066741,0.237086,0.394961,0.104105,-0.081116,-0.031047,-0.064826,-0.234871,-0.969863,-0.012185,0.011482,-0.006990,-1.226524,-24.842953,-41.363514,,,,,,,
1558219173.539490,-0.067343,0.237749,0.394816,-0.020210,0.003088,0.000621,-0.065399,-0.235516,-0.969668,-0.017426,0.016186,-0.007810,-1.276466,-24.876488,-41.341843,,,,,,,
1558219173.559461,-0.067114,0.236083,0.395127,-0.071176,0.048825,0.013830,-0.065203,-0.233896,-0.970073,-0.019956,0.006189,-0.004384,-1.294753,-24.838549,-41.364082,,,,,,,
1558219173.579437,-0.067336,0.235578,0.395188,0.044556,-0.049056,-0.004096,-0.065427,-0.233405,-0.970176,0.002942,0.010779,0.016090,-1.280506,-24.785742,-41.396191,,,,,,,
1558219173.599440,-0.069617,0.237153,0.395123,0.119831,-0.143535,-0.010279,-0.067614,-0.234936,-0.969656,0.003573,0.023190,0.020621,-1.325448,-24.823984,-41.371853,,,,,,,
1558219173.619437,-0.071442,0.238576,0.395266,0.031839,-0.025717,0.007861,-0.069360,-0.236320,-0.969197,-0.016105,0.028068,0.030064,-1.431452,-24.892181,-41.327316,,,,,,,
1558219173.639421,-0.070494,0.238272,0.395563,-0.027428,0.066580,0.009722,-0.068446,-0.236024,-0.969334,-0.016667,0.012497,0.057606,-1.432033,-24.904058,-41.320145,,,,,,,
1558219173.659405,-0.070059,0.238469,0.394822,0.020419,0.013357,-0.069755,-0.068021,-0.236215,-0.969317,-0.004718,0.009652,0.063067,-1.419497,-24.898327,-41.324032,,,,,,,
1558219173.679390,-0.070303,0.239609,0.393596,0.059618,-0.033325,-0.047750,-0.068238,-0.237323,-0.969031,0.005784,0.022754,0.064368,-1.379395,-24.925102,-41.309242,,,,,,,
1558219173.699374,-0.069392,0.239829,0.393558,0.015262,0.106539,0.022950,-0.067352,-0.237537,-0.969041,0.008987,0.033878,0.078050,-1.361546,-24.956722,-41.290741,,,,,,,
1558219173.719351,-0.066304,0.239341,0.394565,-0.043110,0.174543,0.055584,-0.064367,-0.237063,-0.969360,0.017446,0.023562,0.091476,-1.342429,-24.959717,-41.289555,,,,,,,
1558219173.739344,-0.063903,0.237594,0.395359,-0.114674,0.091385,0.035513,-0.062065,-0.235365,-0.969923,0.013039,0.009245,0.089522,-1.179284,-24.913185,-41.322632,,,,,,,
1558219173.759327,-0.063408,0.234162,0.395383,-0.193637,0.013516,-0.008002,-0.061636,-0.232028,-0.970754,-0.000727,0.014835,0.061361,-1.126738,-24.769695,-41.410259,,,,,,,
1558219173.779288,-0.062480,0.230754,0.394970,-0.138104,0.072430,0.001148,-0.060784,-0.228712,-0.971595,0.001900,0.029676,0.050223,-1.117297,-24.649117,-41.482403,,,,,,,
1558219173.799297,-0.059233,0.229000,0.395188,-0.067373,0.224292,0.017605,-0.057653,-0.227004,-0.972186,0.004644,0.028548,0.047854,-1.043285,-24.544201,-41.546490,,,,,,,
1558219173.819281,-0.054188,0.227906,0.395635,-0.053472,0.249607,0.030670,-0.052761,-0.225938,-0.972712,0.021419,0.042436,0.083964,-0.808512,-24.479992,-41.589584,,,,,,,
1558219173.839265,-0.051106,0.226157,0.396400,-0.106121,0.110389,0.051716,-0.049783,-0.224234,-0.973263,0.031411,0.047507,0.094052,-0.686527,-24.439112,-41.615810,,,,,,,
1558219173.859249,-0.049633,0.223425,0.398550,-0.144597,0.111805,0.157396,-0.048379,-0.221571,-0.973943,0.023523,0.027296,0.102773,-0.627478,-24.345739,-41.671432,,,,,,,
1558219173.879233,-0.046577,0.219545,0.402407,-0.210190,0.255972,0.203564,-0.045443,-0.217785,-0.974938,-0.011289,0.027096,0.098870,-0.579742,-24.174294,-41.771816,,,,,,,
1558219173.899219,-0.041459,0.214457,0.405665,-0.264275,0.287868,0.137632,-0.040498,-0.212817,-0.976252,-0.010131,0.016498,0.093730,-0.475425,-24.030838,-41.855820,,,,,,,
1558219173.919191,-0.037767,0.209146,0.407064,-0.255099,0.125969,0.051745,-0.036935,-0.207624,-0.977511,0.003976,0.006208,0.094882,-0.346570,-23.865108,-41.951801,,,,,,,
1558219173.939159,-0.036097,0.205399,0.407751,-0.249214,-0.017779,0.073861,-0.035331,-0.203958,-0.978342,0.030967,-0.004508,0.088892,-0.189680,-23.596067,-42.104713,,,,,,,
1558219173.959173,-0.037835,0.198905,0.410213,-0.376170,-0.059248,0.170518,-0.037080,-0.197596,-0.979582,0.012284,0.004527,0.064695,-0.252446,-23.423649,-42.200546,,,,,,,
1558219173.979139,-0.039337,0.189165,0.414209,-0.547372,0.019949,0.224522,-0.038625,-0.188039,-0.981402,-0.024302,0.001027,0.022601,-0.348381,-23.183231,-42.332413,,,,,,,
1558219173.999115,-0.037527,0.177829,0.418464,-0.538249,0.204879,0.225232,-0.036926,-0.176893,-0.983537,-0.030579,-0.022097,0.009828,-0.459360,-22.502153,-42.697296,,,,,,,
1558219174.019126,-0.033141,0.168297,0.421874,-0.437961,0.240181,0.151982,-0.032667,-0.167503,-0.985330,-0.035784,-0.034783,0.010370,-0.380198,-22.174385,-42.869213,,,,,,,
1558219174.039105,-0.031516,0.160793,0.423474,-0.399711,0.160511,0.026336,-0.031104,-0.160101,-0.986611,-0.048974,-0.022944,0.005760,-0.276488,-21.891066,-43.015369,,,,,,,
1558219174.059062,-0.028359,0.152740,0.422881,-0.398522,0.176288,-0.021556,-0.028025,-0.152147,-0.987961,-0.034627,-0.001143,-0.001663,-0.168721,-21.398506,-43.263062,,,,,,,
1558219174.079079,-0.022903,0.145237,0.422656,-0.361905,0.318835,0.007597,-0.022660,-0.144727,-0.989212,-0.028304,-0.000613,0.000702,-0.024366,-21.146044,-43.387341,,,,,,,
1558219174.099045,-0.016969,0.137827,0.422856,-0.288768,0.233920,0.027128,-0.016807,-0.137391,-0.990374,0.000556,0.017502,-0.003431,0.177319,-20.910389,-43.501049,,,,,,,
1558219174.119020,-0.014609,0.133698,0.423431,-0.161586,0.064127,0.025604,-0.014478,-0.133300,-0.990970,-0.004031,0.017807,-0.009534,0.441999,-20.520000,-43.684677,,,,,,,
1558219174.139033,-0.013222,0.130734,0.422845,-0.158101,0.110479,-0.066835,-0.013109,-0.130362,-0.991380,-0.009322,0.010611,-0.011275,0.490707,-20.389269,-43.745331,,,,,,,
1558219174.159017,-0.008758,0.125291,0.420728,-0.286554,0.202007,-0.101294,-0.008689,-0.124963,-0.992123,0.026298,0.010934,-0.024677,0.634869,-20.233238,-43.815868,,,,,,,
1558219174.179002,-0.005218,0.120339,0.419685,-0.190001,0.145606,-0.015277,-0.005180,-0.120049,-0.992754,0.040169,0.028405,-0.006330,0.883047,-19.936953,-43.947189,,,,,,,
1558219174.198986,-0.005495,0.119214,0.420172,0.022935,-0.136582,0.049454,-0.005456,-0.118932,-0.992887,0.042733,0.036168,0.002134,0.932137,-19.840969,-43.989594,,,,,,,
1558219174.218970,-0.010912,0.120877,0.421975,0.086248,-0.283769,0.097208,-0.010832,-0.120583,-0.992644,0.014357,0.009453,0.004821,0.777647,-19.880440,-43.974770,,,,,,,
1558219174.238953,-0.015137,0.120450,0.423385,-0.110120,-0.135887,0.047219,-0.015027,-0.120159,-0.992641,-0.028339,-0.006901,-0.010747,0.461457,-19.928240,-43.957588,,,,,,,
1558219174.258932,-0.017177,0.114137,0.423277,-0.393736,0.007107,-0.041321,-0.017065,-0.113889,-0.993347,-0.026026,0.004636,-0.017288,0.384684,-19.729944,-44.047684,,,,,,,
1558219174.278924,-0.016120,0.105739,0.421641,-0.393561,0.041928,-0.081559,-0.016030,-0.105542,-0.994286,0.022103,0.019437,-0.022987,0.368320,-19.434937,-44.178780,,,,,,,
1558219174.298908,-0.014396,0.099956,0.420535,-0.163950,-0.019412,-0.006160,-0.014323,-0.099789,-0.994905,0.034648,0.014096,-0.008375,0.426629,-19.064028,-44.339573,,,,,,,
1558219174.318897,-0.015019,0.099042,0.421744,0.009453,-0.009614,0.086958,-0.014945,-0.098880,-0.994987,0.019798,0.017779,0.005531,0.473237,-18.958374,-44.384380,,,,,,,
1558219174.338877,-0.014483,0.098576,0.423133,0.012981,0.069566,0.035404,-0.014413,-0.098416,-0.995041,-0.003928,0.021863,0.014191,0.443698,-18.969444,-44.379955,,,,,,,
1558219174.358861,-0.012792,0.098053,0.422182,-0.051755,0.068650,-0.098112,-0.012730,-0.097896,-0.995115,-0.004619,0.016032,0.028974,0.517363,-18.925137,-44.398071,,,,,,,
1558219174.378839,-0.011867,0.096264,0.418590,-0.116741,-0.002008,-0.218417,-0.011812,-0.096116,-0.995300,0.027269,0.002167,0.022461,0.590540,-18.879669,-44.416512,,,,,,,
1558219174.398831,-0.011078,0.094658,0.414177,-0.068240,-0.124807,-0.176849,-0.011028,-0.094517,-0.995462,0.045482,-0.007732,0.027689,0.647566,-18.801094,-44.449036,,,,,,,
1558219174.418792,-0.014445,0.094814,0.412126,0.030327,-0.206556,-0.069720,-0.014380,-0.094672,-0.995405,0.031790,0.006125,0.039121,0.713007,-18.745613,-44.471458,,,,,,,
1558219174.438773,-0.020098,0.094436,0.411672,-0.099715,-0.230089,-0.003855,-0.020008,-0.094296,-0.995343,-0.020260,-0.011555,-0.007510,0.517537,-18.755930,-44.469814,,,,,,,
1558219174.458784,-0.023563,0.090849,0.411492,-0.211149,-0.136516,-0.023334,-0.023463,-0.090724,-0.995600,-0.030309,-0.014958,-0.016318,0.320783,-18.709637,-44.491161,,,,,,,
1558219174.478769,-0.025473,0.087195,0.409408,-0.155474,-0.097893,-0.153173,-0.025373,-0.087085,-0.995878,0.006483,-0.013990,-0.029162,0.193759,-18.533936,-44.565376,,,,,,,
1558219174.498753,-0.027280,0.086014,0.405094,-0.001213,-0.160123,-0.229448,-0.027176,-0.085908,-0.995932,0.005615,0.003663,-0.035287,0.161729,-18.369104,-44.633698,,,,,,,
1558219174.518737,-0.031299,0.089329,0.403721,0.264360,-0.199155,0.050114,-0.031169,-0.089210,-0.995525,-0.014424,0.024406,-0.023289,0.114688,-18.369942,-44.633499,,,,,,,
1558219174.538696,-0.032844,0.096477,0.406844,0.315900,-0.014280,0.160824,-0.032686,-0.096327,-0.994813,0.028505,-0.012788,0.001756,-0.074187,-18.571075,-44.550274,,,,,,,
1558219174.558707,-0.032134,0.099241,0.408764,0.001055,0.010468,0.052977,-0.031971,-0.099078,-0.994566,0.000645,-0.001813,-0.017199,-0.123640,-18.927412,-44.399944,,,,,,,
1558219174.578686,-0.032868,0.093871,0.409854,-0.421707,-0.025319,0.082190,-0.032718,-0.093733,-0.995060,-0.035138,-0.034074,-0.014935,-0.131380,-18.926355,-44.400372,,,,,,,
1558219174.598660,-0.032568,0.083461,0.411134,-0.634178,0.094152,0.062878,-0.032449,-0.083365,-0.995991,0.026360,-0.014032,-0.005184,-0.200614,-18.392099,-44.624069,,,,,,,
1558219174.618659,-0.030799,0.071985,0.411469,-0.507588,0.056451,0.035927,-0.030714,-0.071923,-0.996937,0.020765,-0.006919,-0.002605,-0.144632,-17.975605,-44.793682,,,,,,,
1558219174.638623,-0.033380,0.064650,0.413226,-0.334858,-0.139872,0.127072,-0.033304,-0.064605,-0.997355,-0.023153,-0.019501,-0.002950,-0.121266,-17.634697,-44.929054,,,,,,,
1558219174.658600,-0.036787,0.058751,0.415105,-0.267688,-0.144512,0.072590,-0.036716,-0.058717,-0.997599,-0.035214,-0.040008,-0.010473,-0.408593,-17.206793,-45.092972,,,,,,,
1558219174.678610,-0.036261,0.055463,0.414597,-0.181118,0.211006,-0.086219,-0.036197,-0.055435,-0.997806,-0.025677,-0.023118,-0.008053,-0.458766,-17.041796,-45.155109,,,,,,,
1558219174.698590,-0.029248,0.052546,0.410805,-0.137811,0.363821,-0.236328,-0.029204,-0.052522,-0.998193,-0.004991,0.015626,0.008630,-0.251640,-16.924427,-45.200859,,,,,,,
1558219174.718583,-0.025945,0.049999,0.405340,-0.131564,-0.015723,-0.265579,-0.025910,-0.049978,-0.998414,0.024384,0.015554,0.009080,0.160436,-16.768425,-45.259377,,,,,,,
1558219174.738567,-0.028613,0.047665,0.401459,-0.120505,-0.158298,-0.145224,-0.028577,-0.047647,-0.998455,-0.005008,0.007013,0.006436,0.179110,-16.738449,-45.270401,,,,,,,
1558219174.758550,-0.028514,0.044357,0.398772,-0.219785,0.081116,-0.140877,-0.028482,-0.044342,-0.998610,0.012384,-0.003143,0.002028,0.087936,-16.562449,-45.335358,,,,,,,
1558219174.778534,-0.022876,0.038271,0.395046,-0.344304,0.398829,-0.171033,-0.022857,-0.038261,-0.999006,0.015380,-0.019753,0.001402,0.357897,-16.270447,-45.439648,,,,,,,
1558219174.798519,-0.015002,0.031042,0.393060,-0.344694,0.339830,-0.041344,-0.014995,-0.031037,-0.999406,-0.016469,0.005326,-0.015517,0.462334,-16.191910,-45.466751,,,,,,,
1558219174.818483,-0.012467,0.025187,0.393728,-0.249113,0.000195,0.071855,-0.012463,-0.025184,-0.999605,-0.052845,-0.014244,-0.022169,0.942918,-15.714211,-45.626656,,,,,,,
1558219174.838470,-0.016679,0.023721,0.394472,-0.090923,-0.169900,-0.019328,-0.016673,-0.023718,-0.999580,-0.037755,-0.036813,-0.027566,0.861479,-15.478354,-45.708813,,,,,,,
1558219174.858450,-0.018390,0.023116,0.390628,-0.029230,0.010103,-0.302618,-0.018384,-0.023114,-0.999564,0.026838,-0.014819,-0.031640,0.697533,-15.507267,-45.701809,,,,,,,
1558219174.878430,-0.016567,0.021536,0.383005,-0.110645,0.145725,-0.371850,-0.016562,-0.021534,-0.999631,0.020026,-0.011776,-0.083163,0.766148,-15.480587,-45.709751,,,,,,,
1558219174.898442,-0.010534,0.018716,0.378655,-0.095516,0.332060,-0.115954,-0.010532,-0.018715,-0.999769,-0.022168,0.020043,-0.057436,1.171861,-15.296221,-45.763191,,,,,,,
1558219174.918417,-0.005360,0.017986,0.377464,0.009301,0.187847,-0.054259,-0.005359,-0.017985,-0.999824,-0.015988,0.005930,-0.022912,1.463460,-15.236436,-45.774734,,,,,,,
1558219174.938397,-0.004140,0.019669,0.375222,0.116277,-0.027458,-0.168338,-0.004139,-0.019667,-0.999798,0.012363,-0.004792,-0.020374,1.547477,-15.247795,-45.768188,,,,,,,
1558219174.958398,-0.005750,0.022910,0.369217,0.163069,-0.130523,-0.363599,-0.005748,-0.022908,-0.999721,0.033001,-0.003459,-0.029622,1.613688,-15.414066,-45.710171,,,,,,,
1558219174.978382,-0.007446,0.027952,0.363481,0.315389,-0.033861,-0.217352,-0.007443,-0.027948,-0.999582,0.015652,-0.014608,-0.047522,1.608287,-15.597393,-45.648129,,,,,,,
1558219174.998366,-0.005439,0.035537,0.361514,0.456197,0.139019,-0.037288,-0.005435,-0.035529,-0.999354,0.013431,0.019675,-0.032278,1.651164,-15.837315,-45.563915,,,,,,,
1558219175.018350,0.000688,0.044511,0.362722,0.399393,0.417548,0.121209,0.000687,-0.044496,-0.999009,0.009857,0.024751,-0.003463,1.914602,-16.327440,-45.380238,,,,,,,
1558219175.038335,0.010607,0.048403,0.366677,0.058878,0.506181,0.234956,0.010594,-0.048385,-0.998773,-0.021993,0.003966,0.010476,2.296401,-16.587116,-45.268215,,,,,,,
1558219175.058319,0.018224,0.046559,0.370242,-0.212832,0.362593,0.098840,0.018204,-0.046542,-0.998750,-0.032806,-0.019650,0.032747,2.481232,-16.600763,-45.253456,,,,,,,
1558219175.078301,0.022548,0.039833,0.369088,-0.383563,0.130601,-0.134129,0.022528,-0.039823,-0.998953,0.001825,-0.034335,-0.023386,2.859600,-16.307907,-45.337532,,,,,,,
1558219175.098288,0.025603,0.033654,0.366215,-0.252492,0.164767,-0.151847,0.025585,-0.033648,-0.999106,0.002628,-0.009794,-0.031472,2.980508,-16.051805,-45.421070,,,,,,,
1558219175.118267,0.029320,0.030458,0.364070,-0.118427,0.183208,-0.071490,0.029302,-0.030454,-0.999107,-0.011052,-0.006763,-0.065179,3.134187,-15.883990,-45.469692,,,,,,,
1558219175.138243,0.033237,0.028682,0.364129,-0.078019,0.215911,0.028147,0.033217,-0.028678,-0.999037,-0.014129,-0.005135,-0.034380,3.415233,-15.719370,-45.506645,,,,,,,
1558219175.158239,0.039183,0.026124,0.363181,-0.155189,0.316530,-0.109747,0.039160,-0.026121,-0.998891,0.014444,0.004133,-0.011179,3.564127,-15.661799,-45.515076,,,,,,,
1558219175.178205,0.044750,0.019926,0.361314,-0.406766,0.216408,-0.090621,0.044726,-0.019925,-0.998801,-0.021136,-0.057102,-0.045603,3.832863,-15.534369,-45.536903,,,,,,,
1558219175.198181,0.047711,0.009786,0.359132,-0.563308,0.161090,-0.169214,0.047691,-0.009786,-0.998814,-0.018287,-0.016902,-0.040676,4.081766,-15.189610,-45.631481,,,,,,,
1558219175.218167,0.050836,-0.001526,0.356345,-0.515399,0.174616,-0.144491,0.050814,0.001526,-0.998707,-0.022280,-0.020600,-0.073208,4.346897,-14.423350,-45.855080,,,,,,,
1558219175.238173,0.056380,-0.007913,0.354899,-0.172265,0.329388,-0.051984,0.056349,0.007912,-0.998380,-0.027464,-0.011788,-0.074771,4.346897,-14.423350,-45.855080,,,,,,,
1558219175.258165,0.062519,-0.006501,0.355227,0.190612,0.345611,0.058429,0.062477,0.006501,-0.998025,-0.036094,-0.021455,-0.018058,4.718957,-13.992643,-45.951656,,,,,,,
1558219175.278127,0.067662,0.000182,0.355498,0.306820,0.367086,-0.011736,0.067610,-0.000182,-0.997712,-0.046996,-0.018845,0.005311,5.185505,-14.267795,-45.816563,,,,,,,
1558219175.298133,0.074765,0.004587,0.351700,0.163408,0.324071,-0.301595,0.074695,-0.004587,-0.997196,-0.040439,-0.015555,-0.007107,5.185505,-14.267795,-45.816563,,,,,,,
1558219175.318117,0.080251,0.004431,0.342225,-0.048800,0.109231,-0.522690,0.080164,-0.004431,-0.996772,0.048437,0.002844,-0.023049,5.810712,-14.577032,-45.643871,,,,,,,
1558219175.338090,0.080323,0.000364,0.335155,-0.234878,-0.023614,-0.242252,0.080237,-0.000364,-0.996776,-0.005545,0.028791,-0.025868,5.940152,-14.545671,-45.637211,,,,,,,
1558219175.358086,0.079741,-0.006569,0.333561,-0.329696,0.039525,-0.053817,0.079655,0.006569,-0.996801,-0.017308,0.016075,-0.054453,6.067634,-14.206092,-45.727318,,,,,,,
1558219175.378071,0.080340,-0.012928,0.333045,-0.277663,-0.000922,-0.058433,0.080247,0.012928,-0.996691,-0.003281,-0.002369,-0.075819,6.091235,-13.789599,-45.851509,,,,,,,
1558219175.398031,0.077292,-0.015359,0.332071,-0.019635,-0.195710,-0.056888,0.077206,0.015359,-0.996897,-0.001065,-0.006341,-0.073873,6.062925,-13.627996,-45.903549,,,,,,,
1558219175.418039,0.072842,-0.011986,0.330474,0.276248,-0.218435,-0.077154,0.072772,0.011986,-0.997277,-0.002688,0.002739,-0.070854,5.878934,-13.653236,-45.919979,,,,,,,
1558219175.438025,0.069104,-0.005375,0.328103,0.326468,-0.176471,-0.111944,0.069048,0.005375,-0.997599,0.000059,-0.002842,-0.026388,5.675168,-13.989230,-45.844425,,,,,,,
1558219175.457999,0.064876,-0.002151,0.325119,0.049516,-0.246938,-0.142735,0.064830,0.002151,-0.997894,-0.006129,-0.007202,-0.039398,5.534784,-14.194590,-45.798439,,,,,,,
1558219175.477993,0.057315,-0.005057,0.322285,-0.255233,-0.351078,-0.166396,0.057283,0.005057,-0.998345,-0.020159,-0.010138,-0.054298,5.435298,-14.189447,-45.811943,,,,,,,
1558219175.497978,0.049963,-0.012062,0.318477,-0.360533,-0.355909,-0.232721,0.049938,0.012062,-0.998679,-0.004040,-0.013206,-0.071114,4.972276,-13.816420,-45.978256,,,,,,,
1558219175.517962,0.044115,-0.019474,0.313423,-0.360107,-0.250288,-0.285092,0.044092,0.019473,-0.998838,0.027639,0.001096,-0.079303,4.752440,-13.461414,-46.106632,,,,,,,
1558219175.537946,0.040773,-0.027385,0.308613,-0.397152,-0.159101,-0.226596,0.040746,0.027382,-0.998794,0.033778,0.001244,-0.085633,4.680532,-13.281338,-46.166176,,,,,,,
1558219175.557902,0.037779,-0.035567,0.305829,-0.386591,-0.134683,-0.117454,0.037746,0.035559,-0.998654,0.036305,0.019800,-0.121188,4.561313,-12.696394,-46.342346,,,,,,,
1558219175.577915,0.036336,-0.041493,0.304603,-0.232026,-0.037089,-0.046999,0.036297,0.041481,-0.998480,0.040607,0.018257,-0.111490,4.496483,-12.379807,-46.434246,,,,,,,
1558219175.597901,0.036403,-0.044150,0.304217,-0.079573,0.044593,-0.022607,0.036360,0.044135,-0.998364,0.031984,0.015283,-0.110920,4.486604,-12.280210,-46.461639,,,,,,,
1558219175.617883,0.038125,-0.045045,0.303529,-0.036780,0.102481,-0.038033,0.038078,0.045030,-0.998260,0.023171,0.006789,-0.092423,4.518349,-12.186370,-46.483265,,,,,,,
1558219175.637870,0.040183,-0.046372,0.303484,-0.047677,0.054007,0.022349,0.040129,0.046356,-0.998119,0.011461,0.013413,-0.076039,4.639390,-12.137783,-46.484058,,,,,,,
1558219175.657849,0.040092,-0.046778,0.304808,-0.003391,-0.047611,0.081200,0.040037,0.046761,-0.998103,0.015123,0.012627,-0.054295,4.692475,-12.085764,-46.492283,,,,,,,
1558219175.677829,0.037661,-0.045899,0.306039,0.031495,-0.151421,0.040694,0.037612,0.045883,-0.998239,-0.000976,-0.008133,-0.015678,4.576959,-12.094661,-46.501480,,,,,,,
