timestamp(unix),attitude_roll(radians),attitude_pitch(radians),attitude_yaw(radians),rotation_rate_x(radians/s),rotation_rate_y(radians/s),rotation_rate_z(radians/s),gravity_x(G),gravity_y(G),gravity_z(G),user_acc_x(G),user_acc_y(G),user_acc_z(G),magnetic_field_x(microteslas),magnetic_field_y(microteslas),magnetic_field_z(microteslas),latitude(degree),longitude(degree),altitude(meter),speed(m/s),course(degree),timestamp(unix),User Mark
1558216531.660580,-0.056575,1.058135,0.172956,0.004808,-0.208111,0.088991,-0.027735,-0.871442,-0.489713,0.022471,-0.006533,-0.013659,-0.970221,-46.054485,-7.919757,,,,,,,
1558216531.680595,-0.059515,1.058872,0.174672,0.120342,-0.038551,0.080028,-0.029137,-0.871804,-0.488988,0.019676,-0.002510,-0.017161,-1.037491,-46.051186,-7.930393,,,,,,,
1558216531.700579,-0.063291,1.061603,0.178187,0.134160,-0.047088,0.074619,-0.030832,-0.873138,-0.486497,0.006113,-0.002579,-0.007033,-1.136334,-46.074409,-7.780541,,,,,,,
1558216531.720552,-0.066717,1.063140,0.181156,0.087398,-0.028889,0.064079,-0.032409,-0.873886,-0.485049,-0.001587,0.003739,-0.004362,-1.155338,-46.079185,-7.749393,,,,,,,
1558216531.740548,-0.069126,1.064900,0.184005,0.106720,0.016449,0.055987,-0.033471,-0.874741,-0.483434,0.002893,-0.005005,-0.001963,-1.254358,-46.095818,-7.634242,,,,,,,
1558216531.760533,-0.069227,1.067640,0.184000,0.136430,-0.045120,-0.015044,-0.033354,-0.876065,-0.481038,0.007445,-0.006641,-0.003321,-1.281086,-46.102684,-7.588197,,,,,,,
1558216531.780489,-0.070090,1.070005,0.183146,0.086245,-0.095605,-0.023041,-0.033624,-0.877203,-0.478941,-0.022238,-0.001444,0.002806,-1.264259,-46.133801,-7.399550,,,,,,,
1558216531.800502,-0.073285,1.069906,0.184914,-0.031722,-0.019882,0.014959,-0.035161,-0.877156,-0.478917,-0.015102,-0.006649,-0.007197,-1.262568,-46.144241,-7.334455,,,,,,,
1558216531.820486,-0.072402,1.068889,0.185214,-0.014261,0.089968,-0.001024,-0.034802,-0.876666,-0.479838,-0.001148,0.003497,-0.005956,-1.312541,-46.135983,-7.377517,,,,,,,
1558216531.840470,-0.071420,1.069332,0.185667,0.038952,0.075911,-0.024603,-0.034303,-0.876880,-0.479485,-0.009291,-0.000409,0.004814,-1.311547,-46.132416,-7.399953,,,,,,,
1558216531.860452,-0.071300,1.071985,0.186198,0.070850,0.046088,-0.063295,-0.034080,-0.878152,-0.477167,-0.011056,-0.013389,0.011530,-1.317709,-46.143852,-7.327200,,,,,,,
1558216531.880423,-0.068650,1.075855,0.183814,0.103844,0.033197,-0.084745,-0.032582,-0.879997,-0.473861,-0.003322,-0.008462,0.020385,-1.255347,-46.172653,-7.154700,,,,,,,
1558216531.900423,-0.065443,1.079670,0.180333,0.091901,-0.029071,-0.062931,-0.030842,-0.881802,-0.470610,0.005650,0.001584,0.023314,-1.191937,-46.198292,-6.998335,,,,,,,
1558216531.920379,-0.066344,1.082009,0.180024,0.025886,-0.029765,-0.051244,-0.031130,-0.882903,-0.468523,-0.010573,0.004637,0.017610,-1.146719,-46.221901,-6.848396,,,,,,,
1558216531.940379,-0.062497,1.082920,0.176200,-0.048352,0.035043,-0.091255,-0.029276,-0.883330,-0.467836,0.008189,0.005141,0.017640,-1.092770,-46.233303,-6.779914,,,,,,,
1558216531.960376,-0.057415,1.081945,0.170915,-0.051816,-0.032538,-0.058810,-0.026948,-0.882873,-0.468838,0.011216,0.018829,0.006771,-0.988666,-46.234097,-6.790482,,,,,,,
1558216531.980346,-0.058478,1.081141,0.170355,0.001062,-0.096102,0.031373,-0.027488,-0.882495,-0.469517,-0.001611,0.010517,-0.012187,-0.935376,-46.229290,-6.830593,,,,,,,
1558216532.000325,-0.063689,1.081058,0.174880,0.053535,0.012534,0.059149,-0.029939,-0.882456,-0.469442,-0.026076,-0.009436,-0.011637,-1.007142,-46.224415,-6.853374,,,,,,,
1558216532.020330,-0.064483,1.081869,0.176743,0.012346,0.076055,-0.018213,-0.030266,-0.882837,-0.468703,-0.016976,-0.014395,0.000563,-1.065597,-46.225952,-6.834131,,,,,,,
1558216532.040292,-0.060536,1.082052,0.173639,-0.024879,0.045466,-0.106082,-0.028405,-0.882923,-0.468658,-0.003638,-0.005825,0.006149,-1.067650,-46.228661,-6.815459,,,,,,,
1558216532.060283,-0.055827,1.081908,0.168404,-0.023013,-0.029575,-0.095056,-0.026205,-0.882855,-0.468913,0.022757,0.017255,0.009288,-0.931161,-46.230305,-6.824327,,,,,,,
1558216532.080283,-0.052191,1.081884,0.163795,0.013057,-0.048731,-0.055710,-0.024501,-0.882844,-0.469027,0.025539,0.023378,0.007998,-0.806332,-46.231087,-6.834920,,,,,,,
1558216532.100243,-0.050629,1.082265,0.160864,0.020298,-0.090978,-0.008067,-0.023752,-0.883023,-0.468728,0.036798,0.026593,-0.001411,-0.738247,-46.233303,-6.827591,,,,,,,
1558216532.120248,-0.053861,1.082475,0.162269,0.007441,-0.085525,0.059237,-0.025256,-0.883122,-0.468464,0.015674,0.022206,-0.006390,-0.764587,-46.236080,-6.805843,,,,,,,
1558216532.140235,-0.057083,1.082045,0.164955,-0.042361,-0.014440,0.062012,-0.026787,-0.882920,-0.468759,0.004876,0.007584,-0.007056,-0.781178,-46.236103,-6.803791,,,,,,,
1558216532.160210,-0.058786,1.080160,0.167581,-0.108102,0.057762,0.048772,-0.027683,-0.882033,-0.470373,-0.007046,-0.004350,-0.001505,-0.869352,-46.229595,-6.837261,,,,,,,
1558216532.180204,-0.059059,1.077623,0.168946,-0.096467,0.031263,0.039986,-0.027944,-0.880835,-0.472598,-0.000346,-0.000772,-0.010450,-0.925580,-46.206642,-6.983462,,,,,,,
1558216532.200189,-0.060369,1.076969,0.170224,0.020436,-0.034914,0.021296,-0.028598,-0.880525,-0.473136,0.005847,0.005052,-0.009942,-0.951804,-46.196049,-7.049716,,,,,,,
1558216532.220174,-0.061415,1.077878,0.170221,0.124661,-0.070367,0.005025,-0.029043,-0.880956,-0.472307,0.004034,0.005055,-0.017226,-0.968141,-46.197830,-7.035790,,,,,,,
1558216532.240158,-0.063642,1.080255,0.171035,0.147049,-0.058856,0.006221,-0.029962,-0.882078,-0.470150,0.001473,-0.004351,-0.009632,-0.989940,-46.214962,-6.919320,,,,,,,
1558216532.260134,-0.064142,1.082465,0.171144,0.061064,0.007110,-0.007096,-0.030072,-0.883117,-0.468188,-0.001041,-0.006028,0.002017,-0.993471,-46.227848,-6.832168,,,,,,,
1558216532.280126,-0.065014,1.082771,0.172379,-0.010378,-0.006178,0.045034,-0.030462,-0.883261,-0.467892,-0.000025,-0.007975,-0.001087,-0.994721,-46.236183,-6.775319,,,,,,,
1558216532.300112,-0.069384,1.082978,0.175787,0.060783,-0.059421,0.033907,-0.032494,-0.883357,-0.467572,-0.013297,-0.019581,-0.017489,-1.046411,-46.234608,-6.778306,,,,,,,
1558216532.320070,-0.073386,1.085154,0.179025,0.239846,0.009393,0.029374,-0.034224,-0.884375,-0.465521,-0.021913,-0.012323,-0.033823,-1.130453,-46.240700,-6.723025,,,,,,,
1558216532.340080,-0.078573,1.091650,0.187080,0.444830,0.231467,0.112810,-0.036187,-0.887389,-0.459599,-0.048591,-0.006349,-0.021663,-1.218990,-46.266884,-6.524466,,,,,,,
1558216532.360065,-0.083966,1.100724,0.200213,0.505736,0.371956,0.266880,-0.037988,-0.891535,-0.451355,-0.038276,0.011088,0.000901,-1.457542,-46.327835,-6.023826,,,,,,,
1558216532.380037,-0.092238,1.110571,0.217570,0.519324,0.350924,0.387333,-0.040909,-0.895952,-0.442262,-0.003158,0.009081,0.016496,-1.633217,-46.366371,-5.671973,,,,,,,
1558216532.400033,-0.107362,1.119014,0.243509,0.413084,0.501863,0.579804,-0.046781,-0.899670,-0.434056,-0.033740,-0.003802,0.017400,-1.972781,-46.406723,-5.215734,,,,,,,
1558216532.420017,-0.128630,1.123864,0.279425,0.268067,0.542110,0.832037,-0.055441,-0.901777,-0.428631,-0.006281,0.020063,-0.025837,-2.690905,-46.417271,-4.782810,,,,,,,
1558216532.440003,-0.155263,1.123145,0.320154,-0.028109,0.501501,0.909350,-0.066936,-0.901466,-0.427642,0.007015,0.021080,-0.009858,-3.244072,-46.393753,-4.666395,,,,,,,
1558216532.459986,-0.178450,1.115565,0.359853,-0.340354,0.721954,0.916547,-0.078043,-0.898159,-0.432688,0.035883,0.021160,-0.018209,-4.033950,-46.320988,-4.772049,,,,,,,
1558216532.479970,-0.193751,1.103186,0.397080,-0.496948,1.019826,0.936355,-0.086789,-0.892648,-0.442320,0.024975,0.015665,0.009275,-5.002311,-46.167931,-5.308325,,,,,,,
1558216532.499955,-0.203303,1.090061,0.432619,-0.450950,1.080867,0.919894,-0.093367,-0.886655,-0.452907,0.009810,-0.000170,-0.002873,-5.558469,-46.053028,-5.735963,,,,,,,
1558216532.519917,-0.210921,1.080180,0.462143,-0.254445,0.831042,0.655019,-0.098644,-0.882043,-0.460727,-0.004322,-0.012809,-0.001385,-6.247538,-45.896263,-6.259445,,,,,,,
1558216532.539923,-0.211920,1.076647,0.477375,-0.004722,0.506710,0.231461,-0.099759,-0.880372,-0.463673,0.004392,-0.043181,-0.012096,-6.752508,-45.777050,-6.598825,,,,,,,
1558216532.559909,-0.206878,1.078655,0.479513,0.161993,0.243242,-0.073071,-0.097057,-0.881323,-0.462439,0.005443,-0.027994,-0.007822,-6.806627,-45.767029,-6.612743,,,,,,,
1558216532.579888,-0.198316,1.082657,0.473501,0.138442,0.134269,-0.223604,-0.092398,-0.883207,-0.459791,-0.007211,-0.014315,0.025968,-6.734076,-45.789650,-6.529911,,,,,,,
1558216532.599864,-0.187234,1.085292,0.464377,-0.141209,0.203312,-0.273346,-0.086864,-0.884440,-0.458499,-0.013844,0.000864,0.051898,-6.394040,-45.851780,-6.435033,,,,,,,
1558216532.619861,-0.171147,1.080500,0.450090,-0.347912,0.140965,-0.281582,-0.080198,-0.882193,-0.464008,-0.000704,0.005912,0.042194,-6.205503,-45.868614,-6.499328,,,,,,,
1558216532.639826,-0.160959,1.074925,0.439396,-0.273125,-0.038923,-0.148720,-0.076254,-0.879554,-0.469648,0.022665,0.007530,0.017805,-5.948173,-45.855236,-6.826109,,,,,,,
1558216532.659801,-0.159458,1.071669,0.435261,-0.090347,-0.087297,-0.046543,-0.076003,-0.878000,-0.472587,0.001067,-0.001592,0.007164,-5.827318,-45.832508,-7.078355,,,,,,,
1558216532.679816,-0.155866,1.071396,0.430683,-0.038844,-0.016923,-0.164337,-0.074342,-0.877870,-0.473094,-0.000700,-0.011351,0.006266,-5.791939,-45.830406,-7.120880,,,,,,,
1558216532.699792,-0.148226,1.070063,0.419943,-0.136985,-0.129669,-0.272259,-0.070899,-0.877231,-0.474805,0.006034,0.007007,0.003812,-5.630285,-45.843243,-7.167718,,,,,,,
1558216532.719776,-0.140750,1.067626,0.408029,-0.156317,-0.165453,-0.237386,-0.067646,-0.876058,-0.477437,0.013157,0.009115,-0.002208,-5.342008,-45.853569,-7.320692,,,,,,,
1558216532.739768,-0.135683,1.065101,0.398496,-0.167011,-0.158985,-0.190356,-0.065525,-0.874838,-0.479964,-0.000057,0.004644,-0.001772,-5.162375,-45.854195,-7.444623,,,,,,,
1558216532.759739,-0.135061,1.061351,0.394523,-0.157254,-0.052108,-0.075083,-0.065668,-0.873015,-0.483251,-0.035543,0.010955,-0.017618,-5.117738,-45.838017,-7.573923,,,,,,,
1558216532.779737,-0.132352,1.060799,0.392995,0.056114,0.112792,-0.027426,-0.064422,-0.872746,-0.483906,0.024948,-0.010845,-0.022244,-5.051312,-45.825535,-7.693126,,,,,,,
1558216532.799717,-0.127149,1.064460,0.391321,0.165965,0.176696,-0.025661,-0.061498,-0.874527,-0.481061,0.002767,0.004380,0.009824,-4.984656,-45.844948,-7.620597,,,,,,,
1558216532.819705,-0.125427,1.066642,0.390568,0.013107,-0.024414,-0.041588,-0.060431,-0.875583,-0.479272,-0.005945,-0.004467,0.007379,-4.927498,-45.874374,-7.479387,,,,,,,
1558216532.839690,-0.126972,1.065505,0.390652,-0.047726,-0.068392,-0.001450,-0.061297,-0.875033,-0.480166,-0.006497,-0.000089,-0.008894,-4.924313,-45.875931,-7.471931,,,,,,,
1558216532.859652,-0.129106,1.064930,0.390815,0.027636,-0.131145,0.003348,-0.062387,-0.874755,-0.480532,0.001062,-0.000687,-0.011823,-4.947155,-45.867256,-7.509979,,,,,,,
1558216532.879632,-0.132389,1.065676,0.390533,0.024285,-0.192478,-0.026068,-0.063878,-0.875116,-0.479678,-0.000255,0.002329,0.000140,-4.962918,-45.867878,-7.495780,,,,,,,
1558216532.899644,-0.135316,1.064717,0.388975,-0.061906,-0.194178,-0.051776,-0.065395,-0.874652,-0.480321,-0.004780,0.011233,-0.002178,-4.974053,-45.871666,-7.465156,,,,,,,
1558216532.919619,-0.135226,1.063485,0.385791,-0.038230,-0.121388,-0.064940,-0.065497,-0.874054,-0.481394,0.006598,0.002655,-0.021643,-4.944934,-45.864044,-7.531039,,,,,,,
1558216532.939612,-0.134786,1.062424,0.383048,-0.004044,-0.076093,-0.049532,-0.065409,-0.873538,-0.482341,0.001216,0.003314,-0.012349,-4.912821,-45.861473,-7.567629,,,,,,,
1558216532.959597,-0.133681,1.062184,0.380660,0.032231,-0.054099,-0.057834,-0.064905,-0.873421,-0.482621,0.004510,0.002800,-0.014876,-4.868248,-45.863018,-7.587033,,,,,,,
1558216532.979581,-0.132472,1.063046,0.377809,0.057680,-0.083829,-0.058099,-0.064221,-0.873841,-0.481953,0.010297,0.006409,-0.010250,-4.802969,-45.871853,-7.575205,,,,,,,
1558216532.999565,-0.132782,1.064179,0.376281,0.098029,-0.093487,-0.013318,-0.064240,-0.874391,-0.480951,0.006729,0.005281,-0.010733,-4.773527,-45.881107,-7.537679,,,,,,,
1558216533.019550,-0.134496,1.066804,0.376763,0.140735,-0.043996,0.010677,-0.064756,-0.875662,-0.478564,0.001066,-0.005808,-0.000150,-4.766222,-45.901775,-7.415471,,,,,,,
1558216533.039513,-0.136786,1.069729,0.378785,0.107820,-0.011030,0.028049,-0.065502,-0.877070,-0.475875,0.001110,-0.009068,0.009643,-4.793528,-45.921040,-7.277349,,,,,,,
1558216533.059517,-0.139008,1.071474,0.380763,0.065086,-0.046706,0.053296,-0.066347,-0.877907,-0.474212,0.006609,-0.005226,0.007750,-4.815858,-45.931816,-7.194092,,,,,,,
1558216533.079475,-0.143432,1.073079,0.384284,0.018246,-0.050696,0.048951,-0.068243,-0.878675,-0.472519,-0.012201,-0.007174,0.010864,-4.843826,-45.940323,-7.120618,,,,,,,
1558216533.099458,-0.145103,1.072747,0.385105,-0.056021,-0.016615,-0.040463,-0.069075,-0.878516,-0.472693,-0.010942,-0.004541,0.003287,-4.934390,-45.940086,-7.059711,,,,,,,
1558216533.119469,-0.142411,1.071707,0.382065,-0.053777,0.004467,-0.071221,-0.067931,-0.878019,-0.473781,-0.003266,-0.000185,0.000774,-4.934390,-45.940086,-7.059711,,,,,,,
1558216533.139446,-0.139398,1.071176,0.378433,0.024792,-0.046649,-0.049229,-0.066569,-0.877765,-0.474445,0.013529,0.001742,-0.006420,-4.859646,-45.935444,-7.141309,,,,,,,
1558216533.159441,-0.138534,1.073448,0.376285,0.147173,-0.059985,-0.055665,-0.065883,-0.878851,-0.472526,0.001048,-0.002405,0.000220,-4.760945,-45.953209,-7.093320,,,,,,,
1558216533.179406,-0.139055,1.076504,0.376011,0.118522,-0.011142,-0.008244,-0.065756,-0.880305,-0.469829,-0.002878,0.003962,0.008114,-4.760945,-45.953209,-7.093320,,,,,,,
1558216533.199382,-0.139690,1.077645,0.377266,0.004695,0.034986,0.044420,-0.065915,-0.880846,-0.468792,0.002835,0.004030,0.002926,-4.732063,-45.987442,-6.887808,,,,,,,
1558216533.219394,-0.142731,1.076575,0.380910,-0.056100,0.014215,0.078339,-0.067475,-0.880338,-0.469523,-0.016144,-0.000613,0.001200,-4.796717,-45.980789,-6.887508,,,,,,,
1558216533.239371,-0.145638,1.075852,0.383925,0.000298,-0.015757,0.025784,-0.068931,-0.879995,-0.469955,-0.023003,-0.006083,-0.003770,-4.796717,-45.980789,-6.887508,,,,,,,
1558216533.259362,-0.146647,1.077029,0.384024,0.044094,-0.021442,-0.086335,-0.069254,-0.880554,-0.468859,-0.007650,-0.001664,0.009783,-4.914407,-45.969002,-6.883250,,,,,,,
1558216533.279346,-0.144167,1.078169,0.380348,0.042926,-0.056329,-0.094143,-0.067947,-0.881093,-0.468036,-0.003144,0.011449,0.000675,-4.855879,-45.981804,-6.839132,,,,,,,
1558216533.299331,-0.144466,1.079485,0.378505,0.057590,-0.097527,-0.025129,-0.067920,-0.881715,-0.466868,0.001926,0.009370,0.013208,-4.794778,-45.995197,-6.792007,,,,,,,
1558216533.319316,-0.146731,1.080935,0.379284,0.058664,-0.069969,0.029585,-0.068790,-0.882398,-0.465448,0.002857,0.006543,0.006555,-4.795566,-46.008987,-6.697390,,,,,,,
1558216533.339298,-0.150018,1.081263,0.381860,-0.031613,-0.006068,0.034397,-0.070276,-0.882552,-0.464933,-0.016394,0.001296,0.013029,-4.802860,-46.010845,-6.679373,,,,,,,
1558216533.359285,-0.151235,1.079851,0.383402,-0.068645,0.039502,-0.015373,-0.071030,-0.881887,-0.466079,-0.024780,-0.004023,-0.004472,-4.889724,-46.002209,-6.675822,,,,,,,
1558216533.379268,-0.149259,1.079515,0.381937,0.017676,0.044250,-0.070775,-0.070153,-0.881729,-0.466511,-0.008690,-0.008545,-0.002178,-4.881731,-45.993713,-6.739902,,,,,,,
1558216533.399233,-0.146151,1.081305,0.378724,0.064346,-0.014154,-0.086244,-0.068473,-0.882572,-0.465164,0.003928,-0.004223,0.010483,-4.832216,-46.004059,-6.704886,,,,,,,
1558216533.419212,-0.145150,1.082678,0.376191,0.028911,-0.084712,-0.035702,-0.067831,-0.883217,-0.464033,0.011877,0.001579,0.015165,-4.771196,-46.018372,-6.650184,,,,,,,
1558216533.439201,-0.146074,1.082590,0.375983,-0.047659,-0.031356,0.033076,-0.068271,-0.883176,-0.464047,-0.000821,0.003262,0.006207,-4.726292,-46.030647,-6.597059,,,,,,,
1558216533.459181,-0.146184,1.080983,0.376795,-0.082425,0.063909,0.000863,-0.068529,-0.882421,-0.465444,-0.007856,-0.000758,-0.001109,-4.762168,-46.018364,-6.656696,,,,,,,
1558216533.479173,-0.143469,1.080126,0.374335,-0.009125,-0.019047,-0.082081,-0.067373,-0.882017,-0.466376,-0.004404,-0.002291,-0.010217,-4.752873,-46.013802,-6.694716,,,,,,,
1558216533.499164,-0.141440,1.081423,0.370442,0.111990,-0.092624,-0.086959,-0.066266,-0.882628,-0.465378,0.010815,-0.002886,-0.005706,-4.654329,-46.023533,-6.697099,,,,,,,
1558216533.519160,-0.140461,1.084413,0.367254,0.143905,-0.093832,-0.076270,-0.065440,-0.884029,-0.462828,0.021068,0.005566,0.002058,-4.566162,-46.050255,-6.572933,,,,,,,
1558216533.539116,-0.139221,1.086739,0.364225,0.064138,-0.065908,-0.061121,-0.064581,-0.885114,-0.460872,0.017156,0.007810,0.009624,-4.537124,-46.062675,-6.505675,,,,,,,
1558216533.559130,-0.138114,1.087048,0.361525,-0.050867,-0.073744,-0.050613,-0.064033,-0.885258,-0.460672,0.000953,0.005161,0.003412,-4.440481,-46.085129,-6.412679,,,,,,,
1558216533.579113,-0.137761,1.085737,0.359774,-0.042351,-0.051520,-0.002349,-0.064030,-0.884647,-0.461843,0.004032,0.008625,-0.022684,-4.408275,-46.079727,-6.473426,,,,,,,
1558216533.599098,-0.138739,1.086611,0.361343,0.156930,0.045829,0.060665,-0.064374,-0.885054,-0.461015,0.009855,0.016249,-0.024566,-4.413773,-46.078056,-6.481596,,,,,,,
1558216533.619080,-0.141387,1.089468,0.365005,0.164238,0.009876,0.076341,-0.065238,-0.886381,-0.458338,-0.010095,0.000562,-0.001013,-4.462420,-46.093288,-6.338386,,,,,,,
1558216533.639067,-0.145581,1.091439,0.369489,0.026973,0.005244,0.031347,-0.066907,-0.887292,-0.456330,-0.014682,-0.008094,0.010514,-4.539454,-46.100246,-6.232173,,,,,,,
1558216533.659020,-0.144971,1.090552,0.368795,-0.116606,0.010118,-0.041320,-0.066742,-0.886882,-0.457149,-0.007096,-0.004414,0.020229,-4.574317,-46.101170,-6.199751,,,,,,,
1558216533.679027,-0.143716,1.087592,0.367020,-0.127410,-0.027846,-0.019270,-0.066544,-0.885511,-0.459829,-0.014313,0.009031,-0.019785,-4.540032,-46.086346,-6.333739,,,,,,,
1558216533.699019,-0.144419,1.085857,0.367389,-0.023007,0.017119,0.022883,-0.067088,-0.884703,-0.461302,-0.011159,0.003478,-0.014651,-4.565344,-46.067966,-6.448234,,,,,,,
1558216533.718987,-0.143676,1.086423,0.368552,0.065723,0.122322,0.001540,-0.066673,-0.884967,-0.460856,-0.001045,-0.001355,0.000880,-4.574751,-46.066326,-6.453249,,,,,,,
1558216533.738987,-0.141814,1.088194,0.367948,0.050542,0.013451,-0.050761,-0.065594,-0.885790,-0.459427,-0.001728,0.006655,0.013306,-4.554687,-46.078316,-6.381458,,,,,,,
1558216533.758972,-0.140953,1.089021,0.365562,0.007678,-0.079362,-0.064495,-0.065095,-0.886174,-0.458758,-0.002853,0.012364,0.014498,-4.520695,-46.087120,-6.341948,,,,,,,
1558216533.778930,-0.140791,1.088669,0.363526,-0.033862,-0.071695,-0.031357,-0.065064,-0.886010,-0.459077,-0.004058,0.012368,0.004671,-4.481670,-46.092850,-6.327956,,,,,,,
1558216533.798930,-0.141929,1.087365,0.363715,-0.031683,-0.034643,0.014909,-0.065750,-0.885405,-0.460146,-0.002182,0.032225,-0.005216,-4.477844,-46.087936,-6.366364,,,,,,,
1558216533.818905,-0.142404,1.086812,0.364370,0.007922,0.029618,0.009150,-0.066038,-0.885148,-0.460600,-0.001543,0.029298,-0.002260,-4.496291,-46.081467,-6.400105,,,,,,,
1558216533.838911,-0.143772,1.086496,0.365813,0.066309,-0.014015,0.017322,-0.066708,-0.885001,-0.460785,-0.014926,0.033500,-0.002243,-4.511883,-46.075233,-6.433920,,,,,,,
1558216533.858866,-0.147300,1.088720,0.368937,0.168568,-0.013470,0.007841,-0.068044,-0.886034,-0.458599,-0.014490,0.033953,0.011425,-4.573437,-46.081287,-6.346524,,,,,,,
1558216533.878876,-0.148909,1.091590,0.370064,0.140959,-0.018697,-0.049882,-0.068405,-0.887361,-0.455973,-0.013123,0.043504,0.015635,-4.593322,-46.084091,-6.311672,,,,,,,
1558216533.898864,-0.149498,1.093559,0.370374,0.072987,0.032408,-0.040904,-0.068413,-0.888267,-0.454203,-0.014732,0.042961,0.022471,-4.599848,-46.109154,-6.120993,,,,,,,
1558216533.918848,-0.146876,1.094405,0.369813,-0.003279,0.157571,-0.017346,-0.067112,-0.888656,-0.453638,-0.005016,0.033706,0.031946,-4.596298,-46.114628,-6.082287,,,,,,,
1558216533.938813,-0.143960,1.093969,0.370453,-0.062805,0.191736,0.002153,-0.065844,-0.888456,-0.454215,-0.007688,0.034406,0.027594,-4.560348,-46.121342,-6.058435,,,,,,,
1558216533.958817,-0.142542,1.092415,0.372409,-0.009802,0.139710,0.033729,-0.065396,-0.887741,-0.455674,-0.016711,0.033768,-0.007155,-4.569635,-46.111027,-6.129528,,,,,,,
1558216533.978802,-0.141988,1.093316,0.374952,0.114939,0.195060,0.023684,-0.065030,-0.888156,-0.454918,-0.016284,0.023394,-0.004906,-4.592984,-46.103516,-6.168479,,,,,,,
1558216533.998781,-0.136559,1.095691,0.375278,0.088949,0.335619,-0.082822,-0.062273,-0.889245,-0.453173,-0.020048,0.029717,0.014575,-4.609203,-46.115971,-6.062343,,,,,,,
1558216534.018771,-0.125745,1.095328,0.369692,-0.050615,0.267537,-0.156185,-0.057409,-0.889078,-0.454141,0.002340,0.043345,0.000039,-4.518929,-46.125397,-6.058586,,,,,,,
1558216534.038755,-0.114215,1.094203,0.362844,-0.009235,0.262151,-0.079334,-0.052283,-0.888563,-0.455766,0.026069,0.046796,-0.002944,-4.429729,-46.127541,-6.107931,,,,,,,
1558216534.058718,-0.110725,1.096878,0.365259,0.213015,0.278172,0.106768,-0.050429,-0.889787,-0.453582,-0.019899,0.020723,0.066741,-4.244762,-46.140774,-6.139270,,,,,,,
1558216534.078724,-0.115640,1.100920,0.374705,0.107178,0.159348,0.150389,-0.052242,-0.891624,-0.449752,-0.040638,0.023155,0.059097,-4.312746,-46.151932,-6.006554,,,,,,,
1558216534.098709,-0.116150,1.100289,0.378945,-0.080979,0.195080,0.057695,-0.052537,-0.891338,-0.450284,-0.029739,0.031979,0.045545,-4.480245,-46.147968,-5.913719,,,,,,,
1558216534.118668,-0.110006,1.097744,0.377640,-0.102102,0.223657,0.007770,-0.050018,-0.890182,-0.452852,0.030838,0.056655,0.008013,-4.480058,-46.133415,-6.026320,,,,,,,
1558216534.138677,-0.109217,1.096590,0.380289,-0.008899,0.132435,0.122278,-0.049773,-0.889656,-0.453911,0.015731,0.048194,0.021920,-4.447047,-46.123909,-6.122768,,,,,,,
1558216534.158662,-0.114824,1.097109,0.389269,0.069679,0.125850,0.236516,-0.052264,-0.889892,-0.453167,-0.011838,0.009292,0.049007,-4.605816,-46.108856,-6.118752,,,,,,,
1558216534.178645,-0.122370,1.098481,0.400350,-0.008992,0.129348,0.179902,-0.055533,-0.890517,-0.451548,-0.043237,0.024886,0.053842,-4.828444,-46.098930,-6.021119,,,,,,,
1558216534.198628,-0.121539,1.096018,0.402506,-0.189654,0.134244,-0.009170,-0.055424,-0.889394,-0.453769,-0.039547,0.042134,0.026355,-4.909512,-46.084698,-6.064377,,,,,,,
1558216534.218595,-0.113918,1.089538,0.396991,-0.308708,0.141062,-0.109558,-0.052618,-0.886413,-0.459895,0.028311,0.035537,-0.029439,-4.839282,-46.054413,-6.344407,,,,,,,
1558216534.238599,-0.107005,1.085199,0.393827,-0.143464,0.269321,0.006040,-0.049848,-0.884396,-0.464067,0.039167,0.040860,0.022676,-4.745125,-46.020153,-6.656471,,,,,,,
1558216534.258560,-0.104159,1.084782,0.398319,0.041733,0.335178,0.165898,-0.048565,-0.884201,-0.464574,0.053235,0.022614,0.043722,-4.737193,-46.011463,-6.721892,,,,,,,
1558216534.278545,-0.105999,1.085637,0.404858,-0.050727,0.068280,0.192091,-0.049340,-0.884601,-0.463732,0.002129,0.046634,0.030871,-4.856843,-46.003757,-6.689169,,,,,,,
1558216534.298553,-0.108606,1.081122,0.408178,-0.243350,0.032128,0.078420,-0.050981,-0.882486,-0.467567,0.015748,0.047251,-0.001870,-4.989439,-45.971619,-6.811412,,,,,,,
1558216534.318517,-0.106547,1.075795,0.409988,-0.236201,0.268878,0.089232,-0.050518,-0.879968,-0.472339,0.045436,0.036523,-0.012647,-5.001642,-45.947083,-6.966248,,,,,,,
1558216534.338512,-0.102420,1.073258,0.413882,-0.054056,0.363244,0.217327,-0.048796,-0.878760,-0.474762,0.055113,0.037909,0.024460,-5.094948,-45.887493,-7.284142,,,,,,,
1558216534.358505,-0.106918,1.071944,0.425234,-0.054709,0.199524,0.293697,-0.051054,-0.878132,-0.475686,0.017973,0.055226,0.026070,-5.225266,-45.862366,-7.349788,,,,,,,
1558216534.378471,-0.113806,1.069213,0.435501,-0.138047,0.077255,0.230537,-0.054601,-0.876822,-0.477704,0.017584,0.052710,0.016889,-5.345138,-45.842205,-7.389231,,,,,,,
1558216534.398474,-0.116013,1.064810,0.440264,-0.157020,0.099436,0.151726,-0.056102,-0.874697,-0.481412,0.072414,0.013491,0.013212,-5.589480,-45.772079,-7.638984,,,,,,,
1558216534.418458,-0.117797,1.063490,0.446995,-0.039860,0.186775,0.299985,-0.057097,-0.874056,-0.482458,0.058256,0.025240,0.038855,-5.756350,-45.731934,-7.754622,,,,,,,
1558216534.438442,-0.127563,1.061440,0.460273,-0.096896,0.018016,0.342098,-0.062033,-0.873059,-0.483653,0.008002,0.048962,0.042339,-5.882296,-45.713161,-7.770788,,,,,,,
1558216534.458428,-0.139113,1.056433,0.472788,-0.235240,-0.005688,0.262757,-0.068220,-0.870606,-0.487228,-0.022188,0.046097,0.006546,-6.253005,-45.638092,-7.921096,,,,,,,
1558216534.478410,-0.144639,1.051109,0.480155,-0.207178,0.079678,0.193132,-0.071579,-0.867974,-0.491424,0.018311,0.026742,0.020263,-6.498199,-45.560028,-8.169245,,,,,,,
1558216534.498396,-0.145344,1.049572,0.482697,-0.080714,-0.009853,0.138987,-0.072118,-0.867210,-0.492692,0.056905,-0.003410,0.040803,-6.605881,-45.522045,-8.293681,,,,,,,
1558216534.518381,-0.152528,1.047313,0.488782,-0.117442,-0.151230,0.185649,-0.075954,-0.866083,-0.494096,0.027782,0.057703,0.014695,-6.712832,-45.498562,-8.336544,,,,,,,
1558216534.538362,-0.161475,1.042873,0.495494,-0.235499,-0.108289,0.212656,-0.080989,-0.863855,-0.497187,-0.022069,0.050852,0.006022,-6.865044,-45.460411,-8.420305,,,,,,,
1558216534.558350,-0.166689,1.035714,0.503956,-0.347255,0.250724,0.280064,-0.084604,-0.860227,-0.502844,-0.012686,0.017331,0.009573,-7.022127,-45.408188,-8.571202,,,,,,,
1558216534.578334,-0.168245,1.027519,0.512915,-0.375949,0.261432,0.271602,-0.086564,-0.856019,-0.509645,0.004807,0.023667,0.015337,-7.360246,-45.252121,-9.096797,,,,,,,
1558216534.598301,-0.171141,1.019535,0.518945,-0.345616,0.066680,0.202500,-0.089200,-0.851864,-0.516111,-0.003680,0.054410,-0.005007,-7.502604,-45.172176,-9.373616,,,,,,,
1558216534.618303,-0.172794,1.011511,0.523260,-0.280447,0.128664,0.177523,-0.091226,-0.847634,-0.522679,0.008523,0.070718,-0.013927,-7.629006,-45.100212,-9.615015,,,,,,,
1558216534.638287,-0.177640,1.005497,0.532911,-0.226352,0.176292,0.410769,-0.094656,-0.844428,-0.527239,0.061835,-0.003564,0.011355,-7.890971,-44.951504,-10.088329,,,,,,,
1558216534.658267,-0.191218,0.999639,0.551930,-0.255594,0.101653,0.582991,-0.102745,-0.841276,-0.530753,-0.016045,-0.009249,0.025168,-8.181927,-44.861176,-10.257216,,,,,,,
1558216534.678255,-0.204713,0.991261,0.570011,-0.343867,0.094616,0.514524,-0.111327,-0.836717,-0.536200,-0.027833,0.020158,0.022406,-8.705388,-44.711346,-10.478126,,,,,,,
1558216534.698222,-0.209329,0.982558,0.579709,-0.389882,0.230840,0.264894,-0.115309,-0.831920,-0.542783,0.001372,0.008082,0.004529,-9.165040,-44.518101,-10.900475,,,,,,,
1558216534.718203,-0.206249,0.972331,0.582767,-0.489716,0.274618,0.207578,-0.115374,-0.826201,-0.551435,0.047731,0.001860,-0.011706,-9.256052,-44.414581,-11.240556,,,,,,,
1558216534.738209,-0.207283,0.961338,0.589069,-0.485117,0.128969,0.370605,-0.117806,-0.819958,-0.560170,0.085549,-0.015842,-0.019908,-9.350649,-44.301510,-11.602624,,,,,,,
1558216534.758192,-0.217851,0.950567,0.603469,-0.382482,0.043144,0.594072,-0.125621,-0.813745,-0.567484,0.012629,-0.003913,-0.020605,-9.615322,-44.120567,-12.066513,,,,,,,
1558216534.778177,-0.230361,0.941384,0.621683,-0.310765,0.171748,0.611374,-0.134410,-0.808374,-0.573119,-0.010991,-0.038977,0.018035,-10.359697,-43.803310,-12.594692,,,,,,,
1558216534.798145,-0.239621,0.932257,0.636351,-0.393959,0.055699,0.467132,-0.141457,-0.802967,-0.578994,-0.017174,-0.066524,0.015944,-10.598381,-43.700920,-12.750812,,,,,,,
1558216534.818126,-0.249227,0.922055,0.644620,-0.440568,-0.270910,0.308092,-0.149025,-0.796845,-0.585517,-0.036782,-0.053375,-0.045648,-11.182486,-43.402008,-13.262625,,,,,,,
1558216534.838131,-0.258107,0.913494,0.649822,-0.302608,-0.117448,0.216788,-0.155954,-0.791643,-0.590745,-0.020392,-0.011427,-0.024078,-11.501866,-43.228035,-13.554464,,,,,,,
1558216534.858086,-0.259638,0.907455,0.655857,-0.240616,0.317830,0.293604,-0.158083,-0.787939,-0.595115,-0.022322,0.005789,0.019187,-11.604875,-43.163956,-13.670389,,,,,,,
1558216534.878089,-0.258809,0.899438,0.663682,-0.480986,0.359288,0.287442,-0.159201,-0.782977,-0.601333,-0.029748,-0.017026,0.064712,-11.888588,-42.948219,-14.099347,,,,,,,
1558216534.898084,-0.255795,0.886587,0.665997,-0.644384,0.158129,0.201041,-0.159921,-0.774919,-0.611495,-0.033530,-0.019026,0.050857,-12.023611,-42.725563,-14.650542,,,,,,,
1558216534.918051,-0.254297,0.873750,0.665797,-0.647629,0.090328,0.088289,-0.161494,-0.766742,-0.621311,-0.043340,-0.008313,0.045764,-12.083160,-42.607452,-14.942617,,,,,,,
1558216534.938041,-0.247924,0.860583,0.662223,-0.670513,0.233079,0.044795,-0.159994,-0.758223,-0.632060,-0.005625,0.013578,0.020839,-12.162813,-42.275425,-15.796640,,,,,,,
1558216534.958038,-0.241217,0.848558,0.659127,-0.555760,0.177540,0.063573,-0.157918,-0.750328,-0.641926,0.042348,0.014778,0.032048,-12.136342,-42.109856,-16.252642,,,,,,,
1558216534.978023,-0.239897,0.839225,0.659520,-0.405283,0.019413,0.170012,-0.158728,-0.744126,-0.648908,0.042761,0.004868,0.030104,-12.141854,-41.918716,-16.735470,,,,,,,
1558216534.998006,-0.243108,0.829608,0.663030,-0.534468,-0.039971,0.295320,-0.162526,-0.737666,-0.655312,-0.014400,0.008403,0.009438,-12.336273,-41.687908,-17.164337,,,,,,,
1558216535.017991,-0.244726,0.814580,0.666642,-0.775595,0.112440,0.289112,-0.166253,-0.727437,-0.665729,-0.015616,-0.009898,0.003620,-12.401171,-41.623676,-17.273094,,,,,,,
1558216535.037960,-0.240062,0.798365,0.666976,-0.777916,0.309892,0.140462,-0.165929,-0.716216,-0.677866,0.017675,0.008605,0.025552,-12.699345,-41.129223,-18.215191,,,,,,,
1558216535.057936,-0.231866,0.782997,0.664191,-0.771518,0.285455,0.079377,-0.162879,-0.705407,-0.689835,0.034979,0.021263,0.045410,-12.674948,-40.730732,-19.105822,,,,,,,
1558216535.077932,-0.229006,0.767410,0.663485,-0.746040,0.003304,0.216559,-0.163381,-0.694273,-0.700922,0.024420,0.034682,0.029230,-12.671135,-40.486870,-19.619759,,,,,,,
1558216535.097917,-0.233987,0.752979,0.668188,-0.612496,-0.099688,0.377962,-0.169177,-0.683815,-0.709772,0.021639,0.021294,0.029657,-12.800951,-40.224148,-20.070700,,,,,,,
1558216535.117913,-0.238041,0.740012,0.673743,-0.594895,0.049179,0.324951,-0.174129,-0.674297,-0.717637,0.018291,0.019740,0.064256,-13.269590,-39.706692,-20.784035,,,,,,,
1558216535.137880,-0.237389,0.725944,0.677351,-0.697668,0.180739,0.291963,-0.175874,-0.663841,-0.726899,0.035356,0.022133,0.096971,-13.419812,-39.455158,-21.163139,,,,,,,
1558216535.157882,-0.238539,0.708803,0.680928,-0.862454,-0.042361,0.372972,-0.179372,-0.650925,-0.737646,0.030843,0.013688,0.091192,-13.537666,-39.171455,-21.610363,,,,,,,
1558216535.177866,-0.245320,0.689600,0.686496,-0.875842,-0.190146,0.458026,-0.187372,-0.636229,-0.748402,0.019739,-0.018511,0.034122,-14.030291,-38.444260,-22.580288,,,,,,,
1558216535.197848,-0.250421,0.671187,0.691105,-0.841098,-0.030875,0.353881,-0.194058,-0.621916,-0.758658,0.017788,-0.028490,0.046195,-14.422545,-37.932632,-23.190193,,,,,,,
1558216535.217835,-0.250871,0.652481,0.692542,-0.936648,0.001190,0.254820,-0.197252,-0.607160,-0.769707,0.012163,-0.032382,0.051872,-14.552361,-37.686035,-23.508951,,,,,,,
1558216535.237820,-0.252644,0.632395,0.692556,-0.976537,-0.145505,0.268331,-0.201625,-0.591078,-0.781008,0.048763,-0.020387,0.043566,-14.861940,-36.893196,-24.549831,,,,,,,
1558216535.257795,-0.258860,0.612606,0.694647,-0.912279,-0.300000,0.380074,-0.209430,-0.575002,-0.790893,0.065311,-0.012202,0.050598,-15.187866,-36.329941,-25.182203,,,,,,,
1558216535.277775,-0.266998,0.591653,0.699190,-1.026160,-0.242154,0.493707,-0.218990,-0.557734,-0.800610,0.032665,-0.010168,0.019360,-15.407305,-36.038223,-25.466465,,,,,,,
1558216535.297773,-0.272240,0.566277,0.703757,-1.243861,-0.070786,0.523999,-0.226917,-0.536494,-0.812824,-0.007137,-0.014516,-0.042431,-16.100922,-34.975639,-26.498005,,,,,,,
1558216535.317758,-0.271927,0.539392,0.706728,-1.240774,0.186999,0.450666,-0.230454,-0.513614,-0.826493,0.004029,-0.017178,-0.037994,-16.431631,-34.132416,-27.379902,,,,,,,
1558216535.337725,-0.269689,0.514957,0.709145,-1.090878,0.117473,0.428768,-0.231879,-0.492497,-0.838856,0.021399,-0.032894,-0.055309,-16.570480,-33.523609,-28.040438,,,,,,,
1558216535.357706,-0.272344,0.493415,0.712685,-0.949111,-0.140100,0.446701,-0.236905,-0.473637,-0.848260,-0.006961,-0.025341,-0.086234,-16.893730,-32.594170,-28.929249,,,,,,,
1558216535.377690,-0.278851,0.472518,0.717819,-0.959122,-0.225517,0.546234,-0.245090,-0.455129,-0.856030,-0.045696,-0.025446,-0.110507,-17.195053,-32.064377,-29.340847,,,,,,,
1558216535.397668,-0.284361,0.450459,0.724028,-0.992677,-0.060413,0.569141,-0.252559,-0.435379,-0.864094,-0.063466,-0.035980,-0.126400,-17.550308,-31.498520,-29.740700,,,,,,,
1558216535.417674,-0.284697,0.429256,0.728760,-0.917226,0.172620,0.455058,-0.255385,-0.416194,-0.872675,-0.042268,-0.019490,-0.095480,-17.956356,-30.703777,-30.323696,,,,,,,
1558216535.437654,-0.281377,0.410786,0.730764,-0.842404,0.187826,0.283372,-0.254578,-0.399330,-0.880753,0.006317,-0.018562,-0.074386,-18.192116,-29.634121,-31.233719,,,,,,,
1558216535.457635,-0.278917,0.393496,0.730755,-0.829867,0.092553,0.232291,-0.254273,-0.383419,-0.887882,0.011750,-0.014805,-0.055325,-18.192116,-29.634121,-31.233719,,,,,,,
1558216535.477611,-0.278808,0.375968,0.731292,-0.844243,-0.037274,0.305772,-0.255988,-0.367173,-0.894234,0.000891,0.000580,-0.080909,-18.290495,-28.709681,-32.029541,,,,,,,
1558216535.497617,-0.281199,0.357213,0.734030,-0.875361,-0.064436,0.411184,-0.259990,-0.349665,-0.900078,-0.039250,-0.020620,-0.108894,-18.599157,-27.704386,-32.729462,,,,,,,
1558216535.517602,-0.281686,0.338962,0.736459,-0.806550,0.093591,0.301716,-0.262158,-0.332509,-0.905931,-0.046542,-0.022853,-0.088637,-18.599157,-27.704386,-32.729462,,,,,,,
1558216535.537585,-0.277741,0.324553,0.735752,-0.636614,0.210787,0.103324,-0.259870,-0.318885,-0.911471,-0.036960,-0.038705,-0.087247,-18.838428,-26.410995,-33.648956,,,,,,,
1558216535.557570,-0.273843,0.313158,0.734452,-0.539975,0.142636,0.107020,-0.257281,-0.308065,-0.915916,-0.032850,-0.032969,-0.093773,-18.755293,-25.977966,-34.030334,,,,,,,
1558216535.577549,-0.272150,0.301799,0.734783,-0.547805,0.074123,0.208852,-0.256654,-0.297238,-0.919662,-0.036849,-0.038532,-0.095429,-18.755293,-25.977966,-34.030334,,,,,,,
1558216535.597539,-0.270797,0.290016,0.736130,-0.547755,0.085737,0.200422,-0.256329,-0.285968,-0.923319,-0.056064,-0.039151,-0.098196,-18.813354,-25.090059,-34.658707,,,,,,,
1558216535.617508,-0.269866,0.279208,0.735884,-0.497783,0.020843,0.097346,-0.256278,-0.275594,-0.926482,-0.068857,-0.057185,-0.124406,-18.851027,-24.656878,-34.947914,,,,,,,
1558216535.637508,-0.269064,0.270549,0.734745,-0.387997,0.041330,0.046383,-0.256159,-0.267260,-0.928953,-0.071065,-0.061414,-0.135179,-18.866611,-24.470196,-35.070496,,,,,,,
1558216535.657492,-0.266215,0.264570,0.733709,-0.251271,0.172698,0.019991,-0.253928,-0.261494,-0.931204,-0.038446,-0.034236,-0.110437,-18.824581,-24.055441,-35.378670,,,,,,,
1558216535.677462,-0.261762,0.260855,0.732969,-0.179809,0.216721,0.022604,-0.250028,-0.257907,-0.933258,-0.026919,-0.027600,-0.095475,-18.728525,-23.930969,-35.513805,,,,,,,
1558216535.697460,-0.257662,0.257029,0.732826,-0.194868,0.179839,0.045728,-0.246450,-0.254209,-0.935222,-0.031138,-0.030383,-0.089268,-18.584560,-23.798323,-35.678188,,,,,,,
1558216535.717444,-0.255497,0.253722,0.732361,-0.132403,0.054712,-0.002397,-0.244635,-0.251008,-0.936562,-0.017755,-0.032988,-0.062721,-18.473343,-23.618294,-35.855141,,,,,,,
1558216535.737429,-0.255862,0.253328,0.731368,-0.053899,-0.045117,-0.040658,-0.245002,-0.250628,-0.936568,-0.022027,-0.029478,-0.058244,-18.462408,-23.593666,-35.876984,,,,,,,
1558216535.757393,-0.255940,0.252596,0.730479,-0.052644,0.019375,-0.026160,-0.245121,-0.249918,-0.936726,-0.024852,-0.020681,-0.050044,-18.469618,-23.578482,-35.883255,,,,,,,
1558216535.777386,-0.254167,0.251673,0.729581,-0.106578,0.125356,-0.028392,-0.243518,-0.249025,-0.937382,-0.017774,-0.024489,-0.045101,-18.408987,-23.529911,-35.946236,,,,,,,
1558216535.797383,-0.250822,0.250115,0.728276,-0.071292,0.162128,-0.053635,-0.240478,-0.247515,-0.938566,-0.010652,-0.012876,-0.032732,-18.298355,-23.495258,-36.025303,,,,,,,
1558216535.817365,-0.248094,0.249912,0.726908,-0.000218,0.082463,-0.063950,-0.237928,-0.247319,-0.939268,-0.004366,-0.014629,-0.027636,-18.228468,-23.483307,-36.068497,,,,,,,
1558216535.837322,-0.248322,0.250946,0.725583,0.012144,-0.050811,-0.080162,-0.238080,-0.248320,-0.938965,-0.010791,-0.010560,-0.010284,-18.116140,-23.517847,-36.102570,,,,,,,
1558216535.857337,-0.249122,0.251789,0.723712,-0.004799,-0.040205,-0.115307,-0.238779,-0.249137,-0.938571,-0.007224,-0.008310,-0.015942,-18.138197,-23.582256,-36.049446,,,,,,,
1558216535.877322,-0.247326,0.252773,0.720265,0.003234,0.099157,-0.197243,-0.237033,-0.250090,-0.938760,-0.004010,-0.008363,-0.018683,-18.118254,-23.602966,-36.045921,,,,,,,
1558216535.897290,-0.243313,0.253830,0.716625,0.003410,0.154218,-0.158244,-0.233200,-0.251113,-0.939447,0.009094,-0.004105,-0.011710,-17.863564,-23.716782,-36.098293,,,,,,,
1558216535.917289,-0.240516,0.254204,0.714829,-0.004400,0.094169,-0.050993,-0.230549,-0.251475,-0.940004,0.018788,-0.002171,0.005525,-17.713100,-23.757420,-36.145683,,,,,,,
1558216535.937255,-0.238580,0.254479,0.714287,-0.003695,0.011809,0.008005,-0.228712,-0.251741,-0.940381,0.019957,-0.002058,0.005308,-17.672668,-23.763815,-36.161266,,,,,,,
1558216535.957256,-0.238464,0.253961,0.714627,-0.038797,0.025753,0.020922,-0.228634,-0.251240,-0.940534,0.008190,-0.005291,0.000944,-17.616671,-23.762100,-36.189705,,,,,,,
1558216535.977243,-0.236623,0.253172,0.714198,-0.072645,0.075562,-0.012794,-0.226948,-0.250476,-0.941146,0.009343,-0.007885,0.003066,-17.561737,-23.737795,-36.232334,,,,,,,
1558216535.997216,-0.234378,0.252081,0.712991,-0.067504,0.009968,-0.035841,-0.224898,-0.249420,-0.941919,0.009597,-0.002305,-0.009269,-17.493937,-23.711491,-36.282322,,,,,,,
1558216536.017192,-0.233109,0.251613,0.711957,-0.016406,0.016060,-0.025068,-0.223730,-0.248967,-0.942317,0.010153,0.000111,-0.010244,-17.423306,-23.684504,-36.333897,,,,,,,
1558216536.037196,-0.231582,0.251344,0.711459,-0.006824,0.028734,0.000683,-0.222306,-0.248706,-0.942722,0.009843,0.001971,-0.006985,-17.361073,-23.681801,-36.365437,,,,,,,
1558216536.057181,-0.230327,0.251076,0.711527,-0.028112,0.038391,0.021042,-0.221138,-0.248447,-0.943065,0.002312,-0.003690,-0.006642,-17.309217,-23.674747,-36.394733,,,,,,,
1558216536.077165,-0.229435,0.250026,0.711363,-0.055733,0.040601,-0.012056,-0.220356,-0.247429,-0.943516,-0.000073,-0.000663,-0.008862,-17.276627,-23.636795,-36.434868,,,,,,,
1558216536.097150,-0.227852,0.249020,0.710438,-0.041886,0.035217,-0.030248,-0.218918,-0.246454,-0.944106,0.007309,0.000071,-0.009889,-17.223553,-23.600651,-36.483391,,,,,,,
1558216536.117134,-0.226856,0.248718,0.710109,-0.012150,0.034069,0.013538,-0.217994,-0.246162,-0.944396,-0.002496,-0.005379,-0.015016,-17.174158,-23.588640,-36.514431,,,,,,,
1558216536.137119,-0.226691,0.248756,0.710924,0.000493,0.011864,0.052838,-0.217837,-0.246198,-0.944422,-0.003263,-0.010760,-0.012182,-17.162262,-23.574242,-36.529320,,,,,,,
1558216536.157103,-0.227156,0.249639,0.712226,0.050439,-0.015886,0.049409,-0.218227,-0.247054,-0.944109,-0.004826,-0.010789,-0.008177,-17.184143,-23.588009,-36.510139,,,,,,,
1558216536.177088,-0.228858,0.251222,0.713014,0.033391,-0.042291,0.004302,-0.219744,-0.248587,-0.943354,-0.016584,-0.017953,-0.010061,-17.226074,-23.629959,-36.463226,,,,,,,
1558216536.197043,-0.230082,0.251715,0.713185,-0.035597,0.011955,-0.010180,-0.220870,-0.249065,-0.942965,-0.022340,-0.015660,-0.012418,-17.286812,-23.671629,-36.407410,,,,,,,
1558216536.217039,-0.229919,0.251370,0.712289,-0.063120,0.037400,-0.054799,-0.220737,-0.248731,-0.943084,-0.011090,-0.012927,-0.006012,-17.303421,-23.675125,-36.397243,,,,,,,
1558216536.237041,-0.229488,0.251125,0.711041,-0.016499,-0.023077,-0.042528,-0.220344,-0.248494,-0.943239,-0.005562,-0.011683,-0.006697,-17.273851,-23.665668,-36.417435,,,,,,,
1558216536.257025,-0.231027,0.251657,0.710978,0.039815,-0.039179,-0.008472,-0.221765,-0.249009,-0.942770,-0.018912,-0.003463,-0.008936,-17.284653,-23.685379,-36.399490,,,,,,,
1558216536.277003,-0.231290,0.252837,0.710711,0.047426,-0.003322,-0.035881,-0.221945,-0.250152,-0.942425,0.003775,-0.011903,-0.002140,-17.311066,-23.712267,-36.369419,,,,,,,
1558216536.296994,-0.231030,0.253841,0.709950,0.018712,0.001044,-0.044404,-0.221642,-0.251124,-0.942237,0.001229,-0.002416,-0.000710,-17.303417,-23.753754,-36.345978,,,,,,,
1558216536.316978,-0.230513,0.253659,0.709350,-0.028023,0.043606,-0.019478,-0.221166,-0.250947,-0.942396,0.000555,0.002198,0.001463,-17.268204,-23.790264,-36.338848,,,,,,,
1558216536.336960,-0.230272,0.252904,0.709256,-0.035731,-0.014425,0.023734,-0.220982,-0.250217,-0.942634,-0.008831,-0.003598,-0.014992,-17.240702,-23.765734,-36.367950,,,,,,,
1558216536.356945,-0.231126,0.252796,0.709645,0.014245,-0.039024,0.006456,-0.221793,-0.250112,-0.942471,-0.005639,-0.009440,-0.019305,-17.269964,-23.743919,-36.368309,,,,,,,
1558216536.376933,-0.231570,0.253538,0.709442,0.034676,0.005202,-0.033674,-0.222169,-0.250830,-0.942192,-0.012282,-0.003549,-0.017006,-17.294554,-23.771847,-36.338371,,,,,,,
1558216536.396854,-0.231191,0.254057,0.708520,-0.009954,0.018085,-0.057075,-0.221782,-0.251333,-0.942149,-0.006260,-0.008204,-0.014806,-17.287729,-23.795395,-36.326202,,,,,,,
1558216536.416842,-0.230788,0.254079,0.707465,-0.002551,0.009610,-0.043271,-0.221401,-0.251354,-0.942233,-0.003880,-0.005207,-0.012861,-17.260756,-23.809095,-36.330051,,,,,,,
1558216536.436826,-0.230030,0.254503,0.706828,0.020959,0.042269,-0.033330,-0.220662,-0.251764,-0.942297,-0.002192,-0.003164,-0.015528,-17.233055,-23.819208,-36.336575,,,,,,,
1558216536.456810,-0.228094,0.254765,0.706024,-0.005533,0.079406,-0.031929,-0.218823,-0.252018,-0.942658,0.007107,-0.003734,-0.007385,-17.165417,-23.848217,-36.349560,,,,,,,
1558216536.476765,-0.226277,0.254862,0.705419,0.012475,0.055009,-0.026811,-0.217104,-0.252112,-0.943030,0.009539,0.000098,-0.006189,-17.101488,-23.856384,-36.374321,,,,,,,
1558216536.496778,-0.224800,0.255121,0.704811,0.052927,0.049490,-0.041778,-0.215696,-0.252362,-0.943286,0.001814,0.009625,-0.002545,-16.996912,-23.875057,-36.411068,,,,,,,
1558216536.516739,-0.223029,0.255942,0.703950,0.035941,0.060138,-0.050232,-0.213979,-0.253157,-0.943464,0.015508,0.007277,0.002470,-16.931772,-23.912209,-36.417038,,,,,,,
1558216536.536738,-0.221522,0.256432,0.702956,0.013422,0.015881,-0.037862,-0.212530,-0.253631,-0.943664,0.019812,0.006087,-0.003357,-16.883888,-23.928570,-36.428524,,,,,,,
1558216536.556714,-0.221033,0.256672,0.702749,0.029232,-0.010557,0.007805,-0.212055,-0.253863,-0.943709,0.003727,-0.001249,-0.011903,-16.811222,-23.953548,-36.445709,,,,,,,
1558216536.576716,-0.221140,0.257552,0.703215,0.043134,0.011577,0.014434,-0.212107,-0.254714,-0.943468,-0.004934,-0.006486,-0.006300,-16.811874,-23.967945,-36.435944,,,,,,,
1558216536.596682,-0.220749,0.258489,0.703786,0.046391,0.032706,0.018909,-0.211686,-0.255620,-0.943317,-0.007110,-0.005610,-0.005444,-16.811516,-23.995350,-36.418064,,,,,,,
1558216536.616681,-0.220986,0.260185,0.704330,0.069681,-0.012888,0.005679,-0.211815,-0.257260,-0.942843,-0.003197,-0.015964,-0.010160,-16.807106,-24.059252,-36.377918,,,,,,,
1558216536.636670,-0.222029,0.262346,0.704840,0.081400,-0.014020,-0.001795,-0.212674,-0.259347,-0.942077,-0.019763,-0.018958,-0.013902,-16.828068,-24.136993,-36.316677,,,,,,,
1558216536.656642,-0.222908,0.264126,0.705309,0.041039,0.010495,-0.005863,-0.213400,-0.261066,-0.941438,-0.024973,-0.022321,-0.016250,-16.859306,-24.198685,-36.261093,,,,,,,
1558216536.676618,-0.222687,0.265053,0.704946,-0.001371,0.045547,-0.039726,-0.213139,-0.261960,-0.941249,-0.015835,-0.018680,-0.020818,-16.859150,-24.255535,-36.223160,,,,,,,
1558216536.696624,-0.222117,0.265651,0.704438,0.024079,0.025360,-0.018546,-0.212568,-0.262537,-0.941217,-0.013476,-0.014989,-0.025000,-16.824446,-24.283585,-36.220505,,,,,,,
1558216536.716608,-0.222656,0.267234,0.704567,0.082506,-0.013007,-0.022068,-0.212982,-0.264065,-0.940696,-0.028900,-0.021199,-0.046212,-16.824036,-24.319363,-36.196682,,,,,,,
1558216536.736592,-0.224080,0.270036,0.704413,0.120952,0.002572,-0.068864,-0.214157,-0.266766,-0.939666,-0.042969,-0.029697,-0.045426,-16.855518,-24.428787,-36.108242,,,,,,,
1558216536.756550,-0.223341,0.274005,0.702768,0.147873,0.060449,-0.146226,-0.213226,-0.270589,-0.938784,-0.020401,-0.028483,-0.033765,-16.820995,-24.581799,-36.020393,,,,,,,
1558216536.776561,-0.222007,0.277443,0.700563,0.107328,0.038487,-0.130454,-0.211767,-0.273898,-0.938155,-0.018610,-0.018964,-0.042314,-16.747406,-24.715443,-35.963184,,,,,,,
1558216536.796546,-0.221707,0.279176,0.699299,0.058192,0.019824,-0.058071,-0.211382,-0.275563,-0.937754,-0.031538,-0.013743,-0.059133,-16.663033,-24.850651,-35.909164,,,,,,,
1558216536.816502,-0.220691,0.281246,0.698466,0.124459,0.088137,-0.087258,-0.210303,-0.277553,-0.937410,-0.023095,-0.022481,-0.054366,-16.639511,-24.897129,-35.887867,,,,,,,
1558216536.836514,-0.218589,0.285317,0.696633,0.195798,0.065472,-0.149341,-0.208085,-0.281462,-0.936739,-0.020507,-0.019808,-0.054915,-16.576052,-24.984104,-35.856773,,,,,,,
1558216536.856499,-0.217351,0.289509,0.694711,0.172224,0.032874,-0.117642,-0.206670,-0.285482,-0.935835,-0.026927,-0.023097,-0.083375,-16.406506,-25.258350,-35.742435,,,,,,,
1558216536.876466,-0.216972,0.293600,0.694379,0.229608,0.039032,-0.038531,-0.206062,-0.289400,-0.934765,-0.030159,-0.033141,-0.083011,-16.363560,-25.412689,-35.652607,,,,,,,
1558216536.896467,-0.216956,0.300036,0.694670,0.333822,-0.014436,-0.084868,-0.205642,-0.295555,-0.932930,-0.025575,-0.049218,-0.092018,-16.336155,-25.573116,-35.550320,,,,,,,
1558216536.916452,-0.218055,0.307482,0.693169,0.356039,-0.118240,-0.181891,-0.206185,-0.302660,-0.930529,-0.043281,-0.051039,-0.103864,-16.299427,-25.918077,-35.316589,,,,,,,
1558216536.936416,-0.219597,0.315026,0.690578,0.331645,-0.101233,-0.204168,-0.207116,-0.309841,-0.927955,-0.051688,-0.052982,-0.113365,-16.288555,-26.150673,-35.149746,,,,,,,
1558216536.956421,-0.219996,0.322464,0.688108,0.352069,-0.035789,-0.192849,-0.206978,-0.316905,-0.925598,-0.037163,-0.053426,-0.104096,-16.261604,-26.375393,-34.993973,,,,,,,
1558216536.976405,-0.220283,0.331007,0.686052,0.418985,-0.079476,-0.191078,-0.206645,-0.324996,-0.922863,-0.023748,-0.049577,-0.106175,-16.154562,-26.848680,-34.682243,,,,,,,
1558216536.996375,-0.222750,0.339962,0.684020,0.429305,-0.173589,-0.181294,-0.208269,-0.333451,-0.919475,-0.039564,-0.059661,-0.108159,-16.137463,-27.110210,-34.486202,,,,,,,
1558216537.016374,-0.225952,0.349822,0.682483,0.489922,-0.191879,-0.182489,-0.210465,-0.342730,-0.915555,-0.051055,-0.052060,-0.133518,-16.152344,-27.375893,-34.268669,,,,,,,
1558216537.036329,-0.228388,0.361707,0.680480,0.602001,-0.136571,-0.266214,-0.211758,-0.353871,-0.911007,-0.056232,-0.066188,-0.135349,-16.178947,-27.764204,-33.942154,,,,,,,
1558216537.056339,-0.229607,0.375947,0.676610,0.668114,-0.148700,-0.369839,-0.211700,-0.367153,-0.905749,-0.035355,-0.063664,-0.137204,-16.079304,-28.516064,-33.361195,,,,,,,
1558216537.076319,-0.232041,0.390396,0.671941,0.640181,-0.224652,-0.365250,-0.212661,-0.380555,-0.899974,-0.041336,-0.057769,-0.138326,-16.079304,-28.516064,-33.361195,,,,,,,
1558216537.096296,-0.234102,0.404214,0.667825,0.626550,-0.147373,-0.334627,-0.213276,-0.393296,-0.894333,-0.036144,-0.062819,-0.133865,-15.954518,-29.341343,-32.698902,,,,,,,
1558216537.116275,-0.233798,0.418690,0.664243,0.703604,-0.019871,-0.329075,-0.211662,-0.406564,-0.888766,-0.028770,-0.057380,-0.127530,-15.774189,-30.122211,-32.070339,,,,,,,
1558216537.136256,-0.233412,0.435605,0.660991,0.837557,-0.080853,-0.347701,-0.209699,-0.421959,-0.882030,-0.033816,-0.054649,-0.127095,-15.774189,-30.122211,-32.070339,,,,,,,
1558216537.156262,-0.235109,0.454703,0.657596,0.918123,-0.202900,-0.392578,-0.209279,-0.439196,-0.873676,-0.024653,-0.073103,-0.103909,-15.513424,-31.030212,-31.323135,,,,,,,
1558216537.176250,-0.237869,0.474461,0.653305,0.905309,-0.229304,-0.423803,-0.209604,-0.456859,-0.864491,-0.029623,-0.056217,-0.078746,-15.327484,-32.056618,-30.366442,,,,,,,
1558216537.196209,-0.239461,0.492981,0.649033,0.824634,-0.143206,-0.385676,-0.208937,-0.473254,-0.855789,-0.020448,-0.047116,-0.070205,-15.327484,-32.056618,-30.366442,,,,,,,
1558216537.216219,-0.238696,0.509355,0.644944,0.705808,-0.010415,-0.358877,-0.206422,-0.487614,-0.848306,-0.012694,-0.038753,-0.043327,-15.093971,-33.006638,-29.451881,,,,,,,
1558216537.236203,-0.237337,0.523533,0.641056,0.631041,-0.063853,-0.307134,-0.203623,-0.499943,-0.841780,-0.003606,-0.044155,-0.063966,-14.767665,-33.771080,-28.742126,,,,,,,
1558216537.256187,-0.240204,0.538033,0.638834,0.739917,-0.268336,-0.244945,-0.204290,-0.512448,-0.834064,-0.004298,-0.039188,-0.081326,-14.691160,-33.997498,-28.513496,,,,,,,
1558216537.276172,-0.244449,0.555883,0.637394,0.900955,-0.211159,-0.320072,-0.205582,-0.527694,-0.824182,-0.018601,-0.033754,-0.068808,-14.631784,-34.755676,-27.615810,,,,,,,
1558216537.296156,-0.243552,0.575762,0.632785,0.905092,-0.002147,-0.491027,-0.202272,-0.544474,-0.814024,-0.000090,-0.012136,-0.015978,-14.432444,-35.367828,-26.935123,,,,,,,
1558216537.316141,-0.239562,0.594197,0.625347,0.756968,-0.061652,-0.514136,-0.196607,-0.559843,-0.804936,0.027692,-0.000231,-0.014355,-14.250707,-35.678505,-26.620312,,,,,,,
1558216537.336120,-0.239657,0.608842,0.618370,0.607152,-0.254146,-0.411469,-0.194717,-0.571918,-0.796866,0.038055,0.019412,-0.034158,-13.793161,-36.459705,-25.789883,,,,,,,
1558216537.356081,-0.240261,0.622907,0.613013,0.656601,-0.085211,-0.362836,-0.193265,-0.583399,-0.788856,0.027020,0.022043,-0.018837,-13.669426,-36.776634,-25.402863,,,,,,,
1558216537.376094,-0.235774,0.637362,0.608451,0.690330,0.146127,-0.343512,-0.187734,-0.595077,-0.781434,0.004918,0.020966,-0.018279,-13.419829,-37.196114,-24.920609,,,,,,,
1558216537.396077,-0.228944,0.652065,0.602237,0.611656,0.119932,-0.466606,-0.180387,-0.606829,-0.774093,0.003141,0.025637,0.004180,-12.978385,-37.737488,-24.333572,,,,,,,
1558216537.416050,-0.222251,0.663887,0.592066,0.431422,-0.017705,-0.543870,-0.173608,-0.616183,-0.768231,0.034646,0.035372,0.014035,-12.567110,-38.122955,-23.945511,,,,,,,
1558216537.436027,-0.217239,0.675603,0.581866,0.568240,-0.137762,-0.474446,-0.168188,-0.625368,-0.761989,0.054404,0.036958,0.012172,-12.260353,-38.379272,-23.693764,,,,,,,
1558216537.456021,-0.218969,0.692120,0.575980,0.850596,-0.333584,-0.372532,-0.167239,-0.638171,-0.751511,0.031909,0.047793,0.038285,-11.948187,-38.892326,-23.006672,,,,,,,
1558216537.475987,-0.223107,0.709998,0.570698,0.779251,-0.360756,-0.415556,-0.167796,-0.651832,-0.739567,-0.007832,0.061470,0.071323,-11.816785,-39.365952,-22.256796,,,,,,,
1558216537.495997,-0.222296,0.723862,0.561918,0.479799,-0.184929,-0.518742,-0.165188,-0.662283,-0.730818,-0.005986,0.068563,0.059583,-11.723871,-39.581551,-21.921021,,,,,,,
1558216537.515966,-0.215246,0.732896,0.548578,0.289828,-0.050878,-0.606226,-0.158747,-0.669025,-0.726089,0.052027,0.071719,0.034652,-11.193745,-40.060417,-21.320005,,,,,,,
1558216537.535970,-0.209910,0.742570,0.536214,0.488999,-0.281103,-0.476950,-0.153514,-0.676183,-0.720562,0.069164,0.105093,0.032146,-10.765011,-40.326477,-21.037329,,,,,,,
1558216537.555953,-0.218345,0.756708,0.531508,0.732913,-0.761871,-0.210174,-0.157500,-0.686531,-0.709837,0.067519,0.111077,0.022245,-10.655010,-40.484779,-20.787804,,,,,,,
1558216537.575938,-0.237425,0.771880,0.534897,0.738930,-0.770019,0.018229,-0.168545,-0.697484,-0.696497,0.028408,0.070241,0.079264,-10.890362,-40.985565,-19.653572,,,,,,,
1558216537.595923,-0.248286,0.780665,0.538886,0.225670,-0.178571,0.014938,-0.174587,-0.703752,-0.688660,-0.000737,0.072374,0.090317,-11.131115,-41.206066,-19.048304,,,,,,,
1558216537.615901,-0.246141,0.777619,0.536756,-0.339637,0.086411,-0.070525,-0.173631,-0.701585,-0.691109,-0.005004,0.060044,0.090568,-11.156157,-41.231461,-18.978571,,,,,,,
1558216537.635863,-0.242776,0.773414,0.530776,-0.110310,-0.161289,-0.212575,-0.172012,-0.698582,-0.694547,0.046295,0.061451,0.020261,-11.024275,-41.106499,-19.323582,,,,,,,
1558216537.655876,-0.245658,0.779658,0.522926,0.472424,-0.701413,-0.284544,-0.172949,-0.703036,-0.689803,0.049185,0.038440,0.047408,-10.862729,-41.213184,-19.187336,,,,,,,
1558216537.675837,-0.260684,0.793943,0.519787,0.694269,-0.893899,-0.285141,-0.180687,-0.713123,-0.677354,0.031136,0.048938,0.060365,-10.862729,-41.213184,-19.187336,,,,,,,
1558216537.695842,-0.270624,0.805097,0.514907,0.301895,-0.473362,-0.352963,-0.185273,-0.720898,-0.667817,-0.026321,0.065304,0.068040,-10.973646,-41.659050,-18.132351,,,,,,,
1558216537.715829,-0.264767,0.806433,0.501966,-0.194569,-0.023874,-0.511340,-0.181106,-0.721823,-0.667961,0.027587,0.081488,0.032662,-10.729574,-41.897987,-17.723267,,,,,,,
1558216537.735804,-0.254009,0.805921,0.485914,-0.092733,-0.138589,-0.526236,-0.174002,-0.721469,-0.670228,0.050803,0.100116,0.003373,-10.729574,-41.897987,-17.723267,,,,,,,
1558216537.755798,-0.251973,0.810213,0.474219,0.326359,-0.464990,-0.325105,-0.171864,-0.724434,-0.667576,0.057957,0.073067,0.029102,-10.110662,-41.983597,-17.883827,,,,,,,
1558216537.775775,-0.262210,0.820810,0.473294,0.531198,-0.546062,-0.098309,-0.176689,-0.731698,-0.658330,0.049797,0.058358,0.038961,-9.938532,-42.190880,-17.488129,,,,,,,
1558216537.795750,-0.270180,0.828242,0.473713,0.229860,-0.248513,-0.096770,-0.180474,-0.736744,-0.651643,-0.019996,0.040699,0.051942,-10.032728,-42.379684,-16.970154,,,,,,,
1558216537.815752,-0.271290,0.829141,0.471718,-0.074716,-0.001812,-0.176857,-0.181019,-0.737351,-0.650803,0.005787,0.016831,0.020051,-10.060560,-42.457024,-16.759056,,,,,,,
1558216537.835714,-0.269201,0.829520,0.465342,0.021357,-0.268767,-0.232718,-0.179585,-0.737607,-0.650911,0.028813,0.040281,-0.024016,-9.913346,-42.475487,-16.799944,,,,,,,
1558216537.855720,-0.272875,0.832021,0.458886,0.270625,-0.530080,-0.221141,-0.181478,-0.739293,-0.648468,0.016942,0.040319,-0.036194,-9.913346,-42.475487,-16.799944,,,,,,,
1558216537.875706,-0.280105,0.839767,0.454969,0.348600,-0.463948,-0.254610,-0.184572,-0.744488,-0.641616,-0.035521,0.025402,-0.027970,-9.819218,-42.593941,-16.553501,,,,,,,
1558216537.895681,-0.282088,0.845792,0.448353,0.205850,-0.229787,-0.380599,-0.184593,-0.748496,-0.636929,-0.000802,0.011131,-0.015445,-9.725143,-42.794060,-16.086317,,,,,,,
1558216537.915674,-0.277159,0.849900,0.437462,0.034703,-0.164430,-0.393990,-0.180608,-0.751214,-0.634868,0.005727,0.017572,-0.029835,-9.577228,-42.877007,-15.953637,,,,,,,
1558216537.935658,-0.274094,0.851848,0.428037,0.029128,-0.208588,-0.283341,-0.178265,-0.752499,-0.634009,-0.008335,0.024685,-0.060174,-9.183030,-43.000484,-15.852746,,,,,,,
1558216537.955631,-0.271721,0.853301,0.420762,0.191090,-0.152342,-0.273063,-0.176466,-0.753455,-0.633377,-0.007158,0.007178,-0.062165,-9.055236,-43.054008,-15.780826,,,,,,,
1558216537.975628,-0.268922,0.860365,0.413422,0.312713,-0.117198,-0.377259,-0.173274,-0.758081,-0.628721,-0.010304,0.014947,-0.052859,-8.923023,-43.093719,-15.747724,,,,,,,
1558216537.995588,-0.262192,0.869315,0.401994,0.356638,-0.094380,-0.514732,-0.167273,-0.763887,-0.623295,0.002890,0.016633,-0.046902,-8.457517,-43.342373,-15.316281,,,,,,,
1558216538.015568,-0.252283,0.878117,0.387442,0.366378,-0.070201,-0.571079,-0.159405,-0.769538,-0.618386,0.039608,0.028052,-0.008460,-8.000818,-43.525246,-15.040589,,,,,,,
1558216538.035580,-0.241228,0.888075,0.372794,0.369823,0.009066,-0.564979,-0.150720,-0.775859,-0.612639,0.037759,0.039729,0.003905,-7.635044,-43.674740,-14.795359,,,,,,,
1558216538.055565,-0.231907,0.897055,0.359029,0.334994,-0.175570,-0.460011,-0.143397,-0.781493,-0.607212,0.032923,0.043288,0.006504,-7.050699,-43.906158,-14.395002,,,,,,,
1558216538.075535,-0.230185,0.904743,0.349957,0.292952,-0.269207,-0.314673,-0.140976,-0.786267,-0.601590,0.012329,0.043347,-0.001559,-6.807690,-44.017414,-14.170458,,,,,,,
1558216538.095534,-0.227319,0.910387,0.342644,0.251168,-0.033297,-0.329529,-0.138249,-0.789741,-0.597659,-0.011547,0.041038,0.003482,-6.596826,-44.140297,-13.885066,,,,,,,
1558216538.115518,-0.217875,0.916567,0.332357,0.228247,0.082980,-0.406373,-0.131541,-0.793517,-0.594161,0.001353,0.032195,0.020889,-6.239479,-44.264076,-13.654292,,,,,,,
1558216538.135502,-0.207747,0.923297,0.319388,0.253279,-0.097979,-0.459333,-0.124412,-0.797595,-0.590224,0.010749,0.041812,0.033736,-5.845187,-44.380215,-13.450257,,,,,,,
1558216538.155486,-0.202716,0.930769,0.307792,0.327206,-0.237768,-0.375200,-0.120238,-0.802079,-0.584989,-0.003618,0.041459,0.047956,-5.571074,-44.474190,-13.254777,,,,,,,
1558216538.175443,-0.198868,0.938505,0.298955,0.308402,-0.109707,-0.332351,-0.116757,-0.806675,-0.579347,0.002652,0.045567,0.091356,-5.239293,-44.628956,-12.864120,,,,,,,
1558216538.195456,-0.189925,0.945794,0.287085,0.203370,-0.044810,-0.421498,-0.110458,-0.810962,-0.574578,0.028427,0.057513,0.071816,-4.933306,-44.735081,-12.614053,,,,,,,
1558216538.215421,-0.181623,0.950292,0.273584,0.136880,-0.183953,-0.399395,-0.105024,-0.813585,-0.571882,0.025388,0.059359,0.059644,-4.717721,-44.793175,-12.489753,,,,,,,
1558216538.235395,-0.179332,0.954875,0.265682,0.213267,-0.174558,-0.208134,-0.103047,-0.816241,-0.568447,-0.001124,0.062961,0.046443,-4.291433,-44.899422,-12.259902,,,,,,,
1558216538.255410,-0.179348,0.961078,0.262934,0.334799,-0.074635,-0.109924,-0.102152,-0.819809,-0.563452,-0.000357,0.038804,0.076254,-4.200232,-44.976486,-12.006370,,,,,,,
1558216538.275386,-0.178626,0.968222,0.260439,0.313559,-0.083056,-0.161269,-0.100702,-0.823879,-0.557747,-0.012931,0.037090,0.074944,-4.157842,-45.021896,-11.849918,,,,,,,
1558216538.295350,-0.176211,0.974302,0.254969,0.109558,-0.033578,-0.302953,-0.098474,-0.827310,-0.553047,-0.023565,0.050012,0.038185,-3.980404,-45.156349,-11.390335,,,,,,,
1558216538.315363,-0.164515,0.975902,0.242225,0.025071,0.122086,-0.410431,-0.091782,-0.828207,-0.552855,-0.000625,0.057379,0.028029,-3.660810,-45.195999,-11.340173,,,,,,,
1558216538.335317,-0.149628,0.979292,0.228435,0.166791,0.175280,-0.389523,-0.083123,-0.830103,-0.551380,0.016244,0.061975,0.025181,-3.466394,-45.210293,-11.344292,,,,,,,
1558216538.355328,-0.138317,0.985285,0.218268,0.299518,0.129312,-0.268145,-0.076194,-0.833430,-0.547348,0.049888,0.080439,0.075012,-2.906980,-45.307785,-11.110062,,,,,,,
1558216538.375316,-0.132614,0.991314,0.214083,0.229980,0.103510,-0.094421,-0.072405,-0.836746,-0.542783,0.026965,0.087860,0.086179,-2.737049,-45.367764,-10.906610,,,,,,,
1558216538.395300,-0.129725,0.992673,0.213152,-0.022368,0.120812,-0.013316,-0.070690,-0.837490,-0.541861,0.017300,0.042721,0.077842,-2.654862,-45.408180,-10.757702,,,,,,,
1558216538.415284,-0.124693,0.994033,0.211058,-0.007553,0.099622,0.004639,-0.067821,-0.838232,-0.541079,0.032924,0.032522,0.055255,-2.530682,-45.430901,-10.691504,,,,,,,
1558216538.435269,-0.126948,0.996227,0.213531,0.191961,-0.047169,0.088805,-0.068808,-0.839427,-0.539100,0.018484,0.020320,0.056067,-2.537558,-45.436623,-10.665531,,,,,,,
1558216538.455253,-0.131337,1.000535,0.219215,0.225317,0.079556,0.128480,-0.070699,-0.841760,-0.535203,-0.022197,0.000131,0.081605,-2.603289,-45.463135,-10.535922,,,,,,,
1558216538.475239,-0.135368,1.007091,0.225781,0.073313,0.106658,0.052818,-0.072109,-0.845281,-0.529434,-0.031086,-0.013407,0.080856,-2.783431,-45.556107,-10.078322,,,,,,,
1558216538.495213,-0.134097,1.007206,0.224318,-0.026053,-0.070610,-0.089888,-0.071423,-0.845343,-0.529429,-0.020389,-0.007029,0.046564,-2.783345,-45.561234,-10.055169,,,,,,,
1558216538.515207,-0.133357,1.007218,0.219985,0.002438,-0.157471,-0.114185,-0.071030,-0.845349,-0.529471,-0.017501,0.000104,0.024527,-2.734792,-45.561459,-10.067450,,,,,,,
1558216538.535192,-0.134361,1.008428,0.219009,0.068864,0.004002,-0.045322,-0.071425,-0.845995,-0.528385,-0.011354,-0.007872,0.007527,-2.676582,-45.573696,-10.027632,,,,,,,
1558216538.555149,-0.131697,1.010042,0.218271,0.077785,0.135050,-0.028046,-0.069838,-0.846854,-0.527220,-0.011827,-0.002557,0.026091,-2.631294,-45.590546,-9.962806,,,,,,,
