timestamp(unix),attitude_roll(radians),attitude_pitch(radians),attitude_yaw(radians),rotation_rate_x(radians/s),rotation_rate_y(radians/s),rotation_rate_z(radians/s),gravity_x(G),gravity_y(G),gravity_z(G),user_acc_x(G),user_acc_y(G),user_acc_z(G),magnetic_field_x(microteslas),magnetic_field_y(microteslas),magnetic_field_z(microteslas),latitude(degree),longitude(degree),altitude(meter),speed(m/s),course(degree),timestamp(unix),User Mark
1558216507.403264,-0.008019,0.581845,0.845729,-0.017717,0.310727,-0.143034,-0.006699,-0.549566,-0.835423,0.017075,0.003469,-0.015513,-8.731401,-36.007912,-30.964882,,,,,,,
1558216507.423247,-0.002467,0.579268,0.844095,-0.207797,0.180829,-0.026989,-0.002064,-0.547411,-0.836861,0.010609,0.007525,0.024483,-8.429404,-35.998299,-31.059597,,,,,,,
1558216507.443230,-0.002020,0.572732,0.844176,-0.385380,-0.076116,-0.005034,-0.001698,-0.541930,-0.840422,0.037403,-0.006562,0.035460,-8.332067,-35.905537,-31.192944,,,,,,,
1558216507.463215,-0.003023,0.564590,0.841611,-0.400571,-0.215728,-0.118488,-0.002554,-0.535070,-0.844804,0.028036,-0.009104,0.025972,-8.312406,-35.624756,-31.518435,,,,,,,
1558216507.483170,-0.006510,0.559678,0.837522,-0.135696,-0.301782,-0.186361,-0.005517,-0.530914,-0.847408,0.014443,0.009322,0.004879,-8.365929,-35.414497,-31.740442,,,,,,,
1558216507.503156,-0.004596,0.561701,0.830598,0.240524,0.074369,-0.375704,-0.003890,-0.532627,-0.846341,-0.021638,0.054248,0.065335,-8.323499,-35.432838,-31.731129,,,,,,,
1558216507.523168,0.001383,0.567531,0.821928,0.143627,0.051580,-0.403757,0.001166,-0.537552,-0.843230,-0.026526,-0.056076,-0.030610,-8.106361,-35.642303,-31.552242,,,,,,,
1558216507.543139,0.007857,0.569983,0.806506,0.179907,-0.098225,-0.790582,0.006615,-0.539618,-0.841884,-0.022743,-0.021692,0.037807,-7.862425,-35.764652,-31.475426,,,,,,,
1558216507.563129,0.019951,0.574074,0.785633,0.157649,0.225241,-0.854766,0.016752,-0.543058,-0.839528,-0.117368,0.197965,-0.038402,-7.064793,-36.121006,-31.256878,,,,,,,
1558216507.583121,0.035947,0.570756,0.777972,-0.273086,0.737219,0.012449,0.030243,-0.540268,-0.840949,-0.099625,0.168900,-0.034768,-6.385098,-36.158764,-31.359293,,,,,,,
1558216507.603090,0.054356,0.564954,0.784345,-0.322431,1.394290,0.286678,0.045887,-0.535377,-0.843366,0.026287,0.006691,0.045743,-6.067552,-36.010475,-31.592106,,,,,,,
1558216507.623078,0.081957,0.556891,0.792330,-0.497795,1.562493,0.470715,0.069496,-0.528550,-0.846053,-0.050010,0.072129,0.010710,-5.134520,-35.680298,-32.127621,,,,,,,
1558216507.643057,0.103547,0.547445,0.809998,-0.516775,1.446821,0.805901,0.088256,-0.520508,-0.849284,-0.028671,0.013366,0.008494,-4.557218,-35.273281,-32.659737,,,,,,,
1558216507.663037,0.117782,0.540574,0.830029,-0.412699,1.033989,0.772139,0.100755,-0.514629,-0.851473,-0.019822,-0.030019,-0.019774,-4.381584,-35.073849,-32.897690,,,,,,,
1558216507.683033,0.120651,0.534371,0.846042,-0.336130,0.279661,0.586683,0.103580,-0.509300,-0.854333,0.027616,-0.205727,-0.017753,-4.244553,-34.565948,-33.448616,,,,,,,
1558216507.703020,0.115333,0.533091,0.851728,0.117052,-0.442503,-0.094620,0.099109,-0.508198,-0.855518,0.061764,-0.073314,-0.058071,-4.484677,-34.392647,-33.595600,,,,,,,
1558216507.722993,0.108223,0.541047,0.838801,0.581164,-0.679311,-0.611121,0.092585,-0.515033,-0.852155,-0.083201,-0.036114,-0.061816,-4.623780,-34.557899,-33.406631,,,,,,,
1558216507.742994,0.107992,0.552652,0.825603,0.556867,-0.221243,-0.440203,0.091737,-0.524946,-0.846177,-0.064836,0.061476,0.003602,-4.576040,-35.131054,-32.810055,,,,,,,
1558216507.762978,0.108278,0.560404,0.813013,0.434991,-0.395057,-0.471858,0.091537,-0.531529,-0.842080,0.009751,-0.066143,0.059792,-4.415134,-35.483406,-32.450970,,,,,,,
1558216507.782963,0.101835,0.566661,0.804566,0.303016,-0.622386,-0.275557,0.085770,-0.536818,-0.839327,0.031891,-0.047502,0.005953,-4.422689,-35.703495,-32.207626,,,,,,,
1558216507.802947,0.094443,0.570863,0.796713,0.205478,-0.509854,-0.291641,0.079349,-0.540359,-0.837685,-0.025623,-0.015168,-0.030433,-4.639214,-35.960754,-31.889381,,,,,,,
1558216507.822929,0.089433,0.573709,0.793602,0.142204,-0.195153,0.001721,0.075014,-0.542751,-0.836537,-0.046785,0.005351,0.019215,-4.764923,-36.086483,-31.728409,,,,,,,
1558216507.842916,0.083950,0.575267,0.796167,0.220031,-0.125703,0.069712,0.070356,-0.544059,-0.836092,-0.017118,0.030387,-0.019209,-4.940043,-36.082203,-31.706488,,,,,,,
1558216507.862900,0.083622,0.581051,0.795207,0.275986,0.003841,-0.047512,0.069817,-0.548903,-0.832965,0.049506,0.042540,0.003910,-5.032598,-36.281891,-31.463125,,,,,,,
1558216507.882866,0.081834,0.586190,0.796543,0.180842,-0.050397,0.104566,0.068096,-0.553191,-0.830267,0.039600,0.017897,-0.014216,-5.055782,-36.419640,-31.299835,,,,,,,
1558216507.902868,0.082822,0.588656,0.799703,0.079577,0.262054,0.172602,0.068803,-0.555243,-0.828837,-0.009156,0.030005,-0.015371,-5.139499,-36.512165,-31.178167,,,,,,,
1558216507.922852,0.087142,0.588536,0.803810,-0.030602,0.399967,0.121520,0.072389,-0.555144,-0.828598,0.002394,0.010817,-0.013260,-5.088153,-36.509434,-31.189789,,,,,,,
1558216507.942819,0.093794,0.587269,0.807218,-0.062703,0.358943,0.142455,0.077965,-0.554090,-0.828798,-0.017205,-0.000949,-0.014418,-4.946130,-36.469032,-31.259817,,,,,,,
1558216507.962821,0.096179,0.586349,0.808323,-0.039104,0.027771,0.005848,0.079991,-0.553324,-0.829117,0.036037,-0.001471,-0.000351,-4.853253,-36.429955,-31.319885,,,,,,,
1558216507.982804,0.094737,0.586037,0.808403,0.017918,-0.107814,0.014204,0.078811,-0.553063,-0.829403,0.010269,0.007318,-0.003055,-4.841806,-36.392651,-31.364990,,,,,,,
1558216508.002777,0.092692,0.586800,0.809990,0.023430,-0.012590,0.096261,0.077076,-0.553699,-0.829142,0.001247,0.009067,0.011576,-4.906962,-36.403336,-31.342457,,,,,,,
1558216508.022773,0.092202,0.586562,0.811780,-0.059406,0.022651,0.045285,0.076681,-0.553501,-0.829311,0.002024,-0.005444,0.005352,-4.976228,-36.399345,-31.336174,,,,,,,
1558216508.042758,0.092507,0.586912,0.812268,0.044891,0.006218,0.024926,0.076916,-0.553792,-0.829095,0.001071,-0.002314,-0.007972,-4.980224,-36.390404,-31.345919,,,,,,,
1558216508.062742,0.090885,0.589472,0.812820,0.179521,-0.146643,0.062005,0.075443,-0.555922,-0.827804,0.011074,-0.004518,-0.015580,-5.005884,-36.425804,-31.300686,,,,,,,
1558216508.082726,0.085127,0.593951,0.814836,0.222642,-0.272546,0.134502,0.070462,-0.559639,-0.825735,0.016650,-0.002678,-0.013895,-5.092734,-36.501175,-31.198704,,,,,,,
1558216508.102694,0.076958,0.598465,0.818682,0.153477,-0.253120,0.160257,0.063520,-0.563375,-0.823756,-0.011564,-0.002314,0.010768,-5.333281,-36.628685,-31.008488,,,,,,,
1558216508.122694,0.072766,0.600542,0.820658,-0.058309,-0.007078,-0.037206,0.059981,-0.565090,-0.822846,-0.040846,0.002819,0.031892,-5.751562,-36.765587,-30.770798,,,,,,,
1558216508.142671,0.077370,0.597989,0.819502,-0.153129,0.289375,-0.042985,0.063880,-0.562981,-0.823997,-0.017310,0.013833,0.011970,-5.721273,-36.746063,-30.799747,,,,,,,
1558216508.162640,0.081117,0.593534,0.822682,-0.199865,0.384958,0.097756,0.067170,-0.559294,-0.826244,0.013747,0.006346,0.003719,-5.535554,-36.564888,-31.048309,,,,,,,
1558216508.182646,0.087295,0.591225,0.824481,-0.099861,0.342068,0.041909,0.072386,-0.557378,-0.827097,-0.008161,-0.018458,-0.019674,-5.348447,-36.461952,-31.201778,,,,,,,
1558216508.202608,0.093432,0.588982,0.827160,-0.182920,0.396619,0.181158,0.077576,-0.555515,-0.827880,-0.025712,0.008472,0.012511,-5.272025,-36.432137,-31.249577,,,,,,,
1558216508.222614,0.092004,0.582214,0.836850,-0.660528,-0.020087,0.460780,0.076737,-0.549875,-0.831715,0.016982,-0.054297,0.039585,-5.234670,-36.128830,-31.605957,,,,,,,
1558216508.242599,0.082548,0.566003,0.851011,-0.952482,-0.072349,0.535849,0.069595,-0.536263,-0.841177,-0.031692,-0.053306,0.025473,-5.619480,-35.649055,-32.081104,,,,,,,
1558216508.262584,0.074145,0.551286,0.857532,-0.548901,-0.282470,-0.018880,0.063102,-0.523783,-0.849511,0.042321,-0.054312,-0.028968,-5.830810,-35.316730,-32.409271,,,,,,,
1558216508.282551,0.073425,0.549331,0.853725,0.185705,-0.012851,-0.211091,0.062566,-0.522116,-0.850576,-0.016591,0.008002,-0.029352,-6.046104,-34.891735,-32.827465,,,,,,,
1558216508.302553,0.075959,0.556013,0.848676,0.440840,-0.076426,-0.125017,0.064455,-0.527804,-0.846917,0.020277,0.002368,-0.051200,-5.937897,-35.053276,-32.674763,,,,,,,
1558216508.322508,0.075910,0.563302,0.847372,0.298292,0.017554,0.018833,0.064120,-0.533981,-0.843062,0.011106,0.014389,-0.012071,-5.883648,-35.315865,-32.400665,,,,,,,
1558216508.342499,0.077587,0.566880,0.847823,0.072893,0.106493,0.033383,0.065385,-0.537003,-0.841043,0.005324,-0.005172,0.011880,-5.870625,-35.505306,-32.195339,,,,,,,
1558216508.362504,0.078891,0.565744,0.847453,-0.128540,-0.009914,-0.058643,0.066530,-0.536044,-0.841564,0.010146,-0.020292,0.028286,-5.807507,-35.516632,-32.194298,,,,,,,
1558216508.382478,0.077717,0.562264,0.845311,-0.180247,-0.211581,-0.092645,0.065686,-0.533103,-0.843497,0.019747,-0.007165,0.001715,-5.802155,-35.447575,-32.271278,,,,,,,
1558216508.402454,0.074242,0.559952,0.843745,-0.058917,-0.196284,-0.056048,0.062846,-0.531145,-0.844947,0.019674,0.003878,-0.018701,-5.864438,-35.347637,-32.369488,,,,,,,
1558216508.422435,0.072196,0.559436,0.842366,0.061564,-0.128184,-0.038218,0.061136,-0.530709,-0.845346,0.018133,0.003136,-0.037405,-5.928754,-35.339584,-32.366562,,,,,,,
1558216508.442431,0.072244,0.560916,0.841646,0.059998,0.051544,-0.019417,0.061121,-0.531962,-0.844560,-0.006860,0.000590,-0.026320,-5.941709,-35.346882,-32.356216,,,,,,,
1558216508.462426,0.074812,0.560412,0.840984,-0.074894,0.132555,-0.040102,0.063309,-0.531535,-0.844667,-0.007432,-0.021032,-0.019636,-5.862550,-35.384617,-32.329403,,,,,,,
1558216508.482402,0.078081,0.557602,0.839882,-0.136686,0.110662,-0.054241,0.066187,-0.529153,-0.845941,0.004248,0.000222,-0.011999,-5.734058,-35.312447,-32.431198,,,,,,,
1558216508.502395,0.080036,0.555443,0.839123,-0.068746,0.063829,-0.032215,0.067931,-0.527320,-0.846947,0.004152,-0.004388,-0.012260,-5.682868,-35.271740,-32.484463,,,,,,,
1558216508.522379,0.081555,0.555628,0.838123,0.051495,0.038848,-0.056913,0.069210,-0.527477,-0.846746,-0.009716,0.002880,-0.026393,-5.582150,-35.231079,-32.545994,,,,,,,
1558216508.542338,0.083225,0.556730,0.836490,0.069813,0.097916,-0.075550,0.070575,-0.528412,-0.846049,-0.012119,-0.001815,-0.013890,-5.523232,-35.274178,-32.509342,,,,,,,
1558216508.562347,0.086250,0.557055,0.836153,0.034820,0.182800,0.019188,0.073120,-0.528689,-0.845660,0.001068,0.000933,-0.019330,-5.449689,-35.300930,-32.492706,,,,,,,
1558216508.582331,0.089502,0.556776,0.837777,0.053930,0.202894,0.094130,0.075883,-0.528452,-0.845565,-0.005219,0.016367,-0.004685,-5.316025,-35.293358,-32.523064,,,,,,,
1558216508.602315,0.092327,0.559384,0.840041,0.089091,0.210102,0.089957,0.078144,-0.530664,-0.843972,-0.012897,0.009683,0.055352,-5.269608,-35.335457,-32.484882,,,,,,,
1558216508.622271,0.090608,0.560491,0.841575,0.031486,-0.159579,0.070358,0.076640,-0.531602,-0.843520,0.026678,-0.005385,0.015441,-5.245691,-35.357544,-32.464722,,,,,,,
1558216508.642283,0.087045,0.560971,0.843235,0.010451,-0.089730,0.053927,0.073611,-0.532009,-0.843533,-0.022403,0.008022,-0.012104,-5.443977,-35.375553,-32.412411,,,,,,,
1558216508.662268,0.087472,0.561312,0.843296,0.014263,0.070825,-0.006457,0.073956,-0.532297,-0.843321,-0.020077,0.000590,0.026747,-5.468602,-35.383694,-32.399376,,,,,,,
1558216508.682222,0.086815,0.560446,0.843761,-0.074741,-0.111519,0.028027,0.073441,-0.531564,-0.843828,-0.002854,-0.010169,0.021685,-5.446090,-35.378506,-32.408825,,,,,,,
1558216508.702208,0.082230,0.559791,0.844593,-0.062442,-0.250031,0.041657,0.069601,-0.531009,-0.844503,-0.003866,-0.002896,0.013936,-5.589849,-35.339973,-32.426392,,,,,,,
1558216508.722195,0.077356,0.558440,0.845459,-0.070734,-0.190824,0.021932,0.065538,-0.529864,-0.845546,0.006590,-0.001523,-0.035832,-5.768191,-35.291634,-32.447796,,,,,,,
1558216508.742189,0.076054,0.556897,0.845715,0.009756,0.011709,0.028205,0.064500,-0.528555,-0.846445,0.011779,0.006903,-0.036627,-5.768191,-35.291634,-32.447796,,,,,,,
1558216508.762165,0.076542,0.558063,0.847717,0.070524,0.083409,0.123960,0.064865,-0.529544,-0.845799,0.013549,0.015338,-0.030101,-5.844041,-35.232224,-32.498749,,,,,,,
1558216508.782145,0.076702,0.559916,0.850262,0.142706,0.020661,0.120214,0.064926,-0.531115,-0.844809,0.007279,0.002596,-0.022669,-5.870944,-35.273090,-32.449528,,,,,,,
1558216508.802156,0.074616,0.563510,0.852380,0.190358,-0.065240,0.098077,0.063021,-0.534157,-0.843033,-0.000444,0.002068,-0.017761,-5.870944,-35.273090,-32.449528,,,,,,,
1558216508.822142,0.072347,0.567370,0.853982,0.171270,-0.063092,0.054308,0.060958,-0.537416,-0.841111,-0.004608,-0.006026,-0.011992,-6.019169,-35.420471,-32.261288,,,,,,,
1558216508.842126,0.071746,0.570123,0.854509,0.105550,0.010150,0.029333,0.060346,-0.539735,-0.839669,-0.001524,-0.008849,0.001565,-6.125275,-35.570244,-32.076000,,,,,,,
1558216508.862111,0.071679,0.571470,0.855302,0.036303,0.005269,0.055922,0.060238,-0.540869,-0.838947,0.005146,-0.003595,0.001316,-6.125275,-35.570244,-32.076000,,,,,,,
1558216508.882094,0.070747,0.572718,0.856978,0.068009,-0.044512,0.099244,0.059409,-0.541918,-0.838329,0.008417,-0.002912,0.001018,-6.188038,-35.637390,-31.989296,,,,,,,
1558216508.902079,0.067337,0.575252,0.859190,0.111284,-0.153600,0.106775,0.056456,-0.544046,-0.837154,0.000871,-0.008994,-0.004628,-6.198441,-35.650482,-31.972696,,,,,,,
1558216508.922063,0.062471,0.578121,0.861722,0.182877,-0.085322,0.074391,0.052285,-0.546451,-0.835857,-0.015877,-0.001187,-0.009571,-6.445678,-35.742268,-31.820976,,,,,,,
1558216508.942036,0.060740,0.581606,0.863365,0.173568,-0.006010,0.066602,0.050722,-0.549367,-0.834040,-0.002504,0.002324,-0.014379,-6.600039,-35.867950,-31.647436,,,,,,,
1558216508.962009,0.060038,0.583731,0.865124,0.046060,0.062302,0.062884,0.050066,-0.551141,-0.832909,-0.008715,-0.004905,-0.004570,-6.617745,-35.883385,-31.626240,,,,,,,
1558216508.982016,0.060764,0.583964,0.866403,-0.017704,0.080560,0.033114,0.050663,-0.551335,-0.832744,-0.005116,-0.001201,-0.000340,-6.669086,-35.941658,-31.549194,,,,,,,
1558216509.002000,0.060991,0.583898,0.867506,0.006548,0.022336,0.059267,0.050855,-0.551281,-0.832768,-0.002850,0.004970,0.006368,-6.660232,-35.935104,-31.558525,,,,,,,
1558216509.021952,0.059711,0.584347,0.869465,0.061636,-0.031775,0.116446,0.049774,-0.551655,-0.832586,0.013336,0.015446,-0.001780,-6.706697,-35.919285,-31.566689,,,,,,,
1558216509.041967,0.057513,0.585518,0.872474,0.077536,-0.046640,0.128060,0.047907,-0.552631,-0.832048,0.005972,0.016437,-0.001387,-6.759476,-35.931831,-31.541149,,,,,,,
1558216509.061939,0.054598,0.588022,0.874587,0.180904,-0.048361,0.048054,0.045405,-0.554716,-0.830800,-0.014963,-0.003496,-0.003596,-6.927010,-35.975636,-31.454742,,,,,,,
1558216509.081915,0.052542,0.593304,0.875121,0.282174,-0.024649,0.004589,0.043542,-0.559103,-0.827954,-0.024698,-0.006418,0.003766,-7.041726,-36.117767,-31.265823,,,,,,,
1558216509.101906,0.052132,0.598244,0.875464,0.199189,0.002254,0.033608,0.043058,-0.563193,-0.825203,-0.013639,0.003531,0.003548,-7.046159,-36.205666,-31.163000,,,,,,,
1558216509.121876,0.051530,0.601989,0.877081,0.082229,0.047279,0.045690,0.042453,-0.566283,-0.823117,-0.010165,0.002944,0.010388,-7.104271,-36.400261,-30.922184,,,,,,,
1558216509.141890,0.053231,0.602377,0.877724,-0.021771,0.124923,0.002576,0.043841,-0.566603,-0.822824,-0.026767,-0.027650,0.027856,-7.093691,-36.424442,-30.896124,,,,,,,
1558216509.161855,0.056504,0.601112,0.876067,-0.046082,0.134424,-0.091305,0.046574,-0.565560,-0.823391,-0.020360,-0.001945,0.010281,-7.050744,-36.413719,-30.918591,,,,,,,
1558216509.181857,0.060756,0.601095,0.874176,0.025265,0.146748,-0.081521,0.050076,-0.565546,-0.823195,-0.021740,-0.008123,-0.012437,-6.832702,-36.400612,-30.982904,,,,,,,
1558216509.201842,0.064150,0.602377,0.871872,0.063355,0.079968,-0.073589,0.052823,-0.566602,-0.822296,0.002978,-0.013064,-0.000992,-6.690083,-36.450527,-30.955334,,,,,,,
1558216509.221825,0.065702,0.602680,0.870922,-0.017717,0.051934,-0.020540,0.054087,-0.566852,-0.822042,0.004293,0.007496,0.001088,-6.644159,-36.472542,-30.939289,,,,,,,
1558216509.241782,0.066608,0.600928,0.870447,-0.116788,0.022835,-0.035845,0.054899,-0.565409,-0.822982,0.001269,-0.002569,-0.001679,-6.577040,-36.445686,-30.985247,,,,,,,
1558216509.261795,0.068111,0.598464,0.869463,-0.103869,0.057618,-0.055787,0.056230,-0.563374,-0.824286,-0.001985,0.006840,-0.013101,-6.521118,-36.374805,-31.080210,,,,,,,
1558216509.281770,0.069486,0.598273,0.868871,0.045016,0.037886,-0.004610,0.057371,-0.563216,-0.824316,0.007006,0.012099,-0.021738,-6.470323,-36.348564,-31.121498,,,,,,,
1558216509.301745,0.068479,0.599707,0.869243,0.072265,-0.077425,0.027405,0.056485,-0.564400,-0.823566,-0.006284,-0.000678,-0.025173,-6.473930,-36.389717,-31.072620,,,,,,,
1558216509.321747,0.066430,0.600072,0.869775,0.010708,-0.035926,-0.004276,0.054784,-0.564702,-0.823475,-0.010564,-0.003642,-0.024853,-6.557270,-36.405617,-31.036499,,,,,,,
1558216509.341707,0.067859,0.599322,0.869256,-0.035663,0.096412,-0.025467,0.055990,-0.564083,-0.823818,0.003001,-0.001545,-0.011281,-6.551907,-36.400780,-31.043304,,,,,,,
1558216509.361716,0.070466,0.598251,0.868800,-0.050562,0.104971,-0.009382,0.058179,-0.563198,-0.824271,0.006930,-0.003193,-0.003518,-6.449948,-36.364841,-31.106709,,,,,,,
1558216509.381700,0.071915,0.597949,0.868555,0.021533,0.020042,-0.002664,0.059386,-0.562949,-0.824356,0.005998,-0.002435,-0.008423,-6.374648,-36.347763,-31.142168,,,,,,,
1558216509.401684,0.071640,0.599294,0.868372,0.066063,-0.034100,-0.002079,0.059105,-0.564059,-0.823616,-0.000084,-0.007016,-0.002586,-6.372747,-36.368370,-31.118492,,,,,,,
1558216509.421668,0.070656,0.600672,0.868341,0.057516,-0.040370,-0.002092,0.058239,-0.565197,-0.822898,-0.004818,-0.005207,-0.003900,-6.399979,-36.425018,-31.046566,,,,,,,
1558216509.441651,0.070032,0.601317,0.868393,0.009838,0.017984,-0.022923,0.057700,-0.565729,-0.822570,-0.009635,-0.003637,-0.001588,-6.428123,-36.451904,-31.009171,,,,,,,
1558216509.461637,0.070913,0.601336,0.867996,-0.041982,0.104876,-0.058432,0.058424,-0.565745,-0.822508,-0.014342,-0.010839,0.002165,-6.434213,-36.458183,-31.000526,,,,,,,
1558216509.481621,0.072980,0.600770,0.866832,-0.043229,0.050981,-0.053610,0.060148,-0.565278,-0.822705,-0.001753,-0.004272,0.009244,-6.339839,-36.446510,-31.033680,,,,,,,
1558216509.501584,0.073562,0.600218,0.865966,-0.002131,-0.051686,-0.001178,0.060649,-0.564822,-0.822981,0.009251,0.006122,-0.003389,-6.323905,-36.449570,-31.033337,,,,,,,
1558216509.521590,0.071204,0.600184,0.866789,0.075396,-0.089036,0.034827,0.058710,-0.564794,-0.823141,-0.014917,0.010686,-0.013056,-6.315925,-36.430237,-31.057655,,,,,,,
1558216509.541574,0.068606,0.601695,0.867551,0.088416,-0.043754,-0.030921,0.056513,-0.566041,-0.822438,-0.023462,0.015565,-0.008022,-6.439960,-36.474953,-30.979601,,,,,,,
1558216509.561532,0.067470,0.602924,0.867048,0.034230,-0.024484,-0.056402,0.055531,-0.567053,-0.821807,-0.017018,0.007971,0.010192,-6.495005,-36.499527,-30.939137,,,,,,,
1558216509.581543,0.067071,0.603293,0.866074,0.017126,-0.038110,-0.038396,0.055190,-0.567357,-0.821620,-0.014128,0.008199,0.008952,-6.496756,-36.519802,-30.914841,,,,,,,
1558216509.601527,0.066104,0.602532,0.866100,0.004349,-0.018956,0.003416,0.054424,-0.566731,-0.822104,-0.008739,0.018391,-0.007868,-6.518515,-36.524773,-30.904383,,,,,,,
1558216509.621488,0.065195,0.601765,0.866411,-0.021120,-0.006177,-0.022104,0.053705,-0.566098,-0.822587,-0.021783,0.012326,-0.015624,-6.538473,-36.505810,-30.922565,,,,,,,
1558216509.641495,0.065277,0.601022,0.865878,-0.003904,0.035964,-0.053715,0.053799,-0.565486,-0.823002,-0.026166,0.011485,-0.018368,-6.555789,-36.481159,-30.947983,,,,,,,
1558216509.661480,0.066018,0.600155,0.864947,-0.044267,0.055185,-0.081284,0.054442,-0.564771,-0.823450,-0.018797,-0.002948,-0.013174,-6.515464,-36.454353,-30.988058,,,,,,,
1558216509.681454,0.067043,0.598918,0.863490,-0.001803,0.023257,-0.076216,0.055332,-0.563750,-0.824090,-0.013722,0.001265,-0.025641,-6.462721,-36.427902,-31.030180,,,,,,,
1558216509.701447,0.066866,0.599321,0.862367,0.060775,-0.037297,-0.058595,0.055172,-0.564082,-0.823873,-0.017910,0.000453,-0.020777,-6.442515,-36.427113,-31.035305,,,,,,,
1558216509.721431,0.066729,0.600564,0.860537,0.066218,-0.021540,-0.104348,0.055012,-0.565108,-0.823181,-0.019718,-0.016725,-0.016052,-6.454224,-36.473980,-30.977777,,,,,,,
1558216509.741403,0.067756,0.601434,0.858203,0.007909,0.042157,-0.123001,0.055824,-0.565825,-0.822633,-0.016273,-0.013078,-0.007002,-6.418478,-36.513039,-30.939163,,,,,,,
1558216509.761400,0.069076,0.601074,0.856121,-0.021106,-0.015744,-0.066993,0.056924,-0.565528,-0.822762,-0.005822,-0.008477,-0.001685,-6.331037,-36.532532,-30.934166,,,,,,,
1558216509.781383,0.067655,0.601639,0.855373,0.074313,-0.113429,-0.025145,0.055733,-0.565995,-0.822523,-0.019127,-0.003311,-0.019335,-6.334767,-36.544052,-30.919796,,,,,,,
1558216509.801369,0.062800,0.604089,0.855865,0.142419,-0.132862,-0.054100,0.051652,-0.568013,-0.821397,-0.042237,-0.011241,-0.014662,-6.446278,-36.606373,-30.822878,,,,,,,
1558216509.821341,0.060423,0.606278,0.854307,0.078717,-0.109364,-0.113713,0.049624,-0.569813,-0.820275,-0.042299,-0.011501,-0.009025,-6.516364,-36.649883,-30.756361,,,,,,,
1558216509.841328,0.057598,0.607505,0.852687,0.085262,-0.053425,-0.143088,0.047266,-0.570821,-0.819713,-0.031458,-0.000896,-0.018589,-6.618143,-36.745041,-30.620792,,,,,,,
1558216509.861308,0.056925,0.608577,0.850789,0.103458,-0.004844,-0.104171,0.046680,-0.571701,-0.819133,-0.033832,0.010803,-0.010472,-6.615678,-36.792797,-30.563932,,,,,,,
1558216509.881288,0.057621,0.610835,0.848526,0.126956,0.008737,-0.127509,0.047175,-0.573552,-0.817810,-0.037440,-0.000041,-0.002472,-6.616611,-36.817684,-30.533741,,,,,,,
1558216509.901264,0.057391,0.614327,0.846137,0.130295,0.021295,-0.195712,0.046872,-0.576409,-0.815816,-0.029874,-0.020423,0.003789,-6.581231,-36.964237,-30.363853,,,,,,,
1558216509.921273,0.060347,0.616685,0.839862,0.057997,-0.009165,-0.318840,0.049201,-0.578334,-0.814315,-0.017203,-0.009130,0.009170,-6.478758,-37.052841,-30.277769,,,,,,,
1558216509.941253,0.064782,0.616343,0.831799,-0.010107,-0.003527,-0.322044,0.052825,-0.578055,-0.814286,-0.009383,0.007742,0.004396,-6.349353,-37.130592,-30.209862,,,,,,,
1558216509.961230,0.068056,0.614467,0.825759,0.056785,-0.000534,-0.205586,0.055564,-0.576523,-0.815189,-0.009132,0.030091,-0.012341,-6.021527,-37.150459,-30.252529,,,,,,,
1558216509.981227,0.069652,0.616748,0.821904,0.161918,-0.043258,-0.132243,0.056774,-0.578386,-0.813786,-0.022579,0.004029,0.011814,-5.917451,-37.207161,-30.203339,,,,,,,
1558216510.001211,0.070366,0.620166,0.817665,0.122295,-0.115051,-0.198138,0.057216,-0.581170,-0.811768,-0.009990,-0.009604,0.029893,-5.861468,-37.294724,-30.106108,,,,,,,
1558216510.021195,0.070882,0.621486,0.811033,0.071096,-0.194213,-0.302499,0.057580,-0.582244,-0.810972,0.001838,-0.003297,0.016386,-5.762193,-37.426346,-29.961582,,,,,,,
1558216510.041179,0.072167,0.622304,0.803192,0.061617,-0.159268,-0.293631,0.058587,-0.582909,-0.810423,0.007102,0.003639,0.000166,-5.636389,-37.503334,-29.889158,,,,,,,
1558216510.061164,0.072791,0.623208,0.796785,0.076441,-0.158208,-0.239159,0.059055,-0.583643,-0.809860,-0.009387,-0.000906,-0.026016,-5.542264,-37.551643,-29.846081,,,,,,,
1558216510.081147,0.072508,0.625053,0.790799,0.151033,-0.151258,-0.276400,0.058748,-0.585140,-0.808801,-0.026811,-0.008121,-0.032843,-5.431806,-37.657547,-29.732733,,,,,,,
1558216510.101114,0.075576,0.627293,0.782472,0.104626,-0.054940,-0.352385,0.061129,-0.586955,-0.807309,-0.018573,-0.006246,-0.014057,-5.349411,-37.739510,-29.643614,,,,,,,
1558216510.121095,0.080664,0.627408,0.773035,0.006896,-0.012207,-0.393693,0.065231,-0.587049,-0.806919,-0.013549,-0.003039,-0.008510,-5.175076,-37.813095,-29.580727,,,,,,,
1558216510.141100,0.086233,0.627296,0.763023,0.071796,-0.030545,-0.411967,0.069729,-0.586958,-0.806609,0.000385,-0.006441,-0.022874,-4.740446,-37.888184,-29.557476,,,,,,,
1558216510.161063,0.090591,0.629374,0.752399,0.173670,-0.130452,-0.420315,0.073133,-0.588639,-0.805081,0.008044,0.012543,-0.011126,-4.465130,-37.994995,-29.463093,,,,,,,
1558216510.181068,0.093486,0.632178,0.741870,0.173475,-0.183280,-0.405874,0.075309,-0.590903,-0.803220,0.009209,0.017783,-0.003161,-4.346991,-38.065422,-29.389761,,,,,,,
1558216510.201052,0.096418,0.634185,0.731118,0.153472,-0.133556,-0.445984,0.077550,-0.592521,-0.801814,-0.007756,-0.000848,-0.014043,-4.023605,-38.261215,-29.180832,,,,,,,
1558216510.221037,0.102204,0.635446,0.719267,0.115579,-0.016071,-0.474784,0.082112,-0.593536,-0.800608,-0.003178,0.010864,-0.012732,-3.732239,-38.361000,-29.088394,,,,,,,
1558216510.241020,0.109571,0.635818,0.707595,0.086952,0.030625,-0.449804,0.087983,-0.593836,-0.799761,-0.004044,0.016474,-0.008878,-3.551816,-38.410137,-29.046112,,,,,,,
1558216510.260986,0.116273,0.636729,0.696645,0.143130,-0.025638,-0.413998,0.093278,-0.594569,-0.798616,0.006728,0.009623,-0.003188,-3.010876,-38.513275,-28.970551,,,,,,,
1558216510.280983,0.120520,0.639434,0.685395,0.203394,-0.171891,-0.460190,0.096475,-0.596741,-0.796613,-0.004633,-0.006134,-0.004565,-2.795593,-38.600731,-28.875580,,,,,,,
1558216510.300974,0.124540,0.642108,0.672565,0.176859,-0.170768,-0.509313,0.099478,-0.598885,-0.794633,-0.012076,-0.004997,-0.003341,-2.606198,-38.708702,-28.748480,,,,,,,
1558216510.320958,0.129373,0.643308,0.659226,0.108977,-0.114451,-0.549398,0.103225,-0.599845,-0.793429,-0.016784,0.011360,-0.005170,-2.168758,-38.884663,-28.546635,,,,,,,
1558216510.340922,0.135861,0.643180,0.645702,0.111320,-0.040446,-0.531605,0.108381,-0.599743,-0.792819,-0.014005,0.024288,-0.013532,-1.888832,-38.945114,-28.484055,,,,,,,
1558216510.360926,0.143340,0.644396,0.632234,0.148590,-0.035354,-0.529391,0.114203,-0.600716,-0.791264,-0.008719,0.017525,-0.015591,-1.608475,-38.985214,-28.446386,,,,,,,
1558216510.380911,0.149849,0.645559,0.618265,0.168529,-0.132739,-0.552728,0.119246,-0.601645,-0.789812,-0.002791,0.002860,-0.007719,-1.031594,-39.120678,-28.286736,,,,,,,
1558216510.400889,0.154116,0.646666,0.603791,0.184324,-0.206888,-0.602536,0.122513,-0.602529,-0.788638,-0.021515,0.010992,-0.014417,-0.776874,-39.194489,-28.192543,,,,,,,
1558216510.420879,0.160100,0.648029,0.588099,0.201671,-0.112914,-0.608028,0.127099,-0.603616,-0.787079,-0.024346,0.035821,-0.018219,-0.435904,-39.294712,-28.060051,,,,,,,
1558216510.440863,0.168222,0.648881,0.573075,0.116637,-0.018394,-0.581638,0.133401,-0.604295,-0.785513,-0.005639,0.024339,0.012717,0.074179,-39.396957,-27.919619,,,,,,,
1558216510.460847,0.175537,0.648325,0.558595,0.096354,-0.054289,-0.622568,0.139203,-0.603852,-0.784847,-0.028378,0.003999,-0.015751,0.514805,-39.445038,-27.846985,,,,,,,
1558216510.480806,0.183387,0.649291,0.542050,0.243204,-0.092135,-0.674058,0.145252,-0.604622,-0.783157,-0.035862,0.009773,-0.024399,0.832952,-39.484276,-27.783611,,,,,,,
1558216510.500813,0.190852,0.651631,0.524835,0.280359,-0.118744,-0.665741,0.150826,-0.606484,-0.780659,-0.016290,0.022850,0.008290,1.365428,-39.614807,-27.575954,,,,,,,
1558216510.520793,0.198490,0.653516,0.507489,0.186602,-0.146801,-0.672491,0.156559,-0.607981,-0.778362,-0.024814,0.019160,0.022427,1.812247,-39.729057,-27.385189,,,,,,,
1558216510.540773,0.206551,0.653285,0.489518,0.117550,-0.126429,-0.721463,0.162857,-0.607798,-0.777213,-0.029403,0.018717,0.014319,2.037495,-39.763367,-27.319487,,,,,,,
1558216510.560754,0.214904,0.652375,0.471228,0.146268,-0.133983,-0.723647,0.169461,-0.607075,-0.776365,-0.020367,0.036214,-0.006060,2.776338,-39.805973,-27.192043,,,,,,,
1558216510.580753,0.220403,0.653075,0.453645,0.214651,-0.344573,-0.646602,0.173635,-0.607632,-0.775006,-0.038503,0.016781,-0.023593,3.213181,-39.850559,-27.078390,,,,,,,
1558216510.600733,0.223367,0.654915,0.435904,0.245427,-0.397666,-0.700468,0.175683,-0.609092,-0.773397,-0.054726,0.006828,-0.024730,3.373574,-39.890163,-27.000458,,,,,,,
1558216510.620721,0.230306,0.655800,0.415211,0.211216,-0.184183,-0.843652,0.180922,-0.609794,-0.771634,-0.049849,-0.019479,-0.034763,3.955331,-40.004784,-26.750763,,,,,,,
1558216510.640706,0.242455,0.654868,0.392496,0.141468,-0.057064,-0.903347,0.190419,-0.609055,-0.769930,-0.015508,0.003830,-0.022489,4.586842,-40.028057,-26.614779,,,,,,,
1558216510.660689,0.254303,0.653433,0.369487,0.182692,-0.149253,-0.911670,0.199748,-0.607916,-0.768465,-0.017604,0.008154,-0.024732,4.930804,-40.022186,-26.562054,,,,,,,
1558216510.680673,0.264923,0.653357,0.345134,0.277204,-0.237545,-0.954078,0.207910,-0.607856,-0.766345,-0.008431,0.004432,-0.023297,5.904892,-40.030590,-26.349857,,,,,,,
1558216510.700659,0.275135,0.653827,0.320062,0.283538,-0.248132,-0.942430,0.215647,-0.608228,-0.763908,0.021322,0.011594,-0.002969,6.538898,-40.061157,-26.152960,,,,,,,
1558216510.720613,0.285064,0.653471,0.295736,0.229296,-0.231985,-0.938048,0.223282,-0.607946,-0.761936,0.020218,0.006917,-0.003414,7.004056,-40.071873,-26.015749,,,,,,,
1558216510.740605,0.295999,0.651966,0.271233,0.203957,-0.177976,-0.958905,0.231867,-0.606751,-0.760323,0.016485,0.002884,-0.023917,7.809361,-40.038887,-25.836643,,,,,,,
1558216510.760582,0.307058,0.650687,0.246919,0.238969,-0.199254,-0.928119,0.240495,-0.605733,-0.758452,0.036299,0.008702,-0.031724,8.313389,-40.005836,-25.730362,,,,,,,
1558216510.780577,0.316912,0.650461,0.223105,0.309038,-0.242918,-0.899654,0.248000,-0.605553,-0.756176,0.039430,0.011361,-0.037526,8.792906,-39.979462,-25.611681,,,,,,,
1558216510.800556,0.326073,0.651099,0.198700,0.354659,-0.297091,-0.917218,0.254793,-0.606061,-0.753505,0.039824,0.033063,-0.022328,9.684350,-39.965569,-25.310028,,,,,,,
1558216510.820536,0.334307,0.652334,0.174699,0.380015,-0.326728,-0.854491,0.260742,-0.607043,-0.750674,0.047760,0.037433,-0.017483,10.246725,-39.968674,-25.082676,,,,,,,
1558216510.840547,0.342040,0.653895,0.151359,0.369451,-0.303422,-0.857479,0.266222,-0.608283,-0.747742,0.049681,0.032782,-0.018692,10.503403,-39.976582,-24.963617,,,,,,,
1558216510.860532,0.350697,0.654285,0.127894,0.314160,-0.288346,-0.865920,0.272603,-0.608592,-0.745187,0.057521,0.040858,0.001763,11.312827,-39.963093,-24.629290,,,,,,,
1558216510.880503,0.357533,0.654250,0.105405,0.326638,-0.358109,-0.821737,0.277699,-0.608564,-0.743326,0.057751,0.048292,-0.008017,11.831123,-39.916218,-24.461216,,,,,,,
1558216510.900500,0.364078,0.655431,0.084040,0.353322,-0.299995,-0.742153,0.282302,-0.609501,-0.740820,0.052492,0.058475,-0.010462,12.069961,-39.901154,-24.368938,,,,,,,
1558216510.920454,0.370789,0.656255,0.064288,0.298057,-0.255253,-0.703334,0.287084,-0.610154,-0.738441,0.085810,0.053498,0.005729,12.742660,-39.874123,-24.068855,,,,,,,
1558216510.940469,0.376939,0.656062,0.045256,0.252186,-0.290970,-0.716525,0.291663,-0.610001,-0.736771,0.066811,0.041519,0.015656,13.175505,-39.825462,-23.915886,,,,,,,
1558216510.960453,0.381859,0.655099,0.025552,0.247671,-0.387193,-0.755885,0.295503,-0.609238,-0.735872,0.057142,0.037125,0.016679,13.390638,-39.789036,-23.856956,,,,,,,
1558216510.980437,0.387076,0.654209,0.004892,0.288132,-0.379993,-0.747243,0.299543,-0.608531,-0.734822,0.066515,0.029415,0.007695,14.043719,-39.652763,-23.707863,,,,,,,
1558216511.000420,0.392556,0.653750,-0.014336,0.241573,-0.266554,-0.684271,0.303673,-0.608167,-0.733427,0.085213,0.039701,0.015181,14.461873,-39.577213,-23.582392,,,,,,,
1558216511.020404,0.398814,0.652282,-0.031348,0.172589,-0.184740,-0.642973,0.308603,-0.607001,-0.732334,0.075629,0.036262,0.015522,14.669237,-39.533154,-23.528149,,,,,,,
1558216511.040369,0.405764,0.649748,-0.048586,0.187156,-0.270379,-0.607484,0.314291,-0.604986,-0.731583,0.079874,0.060690,0.022385,15.087560,-39.426109,-23.443090,,,,,,,
1558216511.060352,0.407939,0.649108,-0.064110,0.227038,-0.424853,-0.567292,0.316035,-0.604476,-0.731253,0.078557,0.043731,0.029989,15.664632,-39.255882,-23.350071,,,,,,,
1558216511.080354,0.406981,0.648790,-0.079166,0.212891,-0.516732,-0.562845,0.315410,-0.604223,-0.731732,0.060612,0.031316,0.026287,15.780661,-39.220856,-23.330795,,,,,,,
1558216511.100330,0.409672,0.645777,-0.095802,0.148394,-0.396989,-0.591648,0.318102,-0.601819,-0.732547,0.028242,0.026532,-0.002072,16.011297,-39.133804,-23.319828,,,,,,,
1558216511.120311,0.414858,0.641276,-0.112208,0.103247,-0.228755,-0.640257,0.322985,-0.598218,-0.733359,0.041227,0.040097,-0.005303,16.537537,-38.896706,-23.349237,,,,,,,
1558216511.140291,0.421182,0.636961,-0.128337,0.109646,-0.211830,-0.611265,0.328669,-0.594755,-0.733651,0.044745,0.044706,0.003716,16.537537,-38.896706,-23.349237,,,,,,,
1558216511.160267,0.428726,0.631856,-0.145466,0.147504,-0.331393,-0.564342,0.335452,-0.590644,-0.733902,0.038648,0.017737,-0.003067,17.245623,-38.570145,-23.378693,,,,,,,
1558216511.180276,0.431302,0.629693,-0.160852,0.198634,-0.333817,-0.593152,0.337874,-0.588897,-0.734194,0.030458,0.016341,-0.011472,17.869038,-38.285908,-23.377716,,,,,,,
1558216511.200263,0.435837,0.626747,-0.176581,0.126788,-0.185507,-0.627024,0.341932,-0.586513,-0.734224,0.026873,0.019161,-0.013930,17.869038,-38.285908,-23.377716,,,,,,,
1558216511.220247,0.446009,0.619978,-0.193661,0.037770,-0.073017,-0.646309,0.351087,-0.581017,-0.734273,0.039446,0.018777,-0.003535,18.770035,-37.860687,-23.364189,,,,,,,
1558216511.240232,0.454293,0.614899,-0.208671,0.075117,-0.035126,-0.623497,0.358448,-0.576876,-0.733982,0.036618,0.007388,-0.015408,19.290073,-37.604366,-23.354563,,,,,,,
1558216511.260216,0.462584,0.611099,-0.223654,0.140036,-0.032271,-0.607405,0.365497,-0.573768,-0.732941,0.026715,0.004752,-0.018722,19.544151,-37.486912,-23.332130,,,,,,,
1558216511.280200,0.472482,0.607090,-0.239655,0.143211,-0.042869,-0.618183,0.373777,-0.570480,-0.731330,0.032671,0.006133,0.000754,20.264179,-37.179554,-23.209370,,,,,,,
1558216511.300183,0.480319,0.603043,-0.255365,0.124906,-0.113615,-0.633823,0.380561,-0.567151,-0.730420,0.042184,0.006894,-0.003879,20.746443,-36.961834,-23.130905,,,,,,,
1558216511.320169,0.487250,0.599433,-0.270663,0.153649,-0.101040,-0.606990,0.386570,-0.564175,-0.729569,0.039394,0.008801,-0.008865,20.988909,-36.843952,-23.100210,,,,,,,
1558216511.340153,0.495495,0.595271,-0.285845,0.098549,-0.027826,-0.614876,0.393685,-0.560734,-0.728416,0.041969,0.011982,0.012169,21.682205,-36.510597,-22.988888,,,,,,,
1558216511.360118,0.503123,0.590690,-0.299387,0.069930,0.018863,-0.594167,0.400464,-0.556934,-0.727635,0.047503,0.008884,0.003743,22.120680,-36.278759,-22.938137,,,,,,,
1558216511.380121,0.510688,0.586688,-0.312851,0.110241,-0.024690,-0.596687,0.407043,-0.553606,-0.726523,0.042343,0.013369,0.006553,22.339308,-36.164734,-22.906294,,,,,,,
1558216511.400044,0.519329,0.582339,-0.328582,0.123719,-0.131503,-0.589159,0.414498,-0.549979,-0.725062,0.043785,0.039572,0.023478,23.051388,-35.806435,-22.763206,,,,,,,
1558216511.420033,0.522784,0.579024,-0.341341,0.121322,-0.191671,-0.542761,0.417908,-0.547207,-0.725202,0.047363,0.032650,0.018094,23.375103,-35.603638,-22.751184,,,,,,,
1558216511.440008,0.526251,0.575217,-0.353215,0.061903,-0.118377,-0.510077,0.421463,-0.544017,-0.725544,0.039856,0.023433,0.013096,23.525040,-35.502857,-22.754131,,,,,,,
1558216511.460006,0.529788,0.571164,-0.363540,0.039361,-0.113988,-0.458864,0.425137,-0.540612,-0.725946,0.048892,0.042488,0.017984,23.975586,-35.186569,-22.775146,,,,,,,
1558216511.479997,0.531178,0.567649,-0.372821,0.058080,-0.224997,-0.407597,0.427106,-0.537651,-0.726988,0.031299,0.037727,0.010710,24.213846,-34.993988,-22.819754,,,,,,,
1558216511.499956,0.531149,0.564872,-0.382266,0.084625,-0.254763,-0.428146,0.427839,-0.535308,-0.728285,0.022814,0.033827,0.010405,24.302145,-34.910629,-22.853550,,,,,,,
1558216511.519966,0.533920,0.559888,-0.392606,0.024449,-0.116021,-0.457831,0.431208,-0.531091,-0.729384,0.020772,0.035333,0.012877,24.651852,-34.596939,-22.955797,,,,,,,
1558216511.539951,0.539966,0.552851,-0.402634,-0.046606,-0.025765,-0.436742,0.437521,-0.525116,-0.729951,0.038477,0.030914,0.006990,25.038467,-34.292503,-22.994133,,,,,,,
1558216511.559934,0.543807,0.548450,-0.410570,0.016148,-0.018623,-0.387512,0.441513,-0.521365,-0.730237,0.037980,0.032534,0.000012,25.180584,-34.174446,-23.014698,,,,,,,
1558216511.579914,0.549417,0.542784,-0.419518,0.036364,-0.011294,-0.366077,0.447138,-0.516522,-0.730256,0.048483,0.033078,-0.009399,25.661327,-33.803055,-23.032166,,,,,,,
1558216511.599903,0.558562,0.534844,-0.429456,0.009846,0.021638,-0.356183,0.455957,-0.509707,-0.729591,0.054938,0.033739,0.007148,26.216145,-36.322311,-23.737043,,,,,,,
1558216511.619860,0.562542,0.531145,-0.435672,-0.023183,0.040930,-0.294101,0.459859,-0.506521,-0.729360,0.045313,0.036855,-0.004420,26.216145,-36.322311,-23.737043,,,,,,,
1558216511.639867,0.569717,0.525863,-0.442489,-0.016931,0.028314,-0.231230,0.466517,-0.501960,-0.728285,0.073156,0.035758,0.012205,26.727266,-35.972900,-23.699108,,,,,,,
1558216511.659847,0.571149,0.523485,-0.445732,-0.020450,-0.033912,-0.150687,0.468203,-0.499901,-0.728618,0.074598,0.040444,0.016948,27.143433,-35.684601,-23.661943,,,,,,,
1558216511.679827,0.570616,0.522446,-0.447875,0.026034,-0.108038,-0.077692,0.468095,-0.499001,-0.729305,0.070113,0.044243,0.017772,27.143433,-35.684601,-23.661943,,,,,,,
1558216511.699823,0.568234,0.522729,-0.449038,0.038531,-0.165095,-0.018440,0.466281,-0.499246,-0.730298,0.040616,0.019525,0.015058,27.199024,-35.603447,-23.720284,,,,,,,
1558216511.719808,0.565275,0.522914,-0.450185,0.037461,-0.184173,-0.057059,0.464068,-0.499407,-0.731596,0.012494,-0.006559,0.007628,27.112473,-35.606354,-23.814812,,,,,,,
1558216511.739792,0.562761,0.522700,-0.452620,0.056734,-0.176962,-0.115695,0.462285,-0.499221,-0.732851,0.009334,-0.019699,0.001360,27.112473,-35.606354,-23.814812,,,,,,,
1558216511.759777,0.562276,0.522565,-0.455830,-0.019648,-0.103645,-0.127865,0.461965,-0.499105,-0.733132,0.007151,-0.018153,0.001718,27.081528,-35.563877,-23.913292,,,,,,,
1558216511.779759,0.562181,0.520160,-0.457413,-0.068314,-0.012487,-0.128099,0.462534,-0.497019,-0.734190,-0.001139,-0.024740,-0.023424,27.159916,-35.469330,-23.964760,,,,,,,
1558216511.799745,0.563537,0.517899,-0.459678,-0.026663,0.018972,-0.150185,0.464128,-0.495055,-0.734510,-0.004518,-0.028413,-0.031817,27.159916,-35.469330,-23.964760,,,,,,,
1558216511.819730,0.565187,0.516063,-0.462508,-0.010739,0.005145,-0.151373,0.465825,-0.493459,-0.734510,0.004161,-0.010981,-0.019396,27.317175,-35.322197,-24.003298,,,,,,,
1558216511.839685,0.565823,0.514397,-0.464852,-0.014121,-0.036009,-0.116537,0.466732,-0.492010,-0.734906,0.004276,-0.010477,-0.027637,27.465797,-35.193951,-24.022066,,,,,,,
1558216511.859697,0.566592,0.513619,-0.467114,0.038133,-0.000322,-0.101207,0.467503,-0.491332,-0.734870,-0.002354,-0.007813,-0.033181,27.465797,-35.193951,-24.022066,,,,,,,
1558216511.879681,0.567414,0.512549,-0.469233,0.049950,0.034501,-0.097662,0.468389,-0.490400,-0.734928,-0.001134,0.006025,-0.022304,27.565348,-35.120220,-24.015947,,,,,,,
1558216511.899634,0.569215,0.511102,-0.471204,0.041434,0.049390,-0.066567,0.470094,-0.489139,-0.734680,0.002334,0.021411,-0.011459,27.696934,-35.007561,-24.029034,,,,,,,
1558216511.919650,0.570651,0.511338,-0.472844,0.048771,0.021893,-0.050810,0.471086,-0.489344,-0.733908,0.001708,0.023005,-0.005640,27.696934,-35.007561,-24.029034,,,,,,,
1558216511.939635,0.570822,0.511595,-0.473926,0.031473,-0.042441,-0.015139,0.471144,-0.489569,-0.733721,0.002810,0.004690,0.003740,27.784182,-34.994244,-23.947571,,,,,,,
1558216511.959597,0.568558,0.512841,-0.473725,0.048391,-0.065751,0.009208,0.469152,-0.490654,-0.734271,-0.019445,-0.008399,-0.005307,27.768171,-35.003029,-23.953300,,,,,,,
1558216511.979602,0.567916,0.513679,-0.474601,0.050654,-0.041505,-0.026858,0.468459,-0.491385,-0.734226,-0.024398,-0.013681,-0.006665,27.692593,-35.048901,-23.973705,,,,,,,
1558216511.999587,0.567078,0.514725,-0.475152,-0.007606,0.025324,-0.071103,0.467567,-0.492296,-0.734184,-0.025719,-0.024581,-0.000908,27.634571,-35.105381,-23.958017,,,,,,,
1558216512.019550,0.569033,0.512998,-0.476568,-0.058488,0.074161,-0.105909,0.469459,-0.490792,-0.733983,-0.002113,-0.017433,0.004491,27.721832,-35.042816,-23.948799,,,,,,,
1558216512.039555,0.570496,0.511119,-0.477532,-0.034149,0.043423,-0.077358,0.471030,-0.489154,-0.734070,-0.000937,-0.010968,0.001374,27.795578,-34.978951,-23.956686,,,,,,,
1558216512.059540,0.570859,0.510895,-0.478653,0.007192,-0.008587,-0.075686,0.471355,-0.488958,-0.733992,-0.008922,-0.014414,-0.005022,27.849548,-34.937790,-23.954069,,,,,,,
1558216512.079493,0.569509,0.511246,-0.479119,-0.029094,-0.029515,-0.058830,0.470272,-0.489264,-0.734483,-0.012401,-0.015481,-0.007689,27.853786,-34.932545,-23.956791,,,,,,,
1558216512.099508,0.569311,0.510907,-0.479880,0.014761,0.028367,-0.073187,0.470216,-0.488968,-0.734716,-0.010041,-0.013534,-0.013423,27.845943,-34.915890,-23.990164,,,,,,,
1558216512.119492,0.570084,0.510362,-0.481200,-0.004325,0.044299,-0.087997,0.470927,-0.488493,-0.734576,0.001195,-0.006197,-0.007962,27.868011,-34.898743,-23.989494,,,,,,,
1558216512.139476,0.571493,0.508135,-0.482333,-0.014049,0.021162,-0.044454,0.472549,-0.486548,-0.734825,0.011735,0.005073,-0.016090,27.955921,-34.827690,-23.990467,,,,,,,
1558216512.159456,0.571650,0.507751,-0.483074,0.058216,-0.005614,-0.024368,0.472765,-0.486213,-0.734908,0.000364,0.006126,-0.017671,27.993801,-34.789623,-24.001518,,,,,,,
1558216512.179431,0.572518,0.507899,-0.484402,0.065738,0.019727,-0.016648,0.473364,-0.486342,-0.734437,0.005121,0.010634,0.003373,28.016340,-34.778595,-23.991203,,,,,,,
1558216512.199429,0.575002,0.508249,-0.485882,0.032827,0.045267,-0.018566,0.475095,-0.486648,-0.733116,0.007098,0.003463,0.011757,28.085184,-34.769436,-23.923893,,,,,,,
1558216512.219408,0.576742,0.508510,-0.486966,0.028537,0.031537,-0.027242,0.476300,-0.486877,-0.732181,0.007297,0.001220,0.013813,28.119919,-34.768311,-23.884697,,,,,,,
1558216512.239385,0.579359,0.510037,-0.488571,0.029599,0.033660,-0.018678,0.477807,-0.488210,-0.730309,0.005988,-0.010142,0.018990,28.201796,-34.789726,-23.756634,,,,,,,
1558216512.259382,0.580549,0.510877,-0.489380,0.009238,-0.005333,-0.012661,0.478451,-0.488942,-0.729397,0.003712,-0.012553,0.021664,28.234138,-34.808685,-23.690350,,,,,,,
1558216512.279349,0.580300,0.511029,-0.489805,-0.016420,-0.044324,-0.023731,0.478229,-0.489075,-0.729454,-0.002154,-0.008652,0.018135,28.241884,-34.826656,-23.654682,,,,,,,
1558216512.299321,0.578731,0.511350,-0.489563,-0.020665,-0.040074,-0.022624,0.476997,-0.489355,-0.730072,-0.014457,-0.013544,-0.004623,28.218441,-34.830765,-23.676598,,,,,,,
1558216512.319334,0.577983,0.511064,-0.489569,-0.030062,0.008573,-0.038180,0.476528,-0.489105,-0.730546,-0.017345,-0.013947,-0.007415,28.202049,-34.823391,-23.706957,,,,,,,
1558216512.339312,0.578112,0.510100,-0.489607,-0.051232,0.036137,-0.057150,0.476879,-0.488264,-0.730879,-0.015209,-0.014116,-0.008013,28.189707,-34.822731,-23.722601,,,,,,,
1558216512.359302,0.578467,0.509174,-0.490176,0.001987,0.031617,-0.064623,0.477385,-0.487457,-0.731088,-0.013015,-0.007554,-0.019401,28.246853,-34.763901,-23.740906,,,,,,,
1558216512.379287,0.578897,0.508685,-0.491310,0.023170,0.004038,-0.054194,0.477830,-0.487029,-0.731082,-0.004395,-0.000428,-0.014447,28.271675,-34.741325,-23.744411,,,,,,,
1558216512.399271,0.579230,0.508108,-0.492139,-0.006597,0.017941,-0.049814,0.478228,-0.486525,-0.731158,-0.005358,0.001997,-0.011045,28.280325,-34.728531,-23.752815,,,,,,,
1558216512.419255,0.579540,0.507070,-0.492526,-0.041642,0.038190,-0.061392,0.478730,-0.485618,-0.731432,-0.006257,-0.003945,-0.004713,28.328796,-34.673828,-23.774965,,,,,,,
1558216512.439211,0.580164,0.506203,-0.492882,-0.012910,0.041228,-0.048527,0.479417,-0.484860,-0.731484,-0.005739,-0.007663,-0.009650,28.354578,-34.643753,-23.788073,,,,,,,
1558216512.459224,0.580896,0.506203,-0.493915,0.030611,0.004003,-0.048848,0.479952,-0.484859,-0.731134,-0.006579,-0.008564,-0.005591,28.382578,-34.624168,-23.783192,,,,,,,
1558216512.479208,0.581004,0.506701,-0.495001,0.034799,0.017689,-0.049832,0.479899,-0.485296,-0.730880,-0.007258,-0.007105,-0.002717,28.410538,-34.622841,-23.751717,,,,,,,
1558216512.499176,0.582804,0.506655,-0.496164,0.006168,0.059089,-0.032376,0.481226,-0.485255,-0.730034,0.007544,-0.004415,0.004188,28.456642,-34.619827,-23.700861,,,,,,,
1558216512.519177,0.584760,0.506374,-0.497114,0.001757,0.016849,-0.022109,0.482728,-0.485009,-0.729205,0.010893,-0.002189,0.007189,28.507475,-34.604111,-23.662695,,,,,,,
1558216512.539160,0.584663,0.506740,-0.497735,0.037661,-0.061527,-0.001477,0.482559,-0.485330,-0.729103,0.004562,-0.002265,0.002937,28.540232,-34.600002,-23.629196,,,,,,,
1558216512.559127,0.584082,0.507584,-0.498189,0.037731,-0.031904,0.016956,0.481910,-0.486067,-0.729042,0.002603,0.002089,0.006828,28.510666,-34.623440,-23.630550,,,,,,,
1558216512.579123,0.584116,0.507759,-0.497971,-0.015371,0.008552,0.023706,0.481887,-0.486220,-0.728954,0.002915,0.007689,0.006451,28.510666,-34.623440,-23.630550,,,,,,,
1558216512.599113,0.583711,0.507477,-0.497280,-0.029302,-0.023097,0.015918,0.481668,-0.485974,-0.729264,-0.003031,0.003964,-0.000107,28.506367,-34.638905,-23.613077,,,,,,,
1558216512.619075,0.581711,0.507614,-0.496539,-0.008054,-0.048621,-0.012066,0.480172,-0.486094,-0.730170,-0.010552,-0.006903,-0.006815,28.448639,-34.641708,-23.678492,,,,,,,
1558216512.639081,0.581117,0.507261,-0.496891,-0.014295,-0.014799,-0.035236,0.479832,-0.485785,-0.730598,-0.004719,-0.005212,-0.005135,28.429001,-34.638962,-23.706076,,,,,,,
1558216512.659066,0.582078,0.506368,-0.497164,-0.036479,0.050899,-0.004731,0.480772,-0.485004,-0.730499,0.009783,0.007755,0.005523,28.434898,-34.622917,-23.722443,,,,,,,
1558216512.679023,0.583986,0.505130,-0.496742,-0.043009,0.033049,0.050608,0.482496,-0.483921,-0.730081,0.013171,0.007389,0.002542,28.524357,-34.563732,-23.701340,,,,,,,
1558216512.699033,0.583315,0.505308,-0.495452,-0.000638,-0.027414,0.056468,0.481958,-0.484077,-0.730333,0.005499,0.007392,0.001176,28.514977,-34.566341,-23.708815,,,,,,,
1558216512.718999,0.582588,0.505836,-0.495036,0.014250,-0.042324,0.033916,0.481287,-0.484539,-0.730469,0.005682,0.007214,0.015137,28.463718,-34.593906,-23.730194,,,,,,,
1558216512.739004,0.582972,0.505854,-0.494998,-0.038889,-0.021976,0.022323,0.481562,-0.484555,-0.730277,0.016409,0.010083,0.029349,28.453939,-34.604767,-23.726084,,,,,,,
1558216512.758959,0.582605,0.504916,-0.493637,-0.086848,-0.019543,0.066080,0.481544,-0.483734,-0.730833,0.022179,0.014054,0.025404,28.465893,-34.595520,-23.725243,,,,,,,
1558216512.778966,0.582255,0.503701,-0.491499,-0.063602,-0.042822,0.128863,0.481611,-0.482670,-0.731492,0.017992,0.014805,-0.004165,28.457886,-34.560760,-23.785427,,,,,,,
1558216512.798956,0.579925,0.504268,-0.488454,-0.033803,-0.044034,0.129943,0.479756,-0.483167,-0.732382,0.008495,0.009717,-0.001993,28.358173,-34.598915,-23.848961,,,,,,,
1558216512.818926,0.578503,0.504251,-0.485718,-0.074057,0.004765,0.105821,0.478718,-0.483152,-0.733071,0.011562,0.013181,0.001778,28.314865,-34.615620,-23.876169,,,,,,,
1558216512.838902,0.577203,0.503457,-0.482677,-0.085835,-0.012073,0.114190,0.477974,-0.482456,-0.734014,0.018227,0.012043,-0.009241,28.214087,-34.640240,-23.959610,,,,,,,
1558216512.858908,0.575360,0.504128,-0.479551,-0.022017,-0.014479,0.143045,0.476444,-0.483044,-0.734622,0.018337,0.010983,-0.012921,28.162251,-34.648247,-24.008968,,,,,,,
1558216512.878892,0.574355,0.505037,-0.476691,-0.029421,0.004601,0.152829,0.475467,-0.483840,-0.734731,0.028592,0.005873,-0.010645,28.080713,-34.702057,-24.026752,,,,,,,
1558216512.898869,0.574273,0.505032,-0.474429,-0.050810,-0.039724,0.121423,0.475408,-0.483836,-0.734772,0.043300,0.004862,0.002961,27.979832,-34.767147,-24.050333,,,,,,,
1558216512.918861,0.572754,0.505586,-0.471382,-0.055918,0.035384,0.143491,0.474146,-0.484320,-0.735268,0.052893,0.013053,0.004143,27.948317,-34.781830,-24.065739,,,,,,,
1558216512.938823,0.574757,0.505041,-0.467631,-0.121762,0.125722,0.238251,0.475761,-0.483843,-0.734539,0.082482,0.028292,0.017895,27.885372,-34.821209,-24.081806,,,,,,,
1558216512.958827,0.574292,0.505863,-0.460604,-0.129228,0.144863,0.289676,0.475203,-0.484562,-0.734426,0.073121,0.018208,0.012838,27.820606,-34.889656,-24.057632,,,,,,,
1558216512.978811,0.572845,0.507044,-0.453571,-0.111427,0.061285,0.302769,0.473829,-0.485595,-0.734631,0.071672,0.015502,0.015576,27.717735,-34.964134,-24.068241,,,,,,,
1558216512.998789,0.571828,0.508164,-0.446650,-0.096799,0.013764,0.381328,0.472788,-0.486574,-0.734654,0.077627,0.019991,0.010625,27.523853,-35.084747,-24.115181,,,,,,,
1558216513.018782,0.567516,0.510953,-0.437438,-0.096874,0.014899,0.433654,0.468884,-0.489009,-0.735539,0.063602,0.022242,0.005330,27.276356,-35.250401,-24.154781,,,,,,,
1558216513.038753,0.563228,0.514199,-0.427375,-0.104257,0.050926,0.467090,0.464876,-0.491837,-0.736197,0.044325,0.013261,0.002478,26.970322,-35.447456,-24.209991,,,,,,,
1558216513.058750,0.560672,0.516547,-0.416935,-0.145540,0.129389,0.483821,0.462377,-0.493880,-0.736403,0.038233,0.011367,-0.001786,26.817423,-35.547184,-24.233601,,,,,,,
1558216513.078735,0.558161,0.518962,-0.405257,-0.175214,0.176074,0.498123,0.459893,-0.495979,-0.736548,0.032309,0.014137,0.001257,26.432175,-35.804218,-24.278427,,,,,,,
1558216513.098717,0.555123,0.521124,-0.393187,-0.186065,0.115890,0.503944,0.457088,-0.497855,-0.737029,0.032490,0.015448,0.010558,26.152287,-35.978706,-24.323536,,,,,,,
1558216513.118704,0.550385,0.523425,-0.381091,-0.171401,0.047119,0.511839,0.452990,-0.499850,-0.738207,0.033079,0.018435,0.006152,25.995600,-36.065228,-24.363331,,,,,,,
1558216513.138688,0.545146,0.526126,-0.368586,-0.169243,0.071470,0.546238,0.448415,-0.502187,-0.739414,0.028712,0.019399,-0.010998,25.470783,-36.339752,-24.509293,,,,,,,
1558216513.158657,0.541223,0.528176,-0.355338,-0.175425,0.151892,0.584369,0.444979,-0.503959,-0.740283,0.021635,0.020835,-0.012402,25.200279,-36.488560,-24.567759,,,,,,,
1558216513.178656,0.538273,0.530875,-0.341679,-0.192233,0.214326,0.572141,0.442094,-0.506288,-0.740422,0.031493,0.009660,-0.006740,24.966850,-36.610012,-24.625338,,,,,,,
1558216513.198640,0.535159,0.533224,-0.327678,-0.219996,0.192288,0.581517,0.439179,-0.508312,-0.740770,0.037704,0.016048,0.000978,24.482914,-36.891899,-24.690453,,,,,,,
1558216513.218625,0.533065,0.533752,-0.313926,-0.238265,0.156501,0.616387,0.437491,-0.508767,-0.741457,0.043848,0.021752,-0.000532,24.184872,-37.032887,-24.772993,,,,,,,
1558216513.238609,0.528821,0.536063,-0.298715,-0.195760,0.155289,0.662317,0.433746,-0.510755,-0.742290,0.043290,0.023679,-0.008183,24.184872,-37.032887,-24.772993,,,,,,,
1558216513.258576,0.526094,0.537861,-0.283782,-0.195838,0.158549,0.718928,0.431258,-0.512300,-0.742675,0.053301,0.039338,0.004119,23.547577,-37.335598,-24.932079,,,,,,,
1558216513.278560,0.520874,0.540408,-0.266461,-0.256735,0.116672,0.773994,0.426724,-0.514485,-0.743782,0.055346,0.040029,0.012290,23.193407,-37.512859,-24.997902,,,,,,,
1558216513.298542,0.513575,0.543615,-0.247691,-0.229042,0.130295,0.792295,0.420471,-0.517233,-0.745435,0.023392,0.024069,-0.010302,22.860037,-37.650604,-25.097698,,,,,,,
1558216513.318517,0.506633,0.546720,-0.228517,-0.264141,0.148477,0.811658,0.414505,-0.519888,-0.746928,0.018432,0.017843,-0.009953,22.071491,-37.986351,-25.296839,,,,,,,
1558216513.338526,0.500715,0.548542,-0.209494,-0.243778,0.188527,0.805649,0.409622,-0.521443,-0.748536,0.011368,0.021947,-0.009124,21.578346,-38.176151,-25.436203,,,,,,,
1558216513.358507,0.494678,0.551367,-0.189832,-0.299003,0.224746,0.799545,0.404395,-0.523852,-0.749696,0.009499,0.022067,-0.005096,21.339380,-38.258179,-25.514441,,,,,,,
1558216513.378483,0.488894,0.553044,-0.169929,-0.335128,0.239715,0.786848,0.399639,-0.525280,-0.751245,0.003468,0.012341,-0.005484,20.596369,-38.524868,-25.722908,,,,,,,
1558216513.398482,0.483038,0.554894,-0.149700,-0.305371,0.238546,0.816754,0.394780,-0.526853,-0.752711,0.007930,0.015516,-0.008291,20.230021,-38.639297,-25.841728,,,,,,,
1558216513.418444,0.476718,0.557567,-0.128872,-0.283076,0.241668,0.862711,0.389368,-0.529123,-0.753937,0.004507,0.016703,-0.014725,19.714424,-38.811413,-25.981911,,,,,,,
1558216513.438451,0.471044,0.560200,-0.107688,-0.304133,0.307297,0.851578,0.384450,-0.531356,-0.754890,-0.027547,-0.004411,-0.024224,19.043825,-39.041080,-26.137529,,,,,,,
1558216513.458435,0.467102,0.561686,-0.087088,-0.340016,0.372927,0.789186,0.381116,-0.532614,-0.755694,-0.017591,-0.003015,-0.011274,18.572041,-39.185043,-26.261295,,,,,,,
1558216513.478419,0.463665,0.562430,-0.066871,-0.359289,0.340265,0.792061,0.378339,-0.533244,-0.756644,-0.000791,0.000544,-0.002953,18.363855,-39.239807,-26.325851,,,,,,,
1558216513.498403,0.457232,0.563697,-0.045878,-0.301406,0.188846,0.834391,0.373165,-0.534315,-0.758456,-0.019879,-0.002276,-0.034498,17.664024,-39.394192,-26.572990,,,,,,,
1558216513.518387,0.449966,0.567235,-0.025657,-0.171569,0.190313,0.857997,0.366819,-0.537302,-0.759441,-0.024519,-0.000769,-0.048207,17.240131,-39.507744,-26.682579,,,,,,,
1558216513.538371,0.442836,0.572304,-0.005344,-0.135445,0.187009,0.896430,0.360224,-0.541570,-0.759566,-0.013803,0.001547,-0.047273,16.658627,-39.711403,-26.749554,,,,,,,
1558216513.558354,0.435030,0.577035,0.015729,-0.179064,0.189334,0.884673,0.353200,-0.545541,-0.760022,-0.023168,-0.014304,-0.038516,15.887648,-39.978722,-26.820301,,,,,,,
1558216513.578334,0.428448,0.580318,0.035742,-0.218147,0.242262,0.798669,0.347444,-0.548290,-0.760697,-0.030535,-0.027058,-0.046966,15.446563,-40.106220,-26.887520,,,,,,,
1558216513.598324,0.423465,0.582682,0.055042,-0.225409,0.295135,0.788492,0.343116,-0.550265,-0.761236,-0.015632,-0.019254,-0.051096,14.943321,-40.229748,-26.987190,,,,,,,
1558216513.618308,0.417131,0.585261,0.075474,-0.216232,0.207468,0.864531,0.337711,-0.552417,-0.762094,-0.002430,0.011310,-0.050681,14.317538,-40.370415,-27.116074,,,,,,,
1558216513.638271,0.408066,0.589975,0.097294,-0.099529,0.130887,0.956777,0.329751,-0.556340,-0.762725,-0.029718,0.015523,-0.074952,13.849781,-40.478355,-27.197983,,,,,,,
1558216513.658261,0.398718,0.596834,0.119066,-0.027075,0.154827,0.963470,0.321118,-0.562027,-0.762239,-0.037030,0.020935,-0.075026,12.950645,-40.866177,-27.377998,,,,,,,
1558216513.678247,0.389646,0.603244,0.141155,-0.072777,0.176206,0.962570,0.312815,-0.567317,-0.761773,-0.036448,0.030025,-0.032585,12.071765,-41.140938,-27.368128,,,,,,,
1558216513.698238,0.380136,0.608882,0.163626,-0.084557,0.155129,0.963426,0.304365,-0.571950,-0.761731,-0.041899,0.019353,-0.026965,11.371855,-41.321140,-27.396404,,,,,,,
1558216513.718228,0.370027,0.614344,0.186206,-0.084620,0.135042,0.961099,0.295516,-0.576423,-0.761845,-0.043242,0.017417,-0.022549,11.015873,-41.405766,-27.414078,,,,,,,
1558216513.738194,0.360006,0.619453,0.208730,-0.101507,0.167862,0.936843,0.286825,-0.580590,-0.762002,-0.061697,0.009117,-0.008567,9.941379,-41.636528,-27.475206,,,,,,,
1558216513.758198,0.351754,0.622462,0.230188,-0.206514,0.230608,0.823121,0.279924,-0.583037,-0.762699,-0.061586,-0.004380,0.001225,9.299891,-41.734196,-27.551540,,,,,,,
1558216513.778182,0.344572,0.623186,0.250585,-0.252195,0.243483,0.790111,0.274296,-0.583625,-0.764292,-0.047642,0.003883,-0.006551,9.299891,-41.734196,-27.551540,,,,,,,
1558216513.798167,0.336480,0.624505,0.271646,-0.200367,0.174609,0.859958,0.267849,-0.584696,-0.765760,-0.023754,0.024118,-0.017672,8.497128,-41.747242,-27.790016,,,,,,,
1558216513.818151,0.324875,0.627931,0.294100,-0.087125,0.014534,0.947131,0.258303,-0.587472,-0.766914,-0.035509,0.034264,-0.024743,7.529716,-41.804165,-27.982738,,,,,,,
1558216513.838113,0.307617,0.632226,0.318847,-0.021485,-0.076662,0.984748,0.244264,-0.590942,-0.768845,-0.042756,0.028015,-0.031585,7.529716,-41.804165,-27.982738,,,,,,,
1558216513.858098,0.293538,0.637250,0.341749,-0.060522,0.010155,0.942842,0.232553,-0.594987,-0.769356,-0.047784,0.021913,-0.011543,6.194885,-41.935478,-28.113293,,,,,,,
1558216513.878104,0.281376,0.640281,0.364848,-0.148470,0.126868,0.928942,0.222677,-0.597420,-0.770392,-0.040747,0.024941,-0.003320,5.030997,-42.032036,-28.201338,,,,,,,
1558216513.898058,0.270512,0.642059,0.388532,-0.180256,0.179911,0.946506,0.214011,-0.598845,-0.771740,-0.035483,0.029418,-0.001728,4.678394,-42.033073,-28.260431,,,,,,,
1558216513.918065,0.259080,0.643430,0.413218,-0.189962,0.158877,0.983665,0.204964,-0.599943,-0.773342,-0.038659,0.025282,-0.012394,3.622658,-41.994713,-28.471718,,,,,,,
1558216513.938056,0.246849,0.644927,0.437303,-0.154998,0.082502,0.925309,0.195270,-0.601140,-0.774919,-0.033741,0.019567,-0.011900,3.070399,-41.965538,-28.579449,,,,,,,
1558216513.958019,0.234166,0.645928,0.460452,-0.183765,0.067831,0.910198,0.185287,-0.601940,-0.776748,-0.043380,0.031536,-0.008073,2.338392,-41.922832,-28.711086,,,,,,,
1558216513.978002,0.222005,0.646157,0.483763,-0.205952,0.114443,0.901017,0.175798,-0.602122,-0.778809,-0.062287,0.022441,-0.021804,1.442160,-41.829285,-28.905882,,,,,,,
1558216513.998009,0.211678,0.645891,0.506144,-0.217330,0.190527,0.847287,0.167778,-0.601911,-0.780739,-0.057656,0.021726,-0.025504,0.940763,-41.757309,-29.030334,,,,,,,
1558216514.017994,0.202905,0.643769,0.528406,-0.282805,0.330331,0.804800,0.161180,-0.600214,-0.783431,-0.070604,0.021265,-0.027131,0.310797,-41.620335,-29.239861,,,,,,,
1558216514.037978,0.198591,0.640393,0.548521,-0.343141,0.398182,0.727463,0.158198,-0.597510,-0.786101,-0.068186,0.022544,-0.011445,-0.243117,-41.398651,-29.553532,,,,,,,
1558216514.057962,0.194245,0.636833,0.567965,-0.306162,0.320848,0.742767,0.155190,-0.594652,-0.788863,-0.057717,0.023775,-0.003800,-0.518509,-41.243229,-29.766520,,,,,,,
1558216514.077946,0.186536,0.634921,0.587324,-0.208889,0.124804,0.752712,0.149314,-0.593114,-0.791152,-0.051643,0.030781,-0.019197,-0.956760,-41.058716,-30.009745,,,,,,,
1558216514.097931,0.174890,0.632793,0.607741,-0.178112,0.092915,0.743893,0.140309,-0.591399,-0.794078,-0.063344,0.046187,-0.031254,-1.644172,-40.884243,-30.217443,,,,,,,
1558216514.117885,0.166754,0.631883,0.626603,-0.166096,0.186929,0.745870,0.133934,-0.590665,-0.795724,-0.063362,0.052579,-0.026786,-2.118223,-40.739777,-30.382599,,,,,,,
1558216514.137899,0.159336,0.630976,0.645462,-0.172543,0.166873,0.741402,0.128113,-0.589933,-0.797224,-0.071686,0.037854,-0.024263,-2.609579,-40.602512,-30.527765,,,,,,,
1558216514.157883,0.148815,0.629553,0.666038,-0.139800,0.118169,0.805023,0.119843,-0.588784,-0.799357,-0.080979,0.035225,-0.031286,-3.319690,-40.392174,-30.737118,,,,,,,
1558216514.177844,0.137933,0.630623,0.686808,-0.017729,0.033031,0.848080,0.111050,-0.589648,-0.799989,-0.081265,0.032412,-0.035460,-3.770832,-40.296280,-30.810863,,,,,,,
1558216514.197852,0.123608,0.632371,0.708347,-0.006257,-0.049512,0.825948,0.099452,-0.591059,-0.800474,-0.080562,0.021372,-0.003420,-4.504745,-40.197159,-30.841766,,,,,,,
1558216514.217809,0.110214,0.633662,0.728130,-0.036113,-0.087481,0.776449,0.088638,-0.592100,-0.800975,-0.089294,0.008284,-0.006627,-5.374198,-40.083660,-30.850227,,,,,,,
1558216514.237791,0.098286,0.634184,0.745939,-0.057142,-0.051575,0.680687,0.079047,-0.592520,-0.801668,-0.110724,0.004309,-0.027937,-5.864368,-40.001392,-30.867723,,,,,,,
1558216514.257805,0.084021,0.633054,0.765084,-0.097186,0.056396,0.648598,0.067660,-0.591610,-0.803380,-0.081820,0.011059,-0.021510,-6.426644,-39.881836,-30.910450,,,,,,,
1558216514.277789,0.076315,0.631917,0.781368,-0.109793,0.108259,0.651219,0.061518,-0.590693,-0.804548,-0.065943,0.015589,-0.007296,-7.201836,-39.646217,-31.042383,,,,,,,
1558216514.297756,0.061960,0.629830,0.801399,-0.093002,0.035233,0.653745,0.050039,-0.589007,-0.806577,-0.061163,0.010486,-0.009799,-7.541787,-39.523590,-31.117929,,,,,,,
1558216514.317758,0.053203,0.628894,0.816470,-0.074886,0.001182,0.565886,0.043004,-0.588251,-0.807534,-0.110982,-0.002157,-0.022147,-8.269497,-39.304958,-31.209843,,,,,,,
1558216514.337741,0.046215,0.627821,0.828539,-0.081099,0.002102,0.451652,0.037389,-0.587382,-0.808446,-0.105244,-0.004399,-0.017848,-8.599743,-39.198181,-31.254850,,,,,,,
1558216514.357725,0.031117,0.626052,0.844563,-0.050365,-0.035045,0.465211,0.025212,-0.585950,-0.809955,-0.069142,0.025419,-0.013959,-9.459154,-38.939400,-31.329952,,,,,,,
