timestamp(unix),attitude_roll(radians),attitude_pitch(radians),attitude_yaw(radians),rotation_rate_x(radians/s),rotation_rate_y(radians/s),rotation_rate_z(radians/s),gravity_x(G),gravity_y(G),gravity_z(G),user_acc_x(G),user_acc_y(G),user_acc_z(G),magnetic_field_x(microteslas),magnetic_field_y(microteslas),magnetic_field_z(microteslas),latitude(degree),longitude(degree),altitude(meter),speed(m/s),course(degree),timestamp(unix),User Mark
1558219131.964879,-0.001791,-0.012784,0.656697,0.001675,-0.000817,0.000445,-0.001791,0.012783,-0.999917,-0.003199,0.000507,-0.007896,-3.426960,-13.057272,-45.108570,,,,,,,
1558219131.984876,-0.001818,-0.012800,0.656721,0.000613,0.000246,0.001522,-0.001818,0.012799,-0.999916,-0.002089,0.001483,-0.007423,-3.429612,-13.057528,-45.108295,,,,,,,
1558219132.004849,-0.001742,-0.012801,0.656753,0.000609,-0.000810,0.001512,-0.001742,0.012801,-0.999917,0.003390,0.001787,-0.006034,-3.428298,-13.055609,-45.108948,,,,,,,
1558219132.024856,-0.001774,-0.012768,0.656767,0.001683,0.001294,-0.000603,-0.001774,0.012767,-0.999917,-0.002652,-0.000927,-0.007300,-3.428075,-13.056399,-45.108738,,,,,,,
1558219132.044820,-0.001816,-0.012729,0.656796,0.000620,0.001301,0.001520,-0.001816,0.012729,-0.999917,-0.002747,-0.001132,-0.008048,-3.430083,-13.057995,-45.108120,,,,,,,
1558219132.064816,-0.001861,-0.012747,0.656826,0.000619,0.001301,0.001520,-0.001861,0.012747,-0.999917,-0.002122,0.002024,-0.007438,-3.434882,-13.058035,-45.107742,,,,,,,
1558219132.084793,-0.001823,-0.012772,0.656851,-0.000450,0.000250,0.002576,-0.001823,0.012771,-0.999917,0.000663,0.000168,-0.006629,-3.434150,-13.057538,-45.107944,,,,,,,
1558219132.104795,-0.001790,-0.012727,0.656871,0.001689,0.002350,0.000463,-0.001790,0.012727,-0.999917,0.000005,-0.000871,-0.008307,-3.433452,-13.058015,-45.107857,,,,,,,
1558219132.124779,-0.001796,-0.012668,0.656885,0.001685,0.001293,0.000452,-0.001795,0.012668,-0.999918,-0.001195,-0.000293,-0.007223,-3.433049,-13.061134,-45.106987,,,,,,,
1558219132.144763,-0.001875,-0.012731,0.656920,0.001674,-0.000819,0.002567,-0.001875,0.012730,-0.999917,-0.002153,0.004878,-0.008918,-3.434389,-13.063375,-45.106236,,,,,,,
1558219132.164744,-0.001870,-0.012687,0.656939,0.002744,0.000231,0.001511,-0.001870,0.012686,-0.999918,0.000359,0.001520,-0.006430,-3.436843,-13.059907,-45.107052,,,,,,,
1558219132.184731,-0.001849,-0.012628,0.656959,-0.000451,0.000249,0.002576,-0.001849,0.012628,-0.999919,0.000186,-0.001351,-0.008291,-3.436173,-13.062967,-45.106220,,,,,,,
1558219132.204714,-0.001856,-0.012574,0.656994,0.001684,0.001290,0.001506,-0.001856,0.012574,-0.999919,-0.001287,-0.000870,-0.007695,-3.435753,-13.064237,-45.105885,,,,,,,
1558219132.224697,-0.001846,-0.012556,0.657008,0.000622,0.001294,0.000438,-0.001846,0.012556,-0.999919,-0.002655,0.002184,-0.008137,-3.436836,-13.066232,-45.105221,,,,,,,
1558219132.244682,-0.001785,-0.012643,0.657033,0.001687,0.002347,0.001516,-0.001785,0.012643,-0.999918,0.001190,0.003455,-0.007757,-3.435254,-13.062255,-45.106495,,,,,,,
1558219132.264666,-0.001747,-0.012601,0.657063,0.002748,0.001284,0.001507,-0.001747,0.012601,-0.999919,-0.001167,-0.001828,-0.008336,-3.431855,-13.061241,-45.107048,,,,,,,
1558219132.284643,-0.001801,-0.012533,0.657093,0.000616,0.000238,0.001495,-0.001801,0.012532,-0.999920,-0.002349,-0.002126,-0.007999,-3.433248,-13.064242,-45.106071,,,,,,,
1558219132.304633,-0.001848,-0.012512,0.657111,0.001680,0.000232,0.001495,-0.001848,0.012512,-0.999920,-0.002272,0.000397,-0.008091,-3.437937,-13.067679,-45.104717,,,,,,,
1558219132.324617,-0.001783,-0.012667,0.657136,0.002745,0.000225,0.000428,-0.001783,0.012667,-0.999918,0.001569,0.003660,-0.007360,-3.438084,-13.063735,-45.105850,,,,,,,
1558219132.344587,-0.001758,-0.012615,0.657161,0.001684,0.001287,0.000438,-0.001757,0.012615,-0.999919,0.000140,-0.000942,-0.008336,-3.435544,-13.061518,-45.106686,,,,,,,
1558219132.364585,-0.001869,-0.012516,0.657189,0.001679,0.000227,0.001480,-0.001869,0.012516,-0.999920,-0.001976,-0.002552,-0.007801,-3.437775,-13.064507,-45.105648,,,,,,,
1558219132.384569,-0.001820,-0.012465,0.657214,0.002744,0.000222,0.001481,-0.001819,0.012464,-0.999921,0.000553,0.000322,-0.006900,-3.439410,-13.069121,-45.104191,,,,,,,
1558219132.404547,-0.001850,-0.012557,0.657227,0.001687,0.002339,0.000433,-0.001850,0.012557,-0.999919,-0.002590,0.002412,-0.009648,-3.437431,-13.068065,-45.104645,,,,,,,
1558219132.424536,-0.001810,-0.012571,0.657252,0.000622,0.002345,0.000432,-0.001809,0.012571,-0.999919,0.000116,0.001131,-0.008290,-3.439332,-13.065962,-45.105110,,,,,,,
1558219132.444520,-0.001836,-0.012474,0.657281,0.000617,0.001289,0.001489,-0.001835,0.012473,-0.999921,-0.000774,-0.001823,-0.007556,-3.439456,-13.066291,-45.105003,,,,,,,
1558219132.464505,-0.001854,-0.012451,0.657316,0.000617,0.001288,0.001489,-0.001854,0.012451,-0.999921,-0.000404,0.001541,-0.007419,-3.441106,-13.071683,-45.103317,,,,,,,
1558219132.484488,-0.001915,-0.012484,0.657334,0.001676,-0.000833,0.000402,-0.001914,0.012484,-0.999920,-0.002678,0.003019,-0.005924,-3.441358,-13.070929,-45.103516,,,,,,,
1558219132.504471,-0.001921,-0.012574,0.657358,0.000613,0.000231,0.001479,-0.001921,0.012573,-0.999919,-0.001131,0.002014,-0.007558,-3.444664,-13.065968,-45.104698,,,,,,,
1558219132.524457,-0.001923,-0.012575,0.657398,0.001679,0.001278,0.001475,-0.001922,0.012574,-0.999919,-0.000153,-0.000016,-0.007710,-3.445604,-13.063879,-45.105232,,,,,,,
1558219132.544422,-0.001900,-0.012561,0.657427,0.001679,0.001278,0.001475,-0.001900,0.012561,-0.999919,0.000068,0.000287,-0.007695,-3.445356,-13.064712,-45.105011,,,,,,,
1558219132.564410,-0.001910,-0.012573,0.657462,0.001677,0.001279,0.002543,-0.001910,0.012573,-0.999919,-0.001722,0.001175,-0.005757,-3.444205,-13.065000,-45.105019,,,,,,,
1558219132.584408,-0.001946,-0.012543,0.657496,0.000617,0.002339,0.001484,-0.001946,0.012543,-0.999919,-0.002952,0.000488,-0.008442,-3.445463,-13.065386,-45.104805,,,,,,,
1558219132.604381,-0.001918,-0.012538,0.657520,-0.000448,0.002345,0.001484,-0.001918,0.012538,-0.999920,-0.000432,0.000874,-0.006428,-3.447645,-13.065363,-45.104649,,,,,,,
1558219132.624352,-0.001905,-0.012587,0.657544,-0.000446,0.002343,0.000416,-0.001905,0.012587,-0.999919,-0.000399,0.000291,-0.008382,-3.446864,-13.063592,-45.105221,,,,,,,
1558219132.644359,-0.001935,-0.012613,0.657573,0.001676,0.001278,0.002542,-0.001935,0.012613,-0.999919,-0.002506,0.001318,-0.007970,-3.446352,-13.063039,-45.105419,,,,,,,
1558219132.664334,-0.001960,-0.012583,0.657591,0.001674,0.000219,0.001465,-0.001960,0.012582,-0.999919,-0.001809,0.000479,-0.007894,-3.448536,-13.062379,-45.105446,,,,,,,
1558219132.684317,-0.001992,-0.012555,0.657609,-0.000460,0.000226,0.002515,-0.001992,0.012555,-0.999919,-0.000007,-0.000286,-0.006932,-3.451462,-13.064306,-45.104664,,,,,,,
1558219132.704311,-0.001987,-0.012547,0.657627,0.001670,0.000213,0.001449,-0.001987,0.012546,-0.999919,0.000172,0.001583,-0.006917,-3.451742,-13.066022,-45.104145,,,,,,,
1558219132.724271,-0.001955,-0.012552,0.657651,0.002736,0.000206,0.000382,-0.001955,0.012551,-0.999919,0.001223,0.001853,-0.009450,-3.451409,-13.065203,-45.104408,,,,,,,
1558219132.744279,-0.002023,-0.012550,0.657685,0.000605,0.000218,0.001448,-0.002023,0.012549,-0.999919,-0.003196,0.000940,-0.007542,-3.450440,-13.065342,-45.104443,,,,,,,
1558219132.764263,-0.001962,-0.012474,0.657703,0.001670,0.000213,0.001449,-0.001962,0.012474,-0.999920,0.000955,-0.001472,-0.007038,-3.452505,-13.065824,-45.104141,,,,,,,
1558219132.784247,-0.001916,-0.012450,0.657728,-0.000456,0.001281,0.001457,-0.001916,0.012450,-0.999921,0.000802,-0.001311,-0.007449,-3.451481,-13.068242,-45.103523,,,,,,,
1558219132.804230,-0.001910,-0.012480,0.657751,0.000612,0.002332,0.001468,-0.001910,0.012479,-0.999920,-0.000364,0.002337,-0.007343,-3.449834,-13.069933,-45.103157,,,,,,,
1558219132.824194,-0.001979,-0.012532,0.657779,0.000604,0.000217,0.001448,-0.001979,0.012531,-0.999920,-0.003239,0.000805,-0.005894,-3.449618,-13.065363,-45.104500,,,,,,,
1558219132.844198,-0.001905,-0.012470,0.657819,0.000598,0.000214,0.002499,-0.001905,0.012470,-0.999920,0.001187,-0.001224,-0.007785,-3.451809,-13.065794,-45.104202,,,,,,,
1558219132.864182,-0.001944,-0.012511,0.657837,0.000600,0.000212,0.001431,-0.001944,0.012511,-0.999920,-0.000116,0.002183,-0.007267,-3.452341,-13.067891,-45.103558,,,,,,,
1558219132.884160,-0.001989,-0.012654,0.657860,0.002726,0.000202,0.002500,-0.001989,0.012654,-0.999918,-0.001612,0.003612,-0.008123,-3.453072,-13.062162,-45.105160,,,,,,,
1558219132.904120,-0.002020,-0.012688,0.657856,0.001666,0.000202,-0.000704,-0.002020,0.012687,-0.999917,-0.000742,0.000557,-0.006552,-3.454975,-13.059596,-45.105755,,,,,,,
1558219132.924134,-0.001969,-0.012624,0.657874,0.001665,0.000204,0.000364,-0.001969,0.012624,-0.999918,0.001221,-0.001455,-0.007116,-3.456269,-13.058611,-45.105946,,,,,,,
1558219132.944098,-0.001921,-0.012643,0.657903,0.000600,0.001269,0.002508,-0.001921,0.012642,-0.999918,-0.000978,0.002601,-0.007650,-3.451558,-13.061951,-45.105339,,,,,,,
1558219132.964101,-0.001971,-0.012680,0.657921,0.001666,0.001262,0.001441,-0.001970,0.012679,-0.999918,-0.002973,0.002320,-0.005530,-3.452322,-13.059855,-45.105888,,,,,,,
1558219132.984086,-0.001994,-0.012687,0.657944,0.002727,0.000199,0.001432,-0.001994,0.012687,-0.999918,0.000743,0.000039,-0.008337,-3.456872,-13.056055,-45.106636,,,,,,,
1558219133.004047,-0.001939,-0.012641,0.657972,0.000597,0.001260,0.000357,-0.001939,0.012641,-0.999918,0.000474,-0.000037,-0.006445,-3.454845,-13.059175,-45.105888,,,,,,,
1558219133.024053,-0.001918,-0.012630,0.657996,-0.000471,0.000208,0.000346,-0.001918,0.012630,-0.999918,0.000026,0.000126,-0.007314,-3.453740,-13.059877,-45.105774,,,,,,,
1558219133.044036,-0.001940,-0.012690,0.658018,0.002726,0.001248,0.000358,-0.001939,0.012689,-0.999918,-0.001082,0.002524,-0.009299,-3.454622,-13.058737,-45.106033,,,,,,,
1558219133.064021,-0.002011,-0.012774,0.658056,-0.000475,0.000210,0.002481,-0.002011,0.012774,-0.999916,-0.002369,0.000394,-0.008583,-3.456254,-13.053547,-45.107414,,,,,,,
1558219133.083976,-0.002031,-0.012753,0.658079,0.001657,0.000196,0.000347,-0.002031,0.012752,-0.999917,-0.002516,0.000156,-0.007652,-3.457721,-13.053578,-45.107288,,,,,,,
1558219133.103964,-0.002029,-0.012740,0.658101,0.002731,0.003361,0.000378,-0.002029,0.012740,-0.999917,0.000793,0.000306,-0.007850,-3.461406,-13.054093,-45.106861,,,,,,,
1558219133.123965,-0.002005,-0.012677,0.658119,0.002724,0.001246,0.000358,-0.002005,0.012677,-0.999918,-0.000634,0.000217,-0.006338,-3.459017,-13.056206,-45.106430,,,,,,,
1558219133.143948,-0.002039,-0.012684,0.658153,0.000585,-0.000853,0.002471,-0.002039,0.012684,-0.999917,-0.001913,0.001583,-0.009482,-3.460946,-13.056670,-45.106148,,,,,,,
1558219133.163912,-0.002105,-0.012610,0.658174,-0.001553,-0.001908,0.001375,-0.002104,0.012609,-0.999918,-0.000459,-0.001287,-0.007818,-3.463401,-13.059244,-45.105213,,,,,,,
1558219133.183924,-0.002100,-0.012662,0.658186,-0.000480,0.000199,0.000328,-0.002100,0.012662,-0.999918,0.000269,0.002108,-0.005682,-3.464602,-13.059914,-45.104931,,,,,,,
1558219133.203885,-0.002108,-0.012698,0.658209,0.000586,0.001252,0.001407,-0.002108,0.012697,-0.999917,-0.001356,0.002836,-0.007438,-3.465342,-13.055863,-45.106045,,,,,,,
1558219133.223861,-0.002146,-0.012762,0.658225,0.002712,0.000181,0.000330,-0.002146,0.012762,-0.999916,-0.002218,0.000925,-0.007408,-3.464813,-13.053288,-45.106827,,,,,,,
1558219133.243875,-0.002155,-0.012785,0.658248,0.000585,0.001251,0.001406,-0.002155,0.012784,-0.999916,-0.001370,0.001162,-0.007744,-3.466947,-13.053097,-45.106720,,,,,,,
1558219133.263852,-0.002143,-0.012771,0.658270,0.000585,0.001251,0.001406,-0.002143,0.012770,-0.999916,-0.000634,0.000017,-0.008644,-3.467758,-13.052369,-45.106869,,,,,,,
1558219133.283843,-0.002039,-0.012813,0.658310,0.000586,0.002309,0.002484,-0.002038,0.012812,-0.999916,0.001382,0.001287,-0.006203,-3.464935,-13.051632,-45.107300,,,,,,,
1558219133.303828,-0.001992,-0.012785,0.658333,0.000588,0.002308,0.001416,-0.001992,0.012785,-0.999916,0.000024,0.000903,-0.006813,-3.462370,-13.051491,-45.107540,,,,,,,
1558219133.323789,-0.002050,-0.012745,0.658365,0.001637,0.000180,0.001379,-0.002050,0.012745,-0.999917,-0.000361,-0.000279,-0.009010,-3.463985,-13.052066,-45.107246,,,,,,,
1558219133.343786,-0.002004,-0.012722,0.658388,0.001644,0.002294,0.001399,-0.002004,0.012722,-0.999917,-0.000056,0.000874,-0.005256,-3.463098,-13.054863,-45.106503,,,,,,,
1558219133.363775,-0.001989,-0.012760,0.658410,-0.000487,0.001246,0.000319,-0.001989,0.012760,-0.999917,0.000265,0.001644,-0.007743,-3.462913,-13.054256,-45.106693,,,,,,,
1558219133.383755,-0.001963,-0.012831,0.658422,-0.000484,0.002303,0.000329,-0.001963,0.012831,-0.999916,-0.000600,0.000795,-0.008217,-3.461491,-13.050276,-45.107956,,,,,,,
1558219133.403732,-0.001995,-0.012851,0.658444,-0.000492,0.000188,0.000309,-0.001994,0.012851,-0.999915,-0.001729,0.000363,-0.009209,-3.461408,-13.048720,-45.108414,,,,,,,
1558219133.423712,-0.002032,-0.012836,0.658460,0.001641,0.001234,0.000321,-0.002032,0.012836,-0.999916,-0.001569,-0.000217,-0.007378,-3.463060,-13.048363,-45.108391,,,,,,,
1558219133.443715,-0.002026,-0.012842,0.658483,0.001639,0.001235,0.001388,-0.002026,0.012842,-0.999915,0.000393,0.000510,-0.007210,-3.465788,-13.048583,-45.108116,,,,,,,
1558219133.463698,-0.002020,-0.012860,0.658505,0.001636,0.000176,0.000310,-0.002019,0.012859,-0.999915,-0.000117,0.001545,-0.007333,-3.464942,-13.048790,-45.108120,,,,,,,
1558219133.483679,-0.002010,-0.012886,0.658532,0.000570,0.002288,0.000312,-0.002010,0.012886,-0.999915,-0.000417,0.000130,-0.008233,-3.465018,-13.047780,-45.108406,,,,,,,
1558219133.503666,-0.001959,-0.012821,0.658544,0.001622,-0.000887,0.001350,-0.001959,0.012821,-0.999916,0.001837,-0.000660,-0.007759,-3.464091,-13.047937,-45.108437,,,,,,,
1558219133.523651,-0.001947,-0.012815,0.658566,0.001626,0.000170,0.001360,-0.001947,0.012815,-0.999916,0.000788,0.000873,-0.008202,-3.463284,-13.049951,-45.107914,,,,,,,
1558219133.543634,-0.001959,-0.012852,0.658588,0.001622,-0.000887,0.001350,-0.001959,0.012852,-0.999915,0.000708,0.001949,-0.006280,-3.463983,-13.048817,-45.108185,,,,,,,
1558219133.563618,-0.001981,-0.012867,0.658609,-0.000496,0.002293,0.000311,-0.001980,0.012867,-0.999915,-0.000598,0.001293,-0.007531,-3.463482,-13.047927,-45.108482,,,,,,,
1558219133.583602,-0.002015,-0.012905,0.658636,0.001626,0.001228,0.002438,-0.002015,0.012904,-0.999915,0.000092,0.000752,-0.006982,-3.466723,-13.045351,-45.108974,,,,,,,
1558219133.603586,-0.001999,-0.012859,0.658663,0.001622,-0.000890,0.000282,-0.001999,0.012859,-0.999915,0.000931,0.000355,-0.005349,-3.466838,-13.047139,-45.108452,,,,,,,
1558219133.623569,-0.001966,-0.012854,0.658680,0.001624,0.000169,0.001360,-0.001966,0.012854,-0.999915,0.000394,0.001215,-0.007195,-3.465493,-13.048220,-45.108242,,,,,,,
1558219133.643539,-0.001984,-0.012849,0.658701,-0.000513,0.000170,0.000272,-0.001984,0.012848,-0.999915,-0.000610,0.000671,-0.007485,-3.465485,-13.047294,-45.108513,,,,,,,
1558219133.663536,-0.001976,-0.012848,0.658728,-0.001580,0.000177,0.001339,-0.001976,0.012847,-0.999916,-0.000511,0.000290,-0.007912,-3.465626,-13.048105,-45.108265,,,,,,,
1558219133.683492,-0.001991,-0.012866,0.658760,-0.000517,0.000172,0.002407,-0.001991,0.012866,-0.999915,-0.001030,0.001096,-0.007699,-3.466148,-13.047657,-45.108356,,,,,,,
1558219133.703475,-0.002002,-0.012890,0.658797,0.001615,0.001218,0.002419,-0.002002,0.012889,-0.999915,-0.000333,0.001896,-0.008371,-3.468048,-13.046673,-45.108490,,,,,,,
1558219133.723475,-0.002003,-0.012923,0.658808,0.000555,0.002279,0.001361,-0.002003,0.012923,-0.999914,-0.001598,0.003160,-0.007059,-3.467692,-13.046150,-45.108673,,,,,,,
1558219133.743466,-0.001995,-0.012956,0.658845,0.000548,0.000164,0.001340,-0.001995,0.012956,-0.999914,0.000454,0.002303,-0.007639,-3.468458,-13.042071,-45.109795,,,,,,,
1558219133.763442,-0.001998,-0.012933,0.658872,0.001611,0.000160,0.002409,-0.001998,0.012933,-0.999914,0.000167,-0.001031,-0.007471,-3.469095,-13.041861,-45.109806,,,,,,,
1558219133.783428,-0.002013,-0.012885,0.658893,0.001612,0.000158,0.001341,-0.002013,0.012885,-0.999915,-0.001161,-0.000372,-0.009301,-3.468845,-13.044168,-45.109154,,,,,,,
1558219133.803424,-0.001959,-0.012890,0.658894,0.000542,0.001210,0.000263,-0.001959,0.012889,-0.999915,0.001638,0.001088,-0.006555,-3.468167,-13.044861,-45.109013,,,,,,,
1558219133.823379,-0.001945,-0.012867,0.658915,-0.000525,0.001217,0.001330,-0.001945,0.012866,-0.999915,-0.000268,-0.001270,-0.005196,-3.467200,-13.044937,-45.109062,,,,,,,
1558219133.843370,-0.001940,-0.012904,0.658947,0.001599,0.000150,0.002389,-0.001940,0.012904,-0.999915,-0.000700,0.001852,-0.007882,-3.466569,-13.045814,-45.108856,,,,,,,
1558219133.863370,-0.001910,-0.012902,0.658974,0.001604,0.001206,0.001332,-0.001910,0.012901,-0.999915,-0.000257,0.001747,-0.006845,-3.467213,-13.044646,-45.109146,,,,,,,
1558219133.883346,-0.001886,-0.012913,0.658984,0.001600,0.000148,0.001321,-0.001886,0.012912,-0.999915,0.000406,0.002148,-0.006997,-3.465939,-13.045608,-45.108967,,,,,,,
1558219133.903343,-0.001878,-0.012907,0.659000,0.000536,0.000154,0.001321,-0.001878,0.012907,-0.999915,-0.000167,0.000063,-0.005838,-3.465580,-13.043974,-45.109467,,,,,,,
1558219133.923306,-0.001870,-0.012893,0.659005,-0.000528,0.000158,0.000252,-0.001870,0.012893,-0.999915,-0.000877,-0.000884,-0.008096,-3.465517,-13.045089,-45.109146,,,,,,,
1558219133.943311,-0.001868,-0.012898,0.659015,-0.000528,0.000157,0.000252,-0.001868,0.012898,-0.999915,-0.000665,0.000103,-0.007791,-3.464372,-13.044437,-45.109421,,,,,,,
1558219133.963295,-0.001844,-0.012877,0.659031,0.000528,0.001202,0.001312,-0.001844,0.012877,-0.999915,-0.002016,-0.000014,-0.006463,-3.464646,-13.044779,-45.109303,,,,,,,
1558219133.983279,-0.001855,-0.012858,0.659057,0.002653,0.000133,0.001304,-0.001855,0.012858,-0.999916,-0.001059,0.000372,-0.007943,-3.465020,-13.045082,-45.109188,,,,,,,
1558219134.003263,-0.001855,-0.012827,0.659083,0.002653,0.000133,0.001303,-0.001855,0.012826,-0.999916,-0.000113,0.000647,-0.007439,-3.465292,-13.047479,-45.108471,,,,,,,
1558219134.023246,-0.001842,-0.012806,0.659088,0.002653,0.000133,0.001303,-0.001842,0.012805,-0.999916,-0.001530,0.000500,-0.008293,-3.464975,-13.047536,-45.108482,,,,,,,
1558219134.043231,-0.001860,-0.012794,0.659108,0.001591,0.001195,0.001313,-0.001859,0.012794,-0.999916,-0.000384,-0.000266,-0.007377,-3.465881,-13.047494,-45.108421,,,,,,,
1558219134.063200,-0.001834,-0.012752,0.659129,0.001603,0.004364,0.000275,-0.001834,0.012752,-0.999917,-0.000333,0.000142,-0.007743,-3.465701,-13.050220,-45.107647,,,,,,,
1558219134.083197,-0.001772,-0.012751,0.659145,-0.000530,0.003318,0.000263,-0.001772,0.012751,-0.999917,-0.000960,0.000936,-0.006843,-3.465141,-13.050529,-45.107601,,,,,,,
1558219134.103156,-0.001763,-0.012815,0.659171,0.003721,0.001181,0.000246,-0.001763,0.012814,-0.999916,-0.002052,0.001087,-0.007179,-3.460392,-13.047615,-45.108807,,,,,,,
1558219134.123144,-0.001795,-0.012820,0.659191,0.000519,0.003305,0.002381,-0.001795,0.012820,-0.999916,-0.000967,-0.001574,-0.009376,-3.464808,-13.047160,-45.108601,,,,,,,
1558219134.143133,-0.001806,-0.012728,0.659195,0.000521,0.002243,-0.000833,-0.001806,0.012728,-0.999917,-0.001368,-0.000460,-0.007331,-3.464218,-13.047235,-45.108627,,,,,,,
1558219134.163126,-0.001721,-0.012701,0.659205,0.001575,0.000127,0.001283,-0.001721,0.012701,-0.999918,0.002179,0.000269,-0.006033,-3.464294,-13.051840,-45.107288,,,,,,,
1558219134.183097,-0.001691,-0.012715,0.659221,0.001578,0.001184,0.001293,-0.001691,0.012715,-0.999918,-0.001346,0.000408,-0.007330,-3.460117,-13.051555,-45.107689,,,,,,,
1558219134.203102,-0.001784,-0.012673,0.659235,0.001574,-0.000934,-0.000862,-0.001784,0.012673,-0.999918,-0.003556,0.000099,-0.007940,-3.459935,-13.051888,-45.107609,,,,,,,
1558219134.223087,-0.001869,-0.012662,0.659254,-0.000553,0.000135,0.000214,-0.001868,0.012661,-0.999918,-0.002602,-0.000729,-0.007894,-3.464635,-13.053571,-45.106758,,,,,,,
1558219134.243069,-0.001894,-0.012730,0.659268,0.000509,0.000131,0.001282,-0.001894,0.012729,-0.999917,-0.000761,0.002316,-0.007071,-3.468811,-13.053681,-45.106407,,,,,,,
1558219134.263037,-0.001985,-0.012781,0.659288,0.000507,-0.000928,0.000204,-0.001985,0.012780,-0.999916,-0.001982,0.001883,-0.007820,-3.469774,-13.051059,-45.107094,,,,,,,
1558219134.283033,-0.002172,-0.012752,0.659305,0.002613,-0.003061,0.002301,-0.002172,0.012752,-0.999916,-0.002253,0.000142,-0.007133,-3.478692,-13.049068,-45.106979,,,,,,,
1558219134.303021,-0.002278,-0.012744,0.659314,0.001552,-0.003059,0.000165,-0.002278,0.012744,-0.999916,-0.000118,0.000684,-0.005958,-3.486864,-13.050586,-45.105911,,,,,,,
1558219134.322993,-0.002294,-0.012729,0.659317,0.002620,-0.002007,0.000176,-0.002294,0.012729,-0.999916,0.000890,-0.001071,-0.007210,-3.488676,-13.048955,-45.106243,,,,,,,
1558219134.342989,-0.002343,-0.012745,0.659326,0.001565,0.001169,0.000206,-0.002343,0.012745,-0.999916,-0.000739,0.001080,-0.007530,-3.490292,-13.050504,-45.105671,,,,,,,
1558219134.362973,-0.002421,-0.012764,0.659340,0.001554,-0.002002,0.000175,-0.002421,0.012763,-0.999916,-0.001134,0.001107,-0.007134,-3.492862,-13.050001,-45.105618,,,,,,,
1558219134.382957,-0.002529,-0.012817,0.659348,0.000479,-0.005168,0.000144,-0.002529,0.012817,-0.999915,0.001415,0.001496,-0.006387,-3.498222,-13.048105,-45.105747,,,,,,,
1558219134.402910,-0.002562,-0.012828,0.659346,0.000482,-0.004111,0.000154,-0.002562,0.012827,-0.999914,0.001204,0.001058,-0.007196,-3.500331,-13.047121,-45.105869,,,,,,,
1558219134.422908,-0.002682,-0.012782,0.659344,-0.000579,-0.003049,0.000163,-0.002682,0.012782,-0.999915,-0.002415,0.000188,-0.007013,-3.503194,-13.048664,-45.105202,,,,,,,
1558219134.442894,-0.002712,-0.012824,0.659357,-0.000585,-0.000943,0.001233,-0.002712,0.012824,-0.999914,-0.000416,0.000985,-0.006952,-3.506969,-13.047660,-45.105198,,,,,,,
1558219134.462888,-0.002734,-0.012830,0.659371,0.001545,-0.000956,0.000167,-0.002734,0.012829,-0.999914,0.000323,0.000354,-0.005747,-3.508011,-13.046553,-45.105438,,,,,,,
1558219134.482864,-0.002688,-0.012812,0.659397,0.000486,0.001165,0.001254,-0.002687,0.012811,-0.999914,-0.001020,-0.000528,-0.007547,-3.506947,-13.047364,-45.105286,,,,,,,
1558219134.502844,-0.002647,-0.012856,0.659427,0.000482,0.000108,0.001243,-0.002647,0.012856,-0.999914,0.001456,0.002296,-0.009028,-3.507248,-13.047086,-45.105347,,,,,,,
1558219134.522824,-0.002684,-0.012897,0.659441,0.001549,0.001159,0.001254,-0.002684,0.012897,-0.999913,-0.002764,0.002972,-0.008769,-3.506101,-13.044928,-45.106056,,,,,,,
1558219134.542800,-0.002701,-0.012956,0.659466,-0.000575,0.002225,0.000195,-0.002700,0.012956,-0.999912,-0.000519,0.001174,-0.009136,-3.507754,-13.041751,-45.106846,,,,,,,
1558219134.562812,-0.002653,-0.012905,0.659486,0.000493,0.003276,0.000206,-0.002653,0.012905,-0.999913,-0.000170,-0.000545,-0.006633,-3.508231,-13.041072,-45.107006,,,,,,,
1558219134.582791,-0.002587,-0.012919,0.659511,0.001551,0.002217,0.002332,-0.002587,0.012919,-0.999913,-0.001991,0.000692,-0.006999,-3.505326,-13.040814,-45.107304,,,,,,,
1558219134.602780,-0.002592,-0.012975,0.659530,0.001539,0.002205,0.001245,-0.002591,0.012975,-0.999912,0.000943,0.001582,-0.007519,-3.503265,-13.039980,-45.107708,,,,,,,
1558219134.622764,-0.002581,-0.012977,0.659528,0.001534,0.000089,0.000157,-0.002580,0.012977,-0.999912,-0.000304,0.001275,-0.006344,-3.503988,-13.039562,-45.107773,,,,,,,
1558219134.642747,-0.002550,-0.012935,0.659542,0.000471,0.001153,0.001234,-0.002549,0.012935,-0.999913,-0.003157,-0.001658,-0.006694,-3.503256,-13.040689,-45.107502,,,,,,,
1558219134.662731,-0.002471,-0.012894,0.659578,-0.000593,0.001159,0.001233,-0.002471,0.012894,-0.999914,-0.000932,0.001892,-0.008143,-3.500993,-13.042726,-45.107094,,,,,,,
1558219134.682716,-0.002481,-0.012946,0.659608,-0.000599,0.000103,0.002290,-0.002481,0.012946,-0.999913,-0.000769,0.003137,-0.006587,-3.499879,-13.043250,-45.107025,,,,,,,
1558219134.702699,-0.002496,-0.012941,0.659627,-0.000594,0.001158,0.001233,-0.002496,0.012941,-0.999913,-0.001441,-0.000154,-0.007732,-3.502006,-13.040827,-45.107559,,,,,,,
1558219134.722671,-0.002446,-0.012932,0.659652,0.001526,-0.000965,0.002282,-0.002445,0.012932,-0.999913,0.001576,0.000633,-0.008143,-3.501202,-13.040874,-45.107613,,,,,,,
1558219134.742648,-0.002455,-0.012919,0.659671,0.000465,-0.000963,0.000145,-0.002455,0.012919,-0.999914,0.000624,0.000173,-0.008067,-3.500765,-13.040765,-45.107677,,,,,,,
1558219134.762651,-0.002527,-0.012869,0.659684,0.001520,0.000077,0.000137,-0.002527,0.012869,-0.999914,0.000238,-0.000143,-0.006815,-3.503942,-13.042198,-45.107010,,,,,,,
1558219134.782633,-0.002496,-0.012806,0.659687,0.001525,0.002193,0.001225,-0.002496,0.012805,-0.999915,0.000481,-0.001178,-0.007898,-3.503548,-13.044538,-45.106369,,,,,,,
1558219134.802612,-0.002472,-0.012789,0.659700,0.002594,0.003242,0.000168,-0.002472,0.012789,-0.999915,-0.000503,0.000929,-0.006844,-3.502597,-13.046210,-45.105957,,,,,,,
1558219134.822598,-0.002454,-0.012740,0.659709,0.000458,0.001139,0.000146,-0.002454,0.012740,-0.999916,-0.000705,-0.000960,-0.006768,-3.501551,-13.047467,-45.105679,,,,,,,
1558219134.842565,-0.002490,-0.012778,0.659727,0.001517,0.000077,0.001204,-0.002490,0.012778,-0.999915,-0.003766,0.000833,-0.007851,-3.498981,-13.047759,-45.105793,,,,,,,
1558219134.862555,-0.002404,-0.012744,0.659752,0.001507,-0.003093,0.001174,-0.002404,0.012744,-0.999916,0.002343,-0.000613,-0.008507,-3.502900,-13.047334,-45.105606,,,,,,,
1558219134.882529,-0.002432,-0.012715,0.659759,0.001522,0.001133,0.000146,-0.002432,0.012715,-0.999916,-0.002100,-0.000050,-0.007942,-3.499167,-13.049441,-45.105289,,,,,,,
1558219134.902511,-0.002460,-0.012754,0.659783,0.001518,0.001136,0.002282,-0.002459,0.012754,-0.999916,-0.000226,0.002993,-0.007714,-3.502183,-13.050775,-45.104671,,,,,,,
1558219134.922522,-0.002562,-0.012808,0.659816,0.000437,0.000073,0.002252,-0.002562,0.012808,-0.999915,-0.001924,0.000101,-0.008905,-3.502276,-13.048222,-45.105400,,,,,,,
1558219134.942506,-0.002542,-0.012759,0.659830,0.000440,0.000070,0.000117,-0.002542,0.012759,-0.999915,0.000268,-0.001940,-0.006371,-3.506913,-13.045457,-45.105843,,,,,,,
1558219134.962490,-0.002505,-0.012739,0.659838,0.000444,0.001127,0.000127,-0.002504,0.012738,-0.999916,-0.000044,0.000399,-0.008644,-3.505277,-13.048898,-45.104977,,,,,,,
1558219134.982473,-0.002529,-0.012714,0.659850,0.001513,0.003236,0.001215,-0.002529,0.012714,-0.999916,-0.005329,-0.000370,-0.007729,-3.505048,-13.048720,-45.105042,,,,,,,
1558219135.002438,-0.002483,-0.012744,0.659869,0.001501,0.000067,0.002253,-0.002482,0.012743,-0.999916,0.003169,0.003492,-0.007485,-3.507958,-13.050907,-45.104183,,,,,,,
1558219135.022413,-0.002513,-0.012709,0.659903,0.002569,0.001118,0.002263,-0.002513,0.012709,-0.999916,-0.004567,-0.005125,-0.007591,-3.504083,-13.049145,-45.104996,,,,,,,
1558219135.042425,-0.002555,-0.012656,0.659932,0.002565,0.000061,0.002253,-0.002555,0.012656,-0.999917,-0.001885,-0.000724,-0.007774,-3.508486,-13.051587,-45.103947,,,,,,,
1558219135.062405,-0.002581,-0.012669,0.659928,-0.000624,0.000072,-0.000952,-0.002581,0.012668,-0.999916,-0.002607,0.001812,-0.006111,-3.508681,-13.052203,-45.103752,,,,,,,
1558219135.082389,-0.002847,-0.012763,0.659735,0.001517,0.001085,-0.015906,-0.002846,0.012763,-0.999915,-0.008888,0.002328,-0.006662,-3.516311,-13.048462,-45.104240,,,,,,,
1558219135.102377,-0.002834,-0.012753,0.659236,0.000466,0.000016,-0.027662,-0.002833,0.012753,-0.999915,0.004680,0.000324,-0.007745,-3.517958,-13.049735,-45.103745,,,,,,,
1558219135.122342,-0.002607,-0.012733,0.658793,0.000452,0.001091,-0.015907,-0.002607,0.012732,-0.999916,0.010771,-0.000358,-0.009041,-3.510190,-13.050680,-45.104076,,,,,,,
1558219135.142328,-0.002410,-0.012749,0.658637,-0.000634,-0.001003,-0.006319,-0.002410,0.012748,-0.999916,0.003203,0.001732,-0.006417,-3.487581,-13.053964,-45.104881,,,,,,,
1558219135.162329,-0.002470,-0.012770,0.658558,0.001493,-0.001012,-0.005250,-0.002470,0.012770,-0.999915,-0.002321,0.001986,-0.006066,-3.484223,-13.052639,-45.105522,,,,,,,
1558219135.182312,-0.002509,-0.012752,0.658464,0.001495,0.001106,-0.002027,-0.002509,0.012752,-0.999916,0.005072,-0.001674,-0.006676,-3.487435,-13.052223,-45.105396,,,,,,,
1558219135.202295,-0.002495,-0.012705,0.658471,0.001492,0.001109,0.000108,-0.002495,0.012705,-0.999916,-0.000221,-0.000177,-0.007591,-3.485467,-13.053147,-45.105278,,,,,,,
1558219135.222267,-0.002512,-0.012740,0.658478,-0.000639,0.001121,0.001174,-0.002511,0.012740,-0.999916,-0.002020,0.002061,-0.007012,-3.485452,-13.055061,-45.104725,,,,,,,
1558219135.242265,-0.002534,-0.012777,0.658506,0.000412,0.001105,0.000088,-0.002534,0.012777,-0.999915,-0.002547,0.003077,-0.006722,-3.488579,-13.050862,-45.105698,,,,,,,
1558219135.262248,-0.002628,-0.012830,0.658517,0.001475,0.001100,0.001157,-0.002628,0.012830,-0.999914,-0.000973,-0.000516,-0.008127,-3.491879,-13.048132,-45.106236,,,,,,,
1558219135.282214,-0.002699,-0.012792,0.658545,0.000407,0.000048,0.001146,-0.002699,0.012792,-0.999915,-0.008669,0.000438,-0.006998,-3.492218,-13.049464,-45.105824,,,,,,,
1558219135.302217,-0.002882,-0.012882,0.658512,0.000411,-0.001018,-0.004203,-0.002882,0.012882,-0.999913,-0.003557,0.003521,-0.007701,-3.500949,-13.050036,-45.104977,,,,,,,
1558219135.322199,-0.003276,-0.013049,0.658290,0.001497,0.001073,-0.014859,-0.003276,0.013049,-0.999910,-0.008886,0.003065,-0.007140,-3.511343,-13.042250,-45.106422,,,,,,,
1558219135.342169,-0.003077,-0.013057,0.657846,0.002576,0.002114,-0.022321,-0.003077,0.013056,-0.999910,0.006128,-0.001185,-0.009306,-3.513578,-13.038363,-45.107376,,,,,,,
1558219135.362167,-0.002899,-0.012978,0.657471,-0.000621,0.002134,-0.020188,-0.002899,0.012977,-0.999912,0.000015,-0.001884,-0.009045,-3.493940,-13.043159,-45.107513,,,,,,,
1558219135.382152,-0.003389,-0.013033,0.656703,0.000502,0.004189,-0.054333,-0.003389,0.013032,-0.999909,-0.015929,0.001418,-0.008987,-3.491798,-13.046173,-45.106804,,,,,,,
1558219135.402109,-0.003141,-0.013100,0.655422,0.001557,0.004171,-0.057552,-0.003140,0.013099,-0.999909,0.013288,0.001259,-0.006957,-3.495776,-13.046234,-45.106483,,,,,,,
1558219135.422119,-0.002750,-0.013079,0.654745,-0.000631,0.002122,-0.022341,-0.002750,0.013079,-0.999911,0.003208,0.000059,-0.007185,-3.453905,-13.049609,-45.108730,,,,,,,
1558219135.442104,-0.003101,-0.013085,0.654230,-0.000611,0.002100,-0.036221,-0.003100,0.013085,-0.999910,-0.016172,0.001167,-0.007491,-3.443539,-13.052394,-45.108715,,,,,,,
1558219135.462070,-0.003578,-0.013107,0.652672,-0.001590,-0.000103,-0.098167,-0.003577,0.013106,-0.999908,-0.020959,-0.001876,-0.006303,-3.446605,-13.054063,-45.107998,,,,,,,
1558219135.482071,-0.004888,-0.012577,0.650332,0.001630,-0.001211,-0.117392,-0.004887,0.012576,-0.999909,-0.036571,-0.016513,-0.006439,-3.464850,-13.067133,-45.102818,,,,,,,
1558219135.502055,-0.005832,-0.011906,0.648631,0.002624,0.000974,-0.063989,-0.005831,0.011906,-0.999912,-0.013532,-0.010685,-0.009319,-3.494201,-13.111697,-45.087616,,,,,,,
1558219135.522039,-0.006300,-0.011558,0.647821,0.002564,-0.004270,-0.035212,-0.006300,0.011557,-0.999913,-0.017107,-0.008582,-0.007808,-3.500067,-13.131950,-45.081268,,,,,,,
1558219135.542021,-0.007732,-0.011087,0.646778,0.001527,-0.010657,-0.066236,-0.007731,0.011087,-0.999909,-0.061895,-0.021524,-0.007599,-3.510815,-13.143038,-45.077202,,,,,,,
1558219135.562002,-0.008014,-0.011032,0.644435,0.000540,-0.013933,-0.134615,-0.008014,0.011031,-0.999907,-0.007657,0.004548,-0.008302,-3.548852,-13.173841,-45.065228,,,,,,,
1558219135.581990,-0.008120,-0.011025,0.642280,-0.000537,0.004114,-0.086399,-0.008120,0.011025,-0.999906,-0.034696,0.007652,-0.006396,-3.532096,-13.180671,-45.064548,,,,,,,
1558219135.601956,-0.008772,-0.010610,0.641441,0.001462,-0.000011,-0.008499,-0.008771,0.010610,-0.999905,-0.022891,-0.023244,-0.006519,-3.513833,-13.183927,-45.065025,,,,,,,
1558219135.621932,-0.009036,-0.010607,0.641839,0.000271,-0.026391,0.017938,-0.009036,0.010607,-0.999903,-0.033750,0.006162,0.000803,-3.546504,-13.203943,-45.056602,,,,,,,
1558219135.641942,-0.010209,-0.010840,0.641214,-0.002784,-0.019093,-0.058865,-0.010208,0.010839,-0.999889,-0.027817,0.008219,-0.002003,-3.565134,-13.203293,-45.055321,,,,,,,
1558219135.661923,-0.010388,-0.010839,0.639117,-0.000528,-0.008627,-0.120686,-0.010387,0.010839,-0.999887,-0.023579,0.011851,-0.010031,-3.591433,-13.197962,-45.054798,,,,,,,
1558219135.681907,-0.010780,-0.010827,0.636874,0.000467,-0.023410,-0.106948,-0.010779,0.010827,-0.999883,-0.022256,0.007758,-0.006831,-3.566032,-13.207215,-45.054104,,,,,,,
1558219135.701893,-0.012291,-0.010457,0.634741,-0.002666,0.003054,-0.088547,-0.012290,0.010457,-0.999870,-0.024102,-0.003972,-0.014763,-3.581714,-13.215986,-45.050289,,,,,,,
1558219135.721878,-0.013269,-0.009823,0.634821,0.021251,-0.085609,0.085701,-0.013268,0.009823,-0.999864,0.004769,-0.013439,-0.016005,-3.596190,-13.232610,-45.044254,,,,,,,
1558219135.741860,-0.013622,-0.009887,0.638258,-0.040644,0.212865,0.133349,-0.013620,0.009887,-0.999858,-0.025518,0.108048,-0.103840,-3.750108,-13.258968,-45.023945,,,,,,,
1558219135.761845,-0.012718,-0.010072,0.635912,-0.002527,-0.002408,-0.201787,-0.012717,0.010072,-0.999868,0.052772,0.021956,0.009192,-3.661709,-13.240186,-45.036747,,,,,,,
1558219135.781810,-0.013849,-0.010454,0.632441,0.018262,-0.115493,-0.117441,-0.013848,0.010454,-0.999849,-0.011649,0.018355,-0.003980,-3.609507,-13.250610,-45.037895,,,,,,,
1558219135.801791,-0.015225,-0.010250,0.631829,0.008754,-0.049767,-0.021799,-0.015224,0.010250,-0.999832,-0.042363,0.006825,-0.000443,-3.685509,-13.248230,-45.032444,,,,,,,
1558219135.821796,-0.015645,-0.010576,0.630545,0.000522,0.005136,-0.091745,-0.015643,0.010575,-0.999822,-0.008633,0.011351,0.015477,-3.692500,-13.252723,-45.030544,,,,,,,
1558219135.841762,-0.015286,-0.010699,0.626994,-0.001453,-0.004551,-0.215686,-0.015285,0.010698,-0.999826,-0.004857,-0.006456,0.004632,-3.656040,-13.238647,-45.037659,,,,,,,
1558219135.861763,-0.015456,-0.010638,0.623092,-0.005637,0.039936,-0.167220,-0.015454,0.010638,-0.999824,-0.014773,-0.004855,-0.028908,-3.588545,-13.250762,-45.039528,,,,,,,
1558219135.881720,-0.015403,-0.010694,0.620883,-0.006903,0.022095,-0.080924,-0.015402,0.010694,-0.999824,-0.009638,0.025393,-0.013649,-3.585819,-13.258883,-45.037354,,,,,,,
1558219135.901733,-0.016010,-0.011197,0.620141,-0.001763,-0.004265,-0.018181,-0.016008,0.011197,-0.999809,-0.012022,0.018497,-0.006508,-3.551785,-13.264765,-45.038319,,,,,,,
1558219135.921707,-0.016159,-0.011284,0.618794,-0.001716,-0.023402,-0.092032,-0.016157,0.011284,-0.999806,-0.035921,-0.008049,0.027836,-3.559386,-13.240795,-45.044769,,,,,,,
1558219135.941687,-0.015879,-0.011406,0.615877,-0.017551,-0.011785,-0.154925,-0.015877,0.011406,-0.999809,0.025429,0.004525,-0.023018,-3.513464,-13.245973,-45.046852,,,,,,,
1558219135.961684,-0.016794,-0.011865,0.614000,0.019875,0.076924,-0.073972,-0.016792,0.011865,-0.999789,-0.025078,0.013999,0.084521,-3.509231,-13.249781,-45.046062,,,,,,,
1558219135.981668,-0.017409,-0.011731,0.613074,0.037291,-0.101711,-0.012677,-0.017407,0.011731,-0.999780,0.055157,0.012668,-0.133796,-3.514247,-13.229213,-45.051720,,,,,,,
1558219136.001647,-0.018300,-0.011602,0.612898,0.012849,-0.104805,-0.046891,-0.018298,0.011601,-0.999765,0.016543,0.017879,-0.118338,-3.574255,-13.240190,-45.043774,,,,,,,
1558219136.021636,-0.019590,-0.011597,0.610752,0.002215,-0.136574,-0.124074,-0.019588,0.011597,-0.999741,-0.010670,-0.005783,0.034195,-3.601848,-13.245991,-45.039871,,,,,,,
1558219136.041620,-0.018745,-0.011850,0.607490,-0.021406,0.098096,-0.193383,-0.018743,0.011849,-0.999754,-0.021052,0.014335,0.032286,-3.554482,-13.249040,-45.042732,,,,,,,
1558219136.061605,-0.016982,-0.011707,0.605064,-0.028408,-0.036988,-0.079376,-0.016980,0.011707,-0.999787,-0.059741,0.022488,0.097215,-3.390184,-13.258264,-45.052689,,,,,,,
1558219136.081588,-0.015673,-0.011723,0.603871,-0.021791,0.045465,-0.051890,-0.015671,0.011723,-0.999808,0.001663,0.033840,-0.081475,-3.372015,-13.263006,-45.052654,,,,,,,
1558219136.101570,-0.014716,-0.011570,0.603243,0.011209,0.053773,-0.034702,-0.014714,0.011570,-0.999825,-0.023082,-0.000080,0.001915,-3.293882,-13.268405,-45.056843,,,,,,,
1558219136.121555,-0.014571,-0.011809,0.601712,0.085120,0.173811,-0.080470,-0.014569,0.011808,-0.999824,0.029614,-0.002836,-0.029168,-3.316806,-13.255362,-45.058998,,,,,,,
1558219136.141514,-0.013372,-0.011681,0.598595,-0.064375,-0.027487,-0.210634,-0.013370,0.011681,-0.999842,-0.047726,0.027763,0.005076,-3.234351,-13.268146,-45.061230,,,,,,,
1558219136.161514,-0.011608,-0.011452,0.594786,0.045615,0.097779,-0.168777,-0.011607,0.011452,-0.999867,-0.057943,-0.016396,0.019963,-3.021947,-13.295557,-45.067898,,,,,,,
1558219136.181486,-0.010248,-0.011679,0.591313,0.021171,0.120138,-0.146162,-0.010247,0.011679,-0.999879,-0.041465,-0.041327,-0.018218,-2.952419,-13.291415,-45.073727,,,,,,,
1558219136.201474,-0.010019,-0.011609,0.589514,-0.032582,-0.006329,-0.080128,-0.010018,0.011609,-0.999882,-0.054008,0.006305,0.002934,-2.888577,-13.309580,-45.072506,,,,,,,
1558219136.221450,-0.010742,-0.011884,0.588730,0.005673,0.003075,-0.015948,-0.010741,0.011884,-0.999872,0.018996,-0.009198,-0.028494,-2.860029,-13.296795,-45.078094,,,,,,,
1558219136.241430,-0.010309,-0.011682,0.588054,-0.032999,-0.136354,-0.087779,-0.010308,0.011682,-0.999879,-0.202185,0.037299,0.073411,-2.846286,-13.310737,-45.074852,,,,,,,
1558219136.261417,-0.014632,-0.012332,0.586101,-0.001754,-0.001153,-0.041618,-0.014630,0.012331,-0.999817,0.028073,-0.065829,-0.123169,-2.846286,-13.310737,-45.074852,,,,,,,
1558219136.281417,-0.014148,-0.012498,0.586717,0.003448,-0.010604,0.018083,-0.014146,0.012498,-0.999822,-0.047057,0.055327,-0.018977,-3.025418,-13.277179,-45.073082,,,,,,,
1558219136.301411,-0.014779,-0.012708,0.585780,-0.011370,-0.024397,-0.068540,-0.014777,0.012707,-0.999810,-0.017984,0.018054,-0.023521,-3.040388,-13.265268,-45.075581,,,,,,,
1558219136.321395,-0.014751,-0.012992,0.584715,-0.017649,0.016887,-0.050000,-0.014749,0.012992,-0.999807,-0.038138,0.023049,0.020437,-3.040388,-13.265268,-45.075581,,,,,,,
1558219136.341379,-0.015236,-0.013114,0.583696,-0.007047,0.002026,-0.054404,-0.015234,0.013114,-0.999798,-0.024469,0.008996,0.013424,-3.037249,-13.251084,-45.079964,,,,,,,
1558219136.361345,-0.014830,-0.013384,0.581845,-0.016474,0.023132,-0.110795,-0.014828,0.013384,-0.999801,-0.019154,-0.003664,-0.013337,-3.011787,-13.246954,-45.082886,,,,,,,
1558219136.381347,-0.014803,-0.013629,0.578999,-0.008971,0.016679,-0.158895,-0.014801,0.013629,-0.999798,-0.037140,0.007428,-0.021717,-2.973425,-13.238429,-45.087936,,,,,,,
1558219136.401330,-0.014972,-0.013800,0.574824,-0.009990,-0.008814,-0.245620,-0.014970,0.013799,-0.999793,-0.027571,0.017710,-0.008859,-2.912811,-13.238335,-45.091923,,,,,,,
1558219136.421297,-0.015758,-0.013754,0.568461,0.000858,0.004711,-0.351179,-0.015756,0.013753,-0.999781,-0.016563,-0.000707,0.004176,-2.898551,-13.239652,-45.092453,,,,,,,
1558219136.441297,-0.015395,-0.013822,0.560756,-0.016056,0.020590,-0.394814,-0.015393,0.013822,-0.999786,-0.020710,-0.002057,0.007064,-2.781917,-13.263293,-45.092854,,,,,,,
1558219136.461253,-0.014724,-0.013927,0.552850,-0.011740,0.037476,-0.396784,-0.014722,0.013927,-0.999795,-0.018054,0.011769,-0.006629,-2.722424,-13.268545,-45.094940,,,,,,,
1558219136.481237,-0.015579,-0.014204,0.545628,0.006975,-0.063988,-0.323005,-0.015577,0.014203,-0.999778,0.005933,-0.003751,-0.008035,-2.545114,-13.265238,-45.106262,,,,,,,
1558219136.501228,-0.016334,-0.014787,0.539827,-0.030979,0.060978,-0.295148,-0.016332,0.014786,-0.999757,-0.016978,0.008956,0.007722,-2.501441,-13.278189,-45.104897,,,,,,,
1558219136.521224,-0.015571,-0.015460,0.532969,-0.009740,0.005770,-0.384274,-0.015568,0.015459,-0.999759,0.026493,0.001112,-0.005642,-2.415884,-13.245145,-45.119274,,,,,,,
1558219136.541205,-0.013154,-0.015334,0.525321,0.020261,0.071170,-0.371880,-0.013152,0.015333,-0.999796,0.012984,0.001009,0.014032,-2.233014,-13.250815,-45.127029,,,,,,,
1558219136.561185,-0.012169,-0.014521,0.520359,0.038901,0.015385,-0.147125,-0.012167,0.014520,-0.999821,0.021445,-0.013193,-0.031735,-2.085356,-13.273456,-45.127441,,,,,,,
1558219136.581185,-0.011788,-0.013691,0.520446,0.046010,0.005083,0.057770,-0.011787,0.013691,-0.999837,0.006385,0.003948,-0.013225,-2.006324,-13.340886,-45.111137,,,,,,,
1558219136.601151,-0.011814,-0.012790,0.521633,0.080018,-0.022612,0.032976,-0.011813,0.012790,-0.999848,0.035342,0.003797,0.015992,-2.019905,-13.367247,-45.102730,,,,,,,
1558219136.621154,-0.012821,-0.009382,0.521188,0.255502,-0.105038,-0.043475,-0.012820,0.009382,-0.999874,-0.026914,-0.024046,0.061153,-2.019942,-13.438248,-45.081619,,,,,,,
1558219136.641137,-0.015644,-0.008263,0.516924,-0.146393,-0.112943,-0.381250,-0.015642,0.008263,-0.999844,0.315554,-0.053429,-0.052555,-2.122468,-13.623642,-45.021229,,,,,,,
1558219136.661121,-0.016444,-0.010029,0.511372,-0.042214,-0.073055,-0.200352,-0.016442,0.010029,-0.999815,-0.040870,0.054241,-0.014575,-2.077927,-13.530224,-45.051464,,,,,,,
1558219136.681088,-0.018060,-0.010237,0.510003,-0.005213,-0.052846,0.014468,-0.018058,0.010237,-0.999785,0.000831,-0.007109,-0.005617,-2.093197,-13.520526,-45.053669,,,,,,,
1558219136.700995,-0.019452,-0.010003,0.512172,0.021107,-0.087690,0.132664,-0.019450,0.010003,-0.999761,0.044551,0.002128,0.004537,-2.198818,-13.519618,-45.048908,,,,,,,
1558219136.721003,-0.020818,-0.009810,0.512937,-0.004046,-0.049774,-0.047425,-0.020816,0.009810,-0.999735,0.057223,0.048326,-0.012579,-2.291698,-13.530926,-45.040886,,,,,,,
1558219136.740985,-0.020714,-0.010184,0.509505,-0.030085,0.045236,-0.220563,-0.020711,0.010184,-0.999734,0.075414,0.040140,0.001214,-2.298579,-13.528734,-45.041195,,,,,,,
1558219136.760963,-0.019704,-0.010831,0.505416,-0.036580,0.029470,-0.183352,-0.019701,0.010831,-0.999747,-0.009474,-0.030865,-0.003640,-2.163648,-13.500651,-45.056301,,,,,,,
1558219136.780955,-0.019832,-0.011207,0.502601,-0.016562,-0.004365,-0.119601,-0.019830,0.011206,-0.999741,-0.015052,-0.023703,-0.007477,-2.118285,-13.483387,-45.063625,,,,,,,
1558219136.800937,-0.020232,-0.011469,0.500672,0.000211,-0.057220,-0.063508,-0.020229,0.011469,-0.999730,0.017589,-0.020502,-0.022121,-2.095422,-13.473265,-45.067719,,,,,,,
1558219136.820899,-0.020919,-0.011623,0.500599,-0.018922,-0.007304,0.027704,-0.020916,0.011623,-0.999714,0.057385,0.036519,-0.002987,-2.128783,-13.469094,-45.067406,,,,,,,
1558219136.840906,-0.020834,-0.012048,0.501338,-0.025259,0.010706,0.033210,-0.020831,0.012048,-0.999710,0.053805,0.019141,-0.005645,-2.133709,-13.454995,-45.071381,,,,,,,
1558219136.860890,-0.020357,-0.012652,0.500572,-0.033502,0.036991,-0.090393,-0.020354,0.012651,-0.999713,0.023649,-0.000719,-0.011823,-2.136753,-13.437009,-45.076607,,,,,,,
1558219136.880875,-0.020067,-0.012977,0.498222,-0.012294,0.000903,-0.115277,-0.020064,0.012976,-0.999714,-0.004472,-0.018256,-0.019451,-2.068939,-13.407855,-45.088451,,,,,,,
1558219136.900837,-0.021097,-0.013205,0.497124,-0.011627,-0.070818,-0.008131,-0.021093,0.013205,-0.999690,0.032263,-0.015021,-0.024113,-2.065700,-13.402438,-45.090206,,,,,,,
1558219136.920843,-0.023771,-0.013959,0.498817,-0.003360,-0.088647,0.116620,-0.023767,0.013959,-0.999620,-0.015342,0.013492,0.009294,-2.143744,-13.394011,-45.089069,,,,,,,
1558219136.940827,-0.024166,-0.014228,0.498898,-0.023926,0.025247,-0.127790,-0.024161,0.014228,-0.999607,0.012793,0.010598,-0.043301,-2.269886,-13.352953,-45.095074,,,,,,,
1558219136.960783,-0.023046,-0.013487,0.492124,-0.004609,-0.068321,-0.435085,-0.023041,0.013486,-0.999644,0.050065,-0.016111,0.015757,-2.234654,-13.349358,-45.097897,,,,,,,
1558219136.980795,-0.024049,-0.013588,0.483278,-0.011099,-0.086212,-0.405368,-0.024045,0.013587,-0.999619,0.056866,0.009240,-0.037735,-2.058643,-13.391685,-45.093727,,,,,,,
1558219137.000778,-0.026101,-0.013638,0.478516,-0.010483,-0.100617,-0.138593,-0.026096,0.013638,-0.999566,0.008640,0.033985,0.002496,-2.044102,-13.397410,-45.092686,,,,,,,
1558219137.020750,-0.026611,-0.015106,0.476717,-0.005063,-0.056203,-0.109337,-0.026605,0.015105,-0.999532,0.060846,0.022828,0.002172,-2.086333,-13.399461,-45.090141,,,,,,,
1558219137.040746,-0.027378,-0.015427,0.472829,-0.013245,-0.011953,-0.234903,-0.027371,0.015427,-0.999506,0.063824,0.018585,-0.006994,-2.055550,-13.331841,-45.111595,,,,,,,
1558219137.060731,-0.026505,-0.015593,0.467568,-0.007671,0.050334,-0.266332,-0.026499,0.015593,-0.999527,0.076472,0.003923,-0.016250,-1.952086,-13.316154,-45.120823,,,,,,,
1558219137.080686,-0.022875,-0.015829,0.463066,-0.025984,0.020965,-0.185486,-0.022870,0.015829,-0.999613,0.081479,0.022364,-0.020055,-1.713227,-13.313754,-45.131233,,,,,,,
1558219137.100698,-0.022836,-0.016153,0.461290,-0.027378,-0.015817,-0.047045,-0.022831,0.016152,-0.999609,0.106114,0.009773,-0.022898,-1.671329,-13.304065,-45.135658,,,,,,,
1558219137.120682,-0.019705,-0.016981,0.460753,-0.011511,-0.047602,-0.050540,-0.019701,0.016980,-0.999662,0.088014,0.012836,-0.004016,-1.697891,-13.288310,-45.139309,,,,,,,
1558219137.140647,-0.020263,-0.017272,0.457644,-0.013314,-0.024586,-0.216874,-0.020259,0.017271,-0.999646,0.055750,0.010043,-0.001072,-1.519495,-13.252689,-45.156136,,,,,,,
1558219137.160650,-0.015823,-0.017538,0.452715,-0.006817,-0.002444,-0.241212,-0.015820,0.017537,-0.999721,0.103513,0.004207,-0.006306,-1.474880,-13.246977,-45.159294,,,,,,,
1558219137.180604,-0.015591,-0.017660,0.449372,-0.009052,0.022064,-0.117133,-0.015588,0.017659,-0.999723,0.108209,0.007243,-0.000964,-1.188410,-13.235906,-45.170986,,,,,,,
1558219137.200619,-0.015205,-0.017712,0.448909,-0.000726,0.024328,0.014216,-0.015202,0.017711,-0.999728,-0.007046,-0.002101,-0.002165,1.031513,-16.967606,-43.487453,,,,,,,
1558219137.220601,-0.014967,-0.017631,0.448931,0.010931,0.002049,0.000133,-0.014964,0.017631,-0.999733,-0.004307,-0.002021,-0.009758,1.029342,-16.971432,-43.486015,,,,,,,
1558219137.240577,-0.015143,-0.017339,0.448946,0.014079,-0.011709,0.000004,-0.015140,0.017339,-0.999735,-0.003292,-0.000203,-0.010000,1.026746,-16.984922,-43.480804,,,,,,,
1558219137.260570,-0.015313,-0.017143,0.448961,0.006659,-0.002157,0.000089,-0.015310,0.017142,-0.999736,-0.003901,0.001046,-0.005452,1.018802,-16.993177,-43.477768,,,,,,,
1558219137.280546,-0.015197,-0.017058,0.448997,0.003499,0.008431,0.001255,-0.015194,0.017057,-0.999739,-0.011631,0.002459,-0.009111,1.016873,-16.997534,-43.476109,,,,,,,
1558219137.300521,-0.015091,-0.017031,0.449027,0.001349,0.003160,0.003338,-0.015088,0.017031,-0.999741,-0.005572,0.001127,-0.009170,1.024710,-17.001198,-43.474491,,,,,,,
1558219137.320521,-0.015070,-0.017021,0.449041,-0.000781,0.001051,-0.000954,-0.015067,0.017020,-0.999742,-0.004556,-0.000540,-0.008284,1.025491,-17.002171,-43.474094,,,,,,,
1558219137.340474,-0.015097,-0.017010,0.449026,0.000272,-0.002125,0.000084,-0.015094,0.017009,-0.999741,-0.003537,0.000188,-0.007156,1.025880,-17.002283,-43.474041,,,,,,,
1558219137.360480,-0.015213,-0.016967,0.449033,0.002380,-0.008478,0.000025,-0.015210,0.016966,-0.999740,-0.005130,-0.000441,-0.007843,1.024095,-17.002516,-43.473991,,,,,,,
1558219137.380473,-0.015404,-0.016877,0.449035,0.005573,-0.008495,0.000027,-0.015401,0.016876,-0.999739,-0.006266,0.000046,-0.007326,1.015238,-17.006264,-43.472736,,,,,,,
1558219137.400440,-0.015838,-0.016696,0.449037,0.003461,-0.003200,0.000076,-0.015835,0.016696,-0.999735,-0.006244,-0.001696,-0.006902,1.009243,-17.009199,-43.471725,,,,,,,
1558219137.420417,-0.016493,-0.016798,0.449045,0.001340,-0.000019,0.001172,-0.016490,0.016798,-0.999723,-0.006444,0.001986,-0.007662,0.976166,-17.014975,-43.470222,,,,,,,
1558219137.440425,-0.017111,-0.016785,0.449037,0.001350,0.002090,-0.000943,-0.017108,0.016785,-0.999713,-0.008695,0.000107,-0.008496,0.951942,-17.011869,-43.471970,,,,,,,
1558219137.460409,-0.017439,-0.016784,0.449045,0.001338,-0.001081,0.000094,-0.017435,0.016783,-0.999707,-0.002386,0.000474,-0.006290,0.926865,-17.012054,-43.472443,,,,,,,
1558219137.480392,-0.017629,-0.016751,0.449061,0.001355,0.004203,0.000144,-0.017626,0.016751,-0.999704,-0.002913,-0.000805,-0.006704,0.917744,-17.011963,-43.472672,,,,,,,
1558219137.500376,-0.017826,-0.016648,0.449074,0.000292,0.005266,0.001221,-0.017823,0.016647,-0.999703,-0.005218,-0.001159,-0.008400,0.911998,-17.016214,-43.471127,,,,,,,
1558219137.520360,-0.018010,-0.016679,0.449078,-0.000767,0.006326,0.000163,-0.018007,0.016678,-0.999699,-0.005599,0.001205,-0.008007,0.902454,-17.018776,-43.470325,,,,,,,
1558219137.540344,-0.018036,-0.016657,0.449084,0.001363,0.007372,0.001242,-0.018033,0.016656,-0.999699,-0.002505,-0.000009,-0.009747,0.897803,-17.017326,-43.470985,,,,,,,
1558219137.560301,-0.018059,-0.016630,0.449096,0.000298,0.007377,0.001241,-0.018055,0.016629,-0.999699,-0.003978,-0.000348,-0.006863,0.896832,-17.017838,-43.470806,,,,,,,
1558219137.580312,-0.018088,-0.016644,0.449118,0.000308,0.010547,0.001271,-0.018084,0.016643,-0.999698,-0.002713,0.001149,-0.007107,0.892096,-17.019667,-43.470192,,,,,,,
1558219137.600297,-0.018107,-0.016640,0.449134,-0.000758,0.009493,0.000193,-0.018104,0.016639,-0.999698,-0.003655,-0.000999,-0.007489,0.894399,-17.017490,-43.470993,,,,,,,
1558219137.620268,-0.018029,-0.016589,0.449152,-0.000768,0.006321,0.000162,-0.018025,0.016589,-0.999700,-0.001201,-0.000582,-0.007487,0.893957,-17.021080,-43.469597,,,,,,,
1558219137.640265,-0.018012,-0.016611,0.449170,0.001348,0.003140,0.001201,-0.018009,0.016610,-0.999700,-0.002423,0.000693,-0.007426,0.896355,-17.020752,-43.469673,,,,,,,
1558219137.660249,-0.018023,-0.016581,0.449192,0.002416,0.004191,0.001212,-0.018020,0.016580,-0.999700,-0.004624,-0.000116,-0.007212,0.899383,-17.020546,-43.469696,,,,,,,
1558219137.680216,-0.018033,-0.016520,0.449189,0.001381,0.012650,0.000224,-0.018029,0.016519,-0.999701,-0.002677,0.001242,-0.005350,0.894727,-17.025036,-43.468033,,,,,,,
1558219137.700216,-0.017763,-0.016498,0.449209,0.000344,0.021111,0.000304,-0.017760,0.016497,-0.999706,-0.003465,-0.000460,-0.007420,0.894727,-17.025036,-43.468033,,,,,,,
1558219137.720199,-0.017358,-0.016466,0.449251,-0.000713,0.024291,0.002469,-0.017355,0.016465,-0.999714,-0.001658,0.000396,-0.008373,0.908818,-17.026936,-43.466995,,,,,,,
1558219137.740171,-0.017122,-0.016616,0.449291,0.001404,0.021107,0.002440,-0.017119,0.016615,-0.999715,-0.004442,0.002763,-0.009257,0.932375,-17.022493,-43.468239,,,,,,,
1558219137.760168,-0.016928,-0.016560,0.449322,0.001364,0.008421,0.001251,-0.016925,0.016559,-0.999720,-0.003750,-0.001438,-0.009619,0.939499,-17.020624,-43.468815,,,,,,,
1558219137.780151,-0.016931,-0.016530,0.449329,0.002406,0.001015,0.000113,-0.016928,0.016529,-0.999720,-0.000818,-0.000797,-0.008092,0.939467,-17.021708,-43.468391,,,,,,,
1558219137.800135,-0.016936,-0.016456,0.449342,0.001334,-0.001094,0.000092,-0.016932,0.016455,-0.999721,0.001582,0.000680,-0.007084,0.938036,-17.027309,-43.466232,,,,,,,
1558219137.820118,-0.016986,-0.016475,0.449333,0.001350,0.003132,-0.000935,-0.016982,0.016475,-0.999720,-0.002717,0.001210,-0.008077,0.939005,-17.027153,-43.466267,,,,,,,
1558219137.840095,-0.017140,-0.016501,0.449347,0.000290,0.006312,0.002297,-0.017136,0.016500,-0.999717,-0.004348,0.000193,-0.007577,0.933404,-17.025097,-43.467194,,,,,,,
1558219137.860087,-0.017104,-0.016464,0.449360,0.002419,0.005240,0.000153,-0.017101,0.016464,-0.999718,-0.001103,-0.002258,-0.008827,0.931602,-17.023857,-43.467720,,,,,,,
1558219137.880055,-0.017078,-0.016426,0.449389,0.002409,0.003129,0.002268,-0.017074,0.016425,-0.999719,-0.002106,-0.000403,-0.008276,0.932804,-17.027006,-43.466457,,,,,,,
1558219137.900031,-0.017028,-0.016493,0.449403,0.000279,0.002080,0.000121,-0.017025,0.016492,-0.999719,0.000271,0.002963,-0.008048,0.933568,-17.028099,-43.466019,,,,,,,
1558219137.920039,-0.017105,-0.016545,0.449403,0.000275,0.001022,0.000111,-0.017102,0.016544,-0.999717,-0.003894,0.001553,-0.005578,0.934287,-17.024578,-43.467381,,,,,,,
1558219137.940022,-0.017152,-0.016517,0.449421,0.002399,-0.000045,0.001170,-0.017149,0.016517,-0.999717,-0.003100,-0.000129,-0.008630,0.931212,-17.023346,-43.467930,,,,,,,
1558219137.959998,-0.017160,-0.016430,0.449430,0.001318,-0.000049,0.001240,-0.017157,0.016429,-0.999718,-0.001230,-0.000988,-0.005775,0.929314,-17.027027,-43.466530,,,,,,,
1558219137.979991,-0.017190,-0.016469,0.449466,0.001316,-0.000048,0.002308,-0.017187,0.016468,-0.999717,-0.003336,0.003765,-0.005609,0.929356,-17.029682,-43.465485,,,,,,,
1558219137.999975,-0.017175,-0.016484,0.449517,0.001326,0.003123,0.002338,-0.017172,0.016483,-0.999717,-0.001733,0.001842,-0.004983,0.926263,-17.026991,-43.466610,,,,,,,
1558219138.019958,-0.017279,-0.016469,0.449556,0.000263,0.003126,0.001270,-0.017276,0.016468,-0.999715,-0.003445,-0.000126,-0.006175,0.923068,-17.026587,-43.466835,,,,,,,
1558219138.039943,-0.017172,-0.016430,0.449577,0.000264,0.003124,0.000202,-0.017169,0.016430,-0.999718,0.001498,0.000004,-0.008858,0.920741,-17.026848,-43.466782,,,,,,,
1558219138.059927,-0.017138,-0.016447,0.449593,0.000252,-0.001105,-0.000906,-0.017135,0.016447,-0.999718,0.001006,0.001925,-0.005501,0.925768,-17.029049,-43.465813,,,,,,,
1558219138.079891,-0.016846,-0.016292,0.449596,-0.000800,0.003131,0.000201,-0.016843,0.016292,-0.999725,0.013517,-0.008403,-0.008331,0.926552,-17.027405,-43.466438,,,,,,,
1558219138.099877,-0.016849,-0.016266,0.449674,0.001307,-0.002161,0.003355,-0.016846,0.016265,-0.999726,-0.006622,0.003296,-0.005172,0.944401,-17.037691,-43.462025,,,,,,,
1558219138.119868,-0.017012,-0.016314,0.449750,0.002378,-0.000053,0.003376,-0.017009,0.016313,-0.999722,-0.007725,0.003340,-0.009357,0.936999,-17.035902,-43.462887,,,,,,,
1558219138.139838,-0.017041,-0.016365,0.449759,0.001319,-0.000054,-0.000896,-0.017038,0.016364,-0.999721,0.002985,0.000253,-0.008290,0.924772,-17.031511,-43.464867,,,,,,,
1558219138.159818,-0.016887,-0.016343,0.449733,0.001329,0.002057,-0.003011,-0.016884,0.016342,-0.999724,0.003319,-0.000793,-0.006227,0.927818,-17.031342,-43.464867,,,,,,,
1558219138.179829,-0.016807,-0.016285,0.449743,0.002372,-0.001109,0.004433,-0.016804,0.016285,-0.999726,0.001500,-0.001651,-0.006408,0.935622,-17.032883,-43.464096,,,,,,,
1558219138.199814,-0.016623,-0.016447,0.449766,0.002379,-0.001116,-0.000905,-0.016620,0.016446,-0.999727,0.005298,0.006534,-0.006713,0.940872,-17.033463,-43.463757,,,,,,,
1558219138.219785,-0.016498,-0.016560,0.449644,0.000262,-0.001117,-0.009448,-0.016495,0.016559,-0.999727,0.008546,0.010464,-0.008727,0.952551,-17.023010,-43.467598,,,,,,,
1558219138.239782,-0.016494,-0.016705,0.449221,-0.000788,-0.005368,-0.028707,-0.016491,0.016704,-0.999724,0.004269,0.007267,-0.007615,0.953576,-17.023245,-43.467484,,,,,,,
1558219138.259766,-0.016959,-0.016484,0.448375,-0.000769,-0.006449,-0.043665,-0.016956,0.016483,-0.999720,-0.009762,-0.010776,-0.006810,0.962301,-17.014322,-43.470787,,,,,,,
1558219138.279750,-0.017014,-0.016293,0.447617,0.001334,-0.010675,-0.035163,-0.017011,0.016292,-0.999723,0.021146,-0.000713,-0.009326,0.966052,-17.031071,-43.464142,,,,,,,
1558219138.299734,-0.016586,-0.016232,0.447010,0.001335,-0.007492,-0.028726,-0.016583,0.016232,-0.999731,0.027248,-0.000698,-0.007731,0.967219,-17.031319,-43.464020,,,,,,,
1558219138.319717,-0.015738,-0.016296,0.446262,0.003482,-0.008579,-0.043682,-0.015735,0.016295,-0.999743,0.018314,0.003755,-0.006284,1.026700,-17.031731,-43.462490,,,,,,,
1558219138.339701,-0.015454,-0.016327,0.445146,0.002475,-0.002266,-0.068179,-0.015451,0.016326,-0.999747,0.014139,0.009034,-0.006204,1.073031,-17.025299,-43.463894,,,,,,,
1558219138.359684,-0.014835,-0.016651,0.442294,-0.000398,0.034546,-0.202352,-0.014833,0.016650,-0.999751,0.014650,0.016522,-0.002125,1.086509,-17.025078,-43.463646,,,,,,,
1558219138.379646,-0.015293,-0.015134,0.438991,0.003607,0.008266,-0.087295,-0.015291,0.015134,-0.999769,-0.038786,-0.045773,-0.020816,1.222287,-17.021162,-43.461571,,,,,,,
1558219138.399637,-0.016349,-0.014670,0.439054,0.000243,-0.000034,0.008711,-0.016346,0.014669,-0.999759,-0.016109,-0.011373,-0.003659,1.164204,-17.075153,-43.441986,,,,,,,
1558219138.419636,-0.016149,-0.014185,0.438709,0.001354,-0.002204,-0.025473,-0.016146,0.014184,-0.999769,0.010119,-0.019967,-0.009966,1.148549,-17.086700,-43.437862,,,,,,,
1558219138.439612,-0.015455,-0.014945,0.438184,0.000285,-0.003255,-0.027620,-0.015453,0.014945,-0.999769,0.002055,0.015237,-0.005221,1.185721,-17.103750,-43.430153,,,,,,,
1558219138.459591,-0.015268,-0.015211,0.437503,0.000305,-0.003275,-0.041499,-0.015266,0.015211,-0.999768,0.011146,0.012621,-0.008640,1.208953,-17.071861,-43.442055,,,,,,,
1558219138.479573,-0.015083,-0.015429,0.436758,0.002397,-0.006431,-0.024446,-0.015081,0.015429,-0.999767,0.013997,0.011945,-0.008335,1.208953,-17.071861,-43.442055,,,,,,,
1558219138.499571,-0.014723,-0.015736,0.435966,-0.001556,0.048430,-0.108268,-0.014720,0.015736,-0.999768,0.062999,0.087429,-0.010608,1.247605,-17.036123,-43.454994,,,,,,,
1558219138.519529,-0.013652,-0.015760,0.431594,-0.007725,0.052487,-0.244893,-0.013650,0.015759,-0.999783,-0.007834,0.024692,-0.014835,1.364672,-17.028105,-43.454617,,,,,,,
1558219138.539541,-0.012752,-0.015790,0.426575,-0.007695,0.059880,-0.249093,-0.012750,0.015789,-0.999794,-0.009589,0.029179,0.000679,1.364672,-17.028105,-43.454617,,,,,,,
1558219138.559525,-0.011699,-0.015812,0.423063,-0.002588,0.054764,-0.116750,-0.011697,0.015812,-0.999807,-0.042670,-0.058002,-0.014109,1.610960,-17.006363,-43.454697,,,,,,,
1558219138.579508,-0.011195,-0.015720,0.422661,0.001344,0.019011,0.021705,-0.011193,0.015720,-0.999814,-0.055198,-0.016208,-0.007434,1.632769,-17.004856,-43.454475,,,,,,,
1558219138.599494,-0.010834,-0.015651,0.423144,0.003478,0.021116,0.022795,-0.010832,0.015651,-0.999819,-0.044405,-0.016932,-0.005003,1.664294,-17.010345,-43.451126,,,,,,,
1558219138.619476,-0.010463,-0.015576,0.423621,0.003430,0.011620,0.034448,-0.010461,0.015576,-0.999824,-0.098243,-0.091305,-0.007577,1.677062,-17.015257,-43.448715,,,,,,,
1558219138.639459,-0.010244,-0.015545,0.424112,0.002398,0.009471,0.007735,-0.010243,0.015544,-0.999827,-0.005596,0.000081,-0.010778,1.676655,-17.016291,-43.448326,,,,,,,
1558219138.659445,-0.010193,-0.015511,0.424378,0.002353,-0.003210,0.009749,-0.010191,0.015510,-0.999828,0.015227,0.000512,-0.010991,1.677399,-17.019768,-43.446938,,,,,,,
1558219138.679428,-0.010269,-0.015468,0.424295,0.002388,-0.003245,-0.013740,-0.010268,0.015467,-0.999828,-0.010988,0.016058,-0.007252,1.674993,-17.020750,-43.446640,,,,,,,
1558219138.699400,-0.010322,-0.015439,0.424043,0.000256,-0.002171,-0.009461,-0.010321,0.015438,-0.999828,-0.035456,0.006840,-0.007970,1.675114,-17.022985,-43.445763,,,,,,,
1558219138.719396,-0.010404,-0.015428,0.423960,0.001297,-0.005335,-0.000949,-0.010402,0.015427,-0.999827,-0.029515,0.005294,-0.010030,1.675127,-17.023180,-43.445683,,,,,,,
1558219138.739380,-0.010690,-0.015391,0.423934,0.002309,-0.022256,-0.003245,-0.010689,0.015391,-0.999824,-0.001442,0.001913,-0.010750,1.665808,-17.024517,-43.445522,,,,,,,
1558219138.759358,-0.011336,-0.015315,0.423623,0.004429,-0.037105,-0.030077,-0.011334,0.015315,-0.999819,0.018994,0.017568,-0.009001,1.644228,-17.026909,-43.445404,,,,,,,
1558219138.779347,-0.011636,-0.015263,0.419933,-0.001277,0.020573,-0.357297,-0.011634,0.015262,-0.999816,0.155632,0.115673,0.003081,1.637628,-17.027622,-43.445377,,,,,,,
1558219138.799324,-0.010810,-0.015290,0.408097,-0.010195,0.061319,-0.709238,-0.010808,0.015289,-0.999825,0.034322,-0.042770,-0.009956,1.862433,-17.002457,-43.446175,,,,,,,
1558219138.819316,-0.009751,-0.015139,0.394696,0.002326,0.051961,-0.560915,-0.009750,0.015138,-0.999838,0.015930,-0.070985,-0.009882,2.159506,-16.971893,-43.444374,,,,,,,
1558219138.839283,-0.009047,-0.014911,0.389183,0.005844,0.037830,-0.099824,-0.009046,0.014911,-0.999848,0.006238,-0.031680,-0.011474,2.302938,-16.961254,-43.441162,,,,,,,
1558219138.859265,-0.008364,-0.014805,0.391973,0.008442,0.021441,0.260886,-0.008363,0.014804,-0.999855,0.084214,0.033276,-0.001075,2.344112,-16.968645,-43.436073,,,,,,,
