timestamp(unix),attitude_roll(radians),attitude_pitch(radians),attitude_yaw(radians),rotation_rate_x(radians/s),rotation_rate_y(radians/s),rotation_rate_z(radians/s),gravity_x(G),gravity_y(G),gravity_z(G),user_acc_x(G),user_acc_y(G),user_acc_z(G),magnetic_field_x(microteslas),magnetic_field_y(microteslas),magnetic_field_z(microteslas),latitude(degree),longitude(degree),altitude(meter),speed(m/s),course(degree),timestamp(unix),User Mark
1558219194.490998,-0.003177,-0.017160,0.715477,-0.000662,0.001055,0.000038,-0.003177,0.017159,-0.999848,0.001513,-0.002190,-0.008377,-3.882979,-16.921057,-43.750320,,,,,,,
1558219194.510983,-0.003138,-0.017125,0.715500,0.001465,0.001046,0.001108,-0.003137,0.017124,-0.999848,0.000589,0.000195,-0.006362,-3.879881,-16.924604,-43.749222,,,,,,,
1558219194.530954,-0.003104,-0.017200,0.715475,0.001464,-0.000014,-0.001038,-0.003104,0.017200,-0.999847,0.001761,0.003690,-0.007630,-3.879431,-16.925013,-43.749104,,,,,,,
1558219194.550952,-0.003072,-0.017168,0.715470,0.001468,0.001042,-0.001028,-0.003072,0.017167,-0.999848,0.000753,-0.001603,-0.007720,-3.877985,-16.920734,-43.750885,,,,,,,
1558219194.570936,-0.002900,-0.017029,0.715463,0.001466,0.001044,0.000040,-0.002899,0.017028,-0.999851,0.001038,-0.001327,-0.007397,-3.870003,-16.927399,-43.749016,,,,,,,
1558219194.590921,-0.002864,-0.017086,0.715459,0.000400,-0.000009,-0.001039,-0.002863,0.017085,-0.999850,0.000162,0.001973,-0.007718,-3.870003,-16.927399,-43.749016,,,,,,,
1558219194.610889,-0.002851,-0.017059,0.715438,0.002525,-0.001077,-0.001048,-0.002851,0.017058,-0.999850,-0.000201,-0.000243,-0.005963,-3.866505,-16.926140,-43.749809,,,,,,,
1558219194.630890,-0.002783,-0.016956,0.715445,0.001464,0.001046,0.001107,-0.002782,0.016955,-0.999852,0.000967,-0.001803,-0.009288,-3.864352,-16.930258,-43.748405,,,,,,,
1558219194.650854,-0.002674,-0.016860,0.715442,0.000407,0.002105,-0.001019,-0.002674,0.016859,-0.999854,0.003666,-0.003844,-0.006646,-3.862788,-16.932573,-43.747646,,,,,,,
1558219194.670828,-0.002604,-0.016775,0.715433,-0.000659,0.002112,0.000048,-0.002603,0.016774,-0.999856,0.000345,0.002986,-0.007926,-3.856753,-16.939819,-43.745377,,,,,,,
1558219194.690843,-0.002583,-0.016845,0.715450,0.000401,0.001050,0.000038,-0.002583,0.016844,-0.999855,0.000416,0.003542,-0.006874,-3.854809,-16.937263,-43.746536,,,,,,,
1558219194.710799,-0.002605,-0.016883,0.715439,0.000401,0.001049,0.000038,-0.002605,0.016883,-0.999854,-0.001042,0.000436,-0.009255,-3.854125,-16.936972,-43.746708,,,,,,,
1558219194.730795,-0.002493,-0.016769,0.715447,-0.000654,0.004227,0.001135,-0.002493,0.016769,-0.999856,0.002386,-0.001876,-0.006003,-3.855115,-16.937651,-43.746361,,,,,,,
1558219194.750795,-0.002415,-0.016726,0.715459,0.001457,-0.001069,0.001086,-0.002414,0.016725,-0.999857,0.002231,-0.001191,-0.006384,-3.847045,-16.942226,-43.745300,,,,,,,
1558219194.770768,-0.002433,-0.016755,0.715449,0.000397,-0.000008,0.000028,-0.002432,0.016754,-0.999857,-0.001932,0.000275,-0.009100,-3.846650,-16.941212,-43.745728,,,,,,,
1558219194.790762,-0.002433,-0.016679,0.715444,0.001464,-0.000016,-0.001039,-0.002432,0.016678,-0.999858,0.000144,-0.001465,-0.008275,-3.848143,-16.942675,-43.745029,,,,,,,
1558219194.810742,-0.002352,-0.016585,0.715435,0.000401,0.001049,0.000038,-0.002352,0.016584,-0.999860,0.001208,-0.001646,-0.008090,-3.845639,-16.946957,-43.743587,,,,,,,
1558219194.830722,-0.002314,-0.016547,0.715452,0.000389,-0.002121,0.001075,-0.002313,0.016547,-0.999860,0.001978,-0.000448,-0.009478,-3.844083,-16.949314,-43.742813,,,,,,,
1558219194.850718,-0.002352,-0.016610,0.715458,0.001456,-0.001070,0.001086,-0.002352,0.016610,-0.999859,-0.000334,0.001045,-0.005817,-3.843987,-16.948172,-43.743263,,,,,,,
1558219194.870702,-0.002369,-0.016564,0.715442,0.001461,-0.000014,0.000028,-0.002368,0.016563,-0.999860,-0.000973,-0.000389,-0.007037,-3.844221,-16.948257,-43.743210,,,,,,,
1558219194.890687,-0.002309,-0.016433,0.715438,0.001465,0.001043,0.000038,-0.002308,0.016432,-0.999862,0.000966,-0.002333,-0.007584,-3.843511,-16.952679,-43.741562,,,,,,,
1558219194.910671,-0.002203,-0.016429,0.715446,0.000399,0.001050,0.001105,-0.002203,0.016428,-0.999863,0.001379,0.002447,-0.006317,-3.839314,-16.957699,-43.739983,,,,,,,
1558219194.930642,-0.002211,-0.016505,0.715441,0.000391,-0.001064,0.001085,-0.002211,0.016504,-0.999861,-0.000536,0.002401,-0.007890,-3.837555,-16.955515,-43.740986,,,,,,,
1558219194.950639,-0.002188,-0.016514,0.715441,-0.001729,0.001059,0.000036,-0.002187,0.016513,-0.999861,0.000448,-0.000628,-0.007844,-3.838121,-16.951435,-43.742516,,,,,,,
1558219194.970625,-0.002135,-0.016399,0.715448,-0.000668,-0.000004,0.000026,-0.002135,0.016398,-0.999863,0.001250,-0.003321,-0.008972,-3.836114,-16.953775,-43.741783,,,,,,,
1558219194.990589,-0.002103,-0.016376,0.715454,0.000398,0.001049,0.001105,-0.002102,0.016375,-0.999864,-0.000095,0.000547,-0.007811,-3.833774,-16.957788,-43.740437,,,,,,,
1558219195.010592,-0.002105,-0.016388,0.715460,-0.000668,-0.000004,0.000026,-0.002104,0.016387,-0.999864,-0.000368,0.000566,-0.007995,-3.833963,-16.957920,-43.740364,,,,,,,
1558219195.030578,-0.002145,-0.016371,0.715454,0.000420,0.000011,-0.001054,-0.002145,0.016370,-0.999864,-0.002799,-0.000974,-0.007827,-3.832978,-16.956898,-43.740845,,,,,,,
1558219195.050549,-0.002079,-0.016330,0.715445,-0.000641,0.001074,-0.001045,-0.002079,0.016329,-0.999865,0.001743,0.001325,-0.007475,-3.834347,-16.961103,-43.739098,,,,,,,
1558219195.070530,-0.002062,-0.016317,0.715419,0.000424,0.001068,-0.001044,-0.002061,0.016316,-0.999865,-0.000182,0.000453,-0.008268,-3.831805,-16.960354,-43.739613,,,,,,,
1558219195.090531,-0.002070,-0.016326,0.715435,0.000415,0.000015,0.002149,-0.002069,0.016325,-0.999865,-0.001684,0.002016,-0.008543,-3.830579,-16.960827,-43.739532,,,,,,,
1558219195.110515,-0.002128,-0.016296,0.715440,-0.000643,0.001074,0.000023,-0.002127,0.016296,-0.999865,-0.001474,0.000169,-0.007627,-3.833431,-16.961557,-43.739002,,,,,,,
1558219195.130499,-0.002115,-0.016249,0.715440,0.001483,0.000006,0.000014,-0.002115,0.016248,-0.999866,0.000070,-0.001294,-0.006482,-3.833999,-16.961557,-43.738953,,,,,,,
1558219195.150484,-0.002013,-0.016203,0.715442,0.000418,0.000012,0.000013,-0.002013,0.016202,-0.999867,0.001372,-0.000944,-0.008617,-3.830703,-16.963995,-43.738300,,,,,,,
1558219195.170468,-0.001964,-0.016308,0.715438,0.000421,0.001069,0.000023,-0.001964,0.016307,-0.999865,0.000652,0.001805,-0.008954,-3.828083,-16.962221,-43.739216,,,,,,,
1558219195.190433,-0.002006,-0.016253,0.715437,0.001482,0.000006,0.000014,-0.002006,0.016252,-0.999866,-0.001885,-0.001390,-0.008237,-3.827737,-16.961075,-43.739689,,,,,,,
1558219195.210407,-0.001993,-0.016224,0.715422,0.000421,0.001068,0.000023,-0.001993,0.016223,-0.999866,0.000574,0.000806,-0.006420,-3.828979,-16.965126,-43.738007,,,,,,,
1558219195.230421,-0.001935,-0.016213,0.715428,0.001485,0.001063,0.000024,-0.001935,0.016212,-0.999867,0.000547,0.001793,-0.009426,-3.826553,-16.966118,-43.737839,,,,,,,
1558219195.250400,-0.001906,-0.016249,0.715423,0.003648,0.011621,0.000126,-0.001906,0.016248,-0.999866,-0.002107,0.003390,0.002231,-3.825616,-16.965393,-43.738201,,,,,,,
1558219195.270376,-0.001834,-0.016189,0.715429,-0.001716,-0.001035,0.000001,-0.001834,0.016188,-0.999867,0.000796,-0.001601,-0.013469,-3.818986,-16.966839,-43.738220,,,,,,,
1558219195.290374,-0.001883,-0.016224,0.715440,-0.003862,-0.006309,-0.000051,-0.001883,0.016224,-0.999867,0.000464,-0.000141,-0.006023,-3.821519,-16.965822,-43.738392,,,,,,,
1558219195.310337,-0.001854,-0.016228,0.715446,-0.000653,-0.001040,0.001069,-0.001854,0.016227,-0.999867,0.002358,-0.000435,-0.008037,-3.823675,-16.964640,-43.738663,,,,,,,
1558219195.330338,-0.001807,-0.016202,0.715441,0.001481,0.000005,0.000013,-0.001807,0.016202,-0.999867,0.000860,0.000965,-0.006999,-3.820854,-16.964363,-43.739014,,,,,,,
1558219195.350328,-0.001868,-0.016176,0.715435,0.000419,0.001067,0.000022,-0.001868,0.016176,-0.999867,-0.001383,-0.000658,-0.009074,-3.822034,-16.965828,-43.738342,,,,,,,
1558219195.370299,-0.001897,-0.016149,0.715424,0.000419,0.001066,0.000022,-0.001897,0.016148,-0.999868,-0.001720,-0.000279,-0.008204,-3.823011,-16.966967,-43.737820,,,,,,,
1558219195.390280,-0.001877,-0.016170,0.715430,0.000419,0.001066,0.000022,-0.001877,0.016169,-0.999867,0.001968,0.001195,-0.008189,-3.824481,-16.968040,-43.737270,,,,,,,
1558219195.410281,-0.001837,-0.016217,0.715425,0.000419,0.001066,0.000022,-0.001837,0.016216,-0.999867,0.000174,0.001652,-0.007457,-3.821914,-16.966211,-43.738205,,,,,,,
1558219195.430265,-0.001886,-0.016168,0.715419,-0.000644,0.001070,-0.001046,-0.001886,0.016168,-0.999867,-0.002112,-0.000481,-0.007289,-3.822023,-16.966797,-43.737968,,,,,,,
1558219195.450250,-0.001872,-0.016146,0.715404,-0.001709,0.001075,-0.001047,-0.001871,0.016145,-0.999868,0.001322,-0.001878,-0.008357,-3.824132,-16.966694,-43.737823,,,,,,,
1558219195.470226,-0.001786,-0.016143,0.715395,0.000422,0.002122,0.000032,-0.001786,0.016143,-0.999868,0.001191,0.001558,-0.006800,-3.820542,-16.969051,-43.737225,,,,,,,
1558219195.490218,-0.001784,-0.016113,0.715400,-0.000638,0.003183,-0.001026,-0.001784,0.016112,-0.999869,-0.001039,-0.001387,-0.006510,-3.818564,-16.968569,-43.737579,,,,,,,
1558219195.510203,-0.001813,-0.016114,0.715405,0.000415,0.000008,0.000012,-0.001813,0.016113,-0.999869,-0.000202,0.000839,-0.008615,-3.819912,-16.970003,-43.736912,,,,,,,
1558219195.530164,-0.001802,-0.016119,0.715405,0.001481,0.001061,0.001090,-0.001802,0.016118,-0.999868,0.000779,0.000728,-0.006632,-3.820736,-16.969627,-43.736984,,,,,,,
1558219195.550172,-0.001752,-0.016128,0.715412,0.000419,0.001063,-0.001046,-0.001752,0.016127,-0.999868,0.001538,0.000428,-0.008463,-3.819063,-16.968674,-43.737499,,,,,,,
1558219195.570156,-0.001694,-0.016159,0.715402,-0.000651,0.000013,0.000010,-0.001693,0.016158,-0.999868,0.001434,0.000657,-0.006907,-3.816041,-16.968136,-43.737972,,,,,,,
1558219195.590131,-0.001716,-0.016159,0.715391,-0.000651,0.000013,0.000010,-0.001716,0.016158,-0.999868,-0.002037,0.000291,-0.007105,-3.814023,-16.967987,-43.738205,,,,,,,
1558219195.610124,-0.001713,-0.016153,0.715386,0.000421,0.002121,0.000031,-0.001712,0.016153,-0.999868,-0.000348,0.000479,-0.009104,-3.816021,-16.967922,-43.738056,,,,,,,
1558219195.630110,-0.001683,-0.016167,0.715387,0.000418,0.001062,-0.001047,-0.001683,0.016166,-0.999868,0.001164,0.001412,-0.007411,-3.815373,-16.968204,-43.738003,,,,,,,
1558219195.650093,-0.001636,-0.016142,0.715382,0.001480,0.001060,0.001089,-0.001636,0.016141,-0.999868,0.000187,-0.000516,-0.008539,-3.812264,-16.967419,-43.738579,,,,,,,
1558219195.670077,-0.001637,-0.016103,0.715377,0.001503,0.000021,-0.001067,-0.001637,0.016102,-0.999869,-0.000606,0.000377,-0.008218,-3.811816,-16.968664,-43.738136,,,,,,,
1558219195.690062,-0.001632,-0.016120,0.715371,0.000439,0.001086,0.001077,-0.001631,0.016119,-0.999869,-0.000612,-0.000067,-0.007471,-3.812032,-16.969378,-43.737843,,,,,,,
1558219195.710025,-0.001654,-0.016142,0.715366,0.001504,0.001078,0.000010,-0.001654,0.016141,-0.999868,-0.001428,0.001070,-0.007883,-3.811545,-16.968826,-43.738094,,,,,,,
1558219195.730014,-0.001611,-0.016172,0.715377,0.001506,0.002137,0.001088,-0.001610,0.016171,-0.999868,0.000558,0.001926,-0.009867,-3.811738,-16.968361,-43.738258,,,,,,,
1558219195.750011,-0.001214,-0.016005,0.715492,0.007891,0.010587,0.020391,-0.001214,0.016004,-0.999871,-0.017508,0.011675,0.036630,-3.781447,-16.982801,-43.735283,,,,,,,
1558219195.769971,-0.001633,-0.016173,0.715546,-0.002786,-0.008414,-0.000084,-0.001632,0.016173,-0.999868,-0.002167,0.001207,-0.021021,-3.809860,-16.967596,-43.738720,,,,,,,
1558219195.789982,-0.001742,-0.016258,0.715561,-0.000633,-0.001026,-0.000012,-0.001742,0.016257,-0.999866,-0.000593,0.000772,-0.009670,-3.816375,-16.965263,-43.739059,,,,,,,
1558219195.809958,-0.001657,-0.016180,0.715535,-0.001693,0.000035,-0.001071,-0.001657,0.016179,-0.999868,-0.000540,-0.001073,-0.007014,-3.817641,-16.963007,-43.739822,,,,,,,
1558219195.829953,-0.001706,-0.016130,0.715524,0.000450,0.000030,0.001065,-0.001706,0.016130,-0.999868,-0.003314,-0.002183,-0.008326,-3.814600,-16.966139,-43.738873,,,,,,,
1558219195.849907,-0.001721,-0.016132,0.715545,0.000446,-0.001027,0.001055,-0.001721,0.016132,-0.999868,-0.000904,0.001889,-0.010126,-3.818001,-16.967754,-43.737949,,,,,,,
1558219195.869894,-0.001690,-0.016145,0.715529,0.000460,0.002140,-0.001050,-0.001690,0.016145,-0.999868,-0.002460,0.000197,-0.008326,-3.816398,-16.967552,-43.738163,,,,,,,
1558219195.889906,-0.001665,-0.016127,0.715524,0.001519,0.001079,0.000008,-0.001665,0.016126,-0.999869,-0.000120,-0.000578,-0.007837,-3.816114,-16.967630,-43.738163,,,,,,,
1558219195.909890,-0.001655,-0.016111,0.715529,0.000451,0.000028,-0.000003,-0.001654,0.016110,-0.999869,0.000342,0.000171,-0.005991,-3.815501,-16.968971,-43.737698,,,,,,,
1558219195.929876,-0.001703,-0.016140,0.715544,-0.000610,0.001090,0.000006,-0.001703,0.016139,-0.999868,-0.001089,0.003194,-0.007929,-3.816905,-16.969715,-43.737286,,,,,,,
1558219195.949860,-0.001667,-0.016206,0.715539,0.000450,0.000027,-0.000003,-0.001667,0.016205,-0.999867,0.000171,0.003158,-0.007335,-3.816487,-16.967827,-43.738052,,,,,,,
1558219195.969843,-0.001668,-0.016204,0.715529,0.000452,0.000025,-0.001071,-0.001667,0.016203,-0.999867,0.002049,-0.000700,-0.007960,-3.816334,-16.965099,-43.739120,,,,,,,
1558219195.989828,-0.001588,-0.016090,0.715530,0.001529,0.000019,0.001067,-0.001588,0.016090,-0.999869,-0.000502,0.001000,-0.008340,-3.813517,-16.968742,-43.737957,,,,,,,
1558219196.009811,-0.001597,-0.016128,0.715529,0.000465,0.000023,-0.000001,-0.001597,0.016127,-0.999869,-0.000906,0.002275,-0.008463,-3.812080,-16.970234,-43.737507,,,,,,,
1558219196.029796,-0.001613,-0.016161,0.715502,0.001540,0.002128,-0.002116,-0.001613,0.016160,-0.999868,-0.001973,0.002029,-0.007914,-3.814046,-16.966816,-43.738655,,,,,,,
1558219196.049779,-0.001476,-0.016056,0.715477,0.010111,0.018995,-0.001947,-0.001475,0.016055,-0.999870,0.000300,-0.000018,-0.001137,-3.814063,-16.967989,-43.738197,,,,,,,
1558219196.069745,-0.001218,-0.015904,0.715486,0.003693,0.010576,0.000102,-0.001218,0.015903,-0.999873,0.001889,-0.000553,-0.009328,-3.801196,-16.976316,-43.736092,,,,,,,
1558219196.089723,-0.001205,-0.015930,0.715469,-0.000591,0.002140,-0.001050,-0.001204,0.015930,-0.999872,-0.002748,0.001786,-0.008367,-3.793072,-16.978836,-43.735817,,,,,,,
1558219196.109732,-0.001303,-0.015979,0.715462,-0.001672,-0.002082,-0.000024,-0.001303,0.015979,-0.999871,-0.001017,0.001462,-0.009207,-3.797375,-16.976774,-43.736244,,,,,,,
1558219196.129712,-0.001232,-0.015924,0.715463,0.001536,0.002130,0.000019,-0.001231,0.015923,-0.999872,0.000133,-0.002022,-0.007528,-3.798779,-16.975163,-43.736748,,,,,,,
1558219196.149692,-0.001412,-0.015948,0.715467,-0.002734,-0.006311,0.001008,-0.001412,0.015947,-0.999872,-0.003669,0.000563,0.003641,-3.792912,-16.979750,-43.735477,,,,,,,
1558219196.169668,-0.001458,-0.015995,0.715471,-0.000589,-0.002098,-0.001086,-0.001458,0.015995,-0.999871,-0.000938,0.001782,-0.006477,-3.804503,-16.976067,-43.735901,,,,,,,
1558219196.189649,-0.001459,-0.016014,0.715455,-0.000582,0.000016,-0.001065,-0.001459,0.016013,-0.999871,-0.001868,0.000726,-0.008140,-3.805722,-16.974422,-43.736431,,,,,,,
1558219196.209655,-0.001506,-0.016010,0.715438,-0.003781,-0.002083,-0.002156,-0.001506,0.016009,-0.999871,-0.000295,-0.001895,-0.006416,-3.806571,-16.973053,-43.736889,,,,,,,
1558219196.229641,-0.001413,-0.015949,0.715456,0.001550,0.002122,0.001091,-0.001413,0.015949,-0.999872,0.002313,-0.000370,-0.007040,-3.805905,-16.975740,-43.735905,,,,,,,
1558219196.249625,-0.001372,-0.016019,0.715446,-0.000576,0.002129,-0.001046,-0.001372,0.016018,-0.999871,-0.002107,0.001941,-0.008033,-3.803469,-16.976492,-43.735821,,,,,,,
1558219196.269609,-0.001446,-0.016008,0.715455,0.000480,0.000011,0.000003,-0.001446,0.016007,-0.999871,-0.002994,-0.000535,-0.009025,-3.802266,-16.972908,-43.737320,,,,,,,
1558219196.289592,-0.001429,-0.015953,0.715434,0.000485,0.001066,-0.001055,-0.001429,0.015952,-0.999872,0.001643,-0.001212,-0.007773,-3.805568,-16.975145,-43.736160,,,,,,,
1558219196.309578,-0.001441,-0.015993,0.715418,0.000488,-0.002112,-0.000011,-0.001441,0.015993,-0.999871,-0.000558,0.003630,-0.005988,-3.803113,-16.977575,-43.735435,,,,,,,
1558219196.329538,-0.001412,-0.015984,0.715435,0.000495,0.000002,0.000009,-0.001411,0.015984,-0.999871,0.000954,-0.000114,-0.007300,-3.804133,-16.974567,-43.736511,,,,,,,
1558219196.349539,-0.001434,-0.016002,0.715456,0.000496,0.001060,0.001086,-0.001434,0.016001,-0.999871,-0.001923,0.000249,-0.008247,-3.804554,-16.975502,-43.736115,,,,,,,
1558219196.369531,-0.001453,-0.015981,0.715434,-0.000569,0.000005,-0.001060,-0.001452,0.015981,-0.999871,-0.001477,-0.000676,-0.008613,-3.804924,-16.975286,-43.736168,,,,,,,
1558219196.389492,-0.001426,-0.015959,0.715424,0.001559,-0.000004,0.000009,-0.001426,0.015958,-0.999872,-0.000954,-0.000104,-0.008566,-3.803506,-16.975983,-43.736015,,,,,,,
1558219196.409492,-0.001450,-0.015975,0.715429,0.001563,0.001051,-0.001048,-0.001450,0.015974,-0.999871,-0.002654,0.001757,-0.008857,-3.802676,-16.976519,-43.735882,,,,,,,
1558219196.429483,-0.001519,-0.016001,0.715428,0.000501,0.002114,0.000028,-0.001519,0.016000,-0.999871,-0.004875,0.002143,-0.009315,-3.803726,-16.976038,-43.735977,,,,,,,
1558219196.449440,-0.001529,-0.015982,0.715412,0.001555,-0.001063,-0.000001,-0.001529,0.015981,-0.999871,-0.001553,0.000285,-0.008155,-3.807198,-16.974783,-43.736164,,,,,,,
1558219196.469454,-0.001550,-0.015949,0.715407,0.001574,-0.000017,-0.001053,-0.001550,0.015948,-0.999872,0.000893,-0.000460,-0.006903,-3.809176,-16.976322,-43.735397,,,,,,,
1558219196.489417,-0.001505,-0.015951,0.715397,0.001581,0.002097,-0.001032,-0.001505,0.015950,-0.999872,0.000864,0.001735,-0.006949,-3.807920,-16.977400,-43.735088,,,,,,,
1558219196.509422,-0.001474,-0.015942,0.715393,0.001572,-0.000015,0.000015,-0.001473,0.015942,-0.999872,0.001290,0.002277,-0.007422,-3.805461,-16.976587,-43.735615,,,,,,,
1558219196.529407,-0.001582,-0.015933,0.715381,-0.000560,-0.001062,0.000003,-0.001582,0.015932,-0.999872,-0.002751,-0.001070,-0.007269,-3.806072,-16.976162,-43.735725,,,,,,,
1558219196.549379,-0.001545,-0.015939,0.715387,-0.000557,-0.000005,0.000013,-0.001545,0.015938,-0.999872,0.001682,-0.000115,-0.008627,-3.809556,-16.977251,-43.734997,,,,,,,
1558219196.569376,-0.001481,-0.015958,0.715372,0.001582,0.002095,-0.002100,-0.001480,0.015957,-0.999872,0.001328,0.003055,-0.009604,-3.806135,-16.976160,-43.735722,,,,,,,
1558219196.589359,-0.001407,-0.015953,0.715362,0.002639,0.001036,0.000026,-0.001407,0.015952,-0.999872,-0.000088,-0.000388,-0.007681,-3.803141,-16.974905,-43.736469,,,,,,,
1558219196.609326,-0.001377,-0.015911,0.715384,0.002657,0.007380,0.002221,-0.001377,0.015911,-0.999872,-0.001675,-0.000469,-0.007040,-3.800824,-16.977497,-43.735664,,,,,,,
1558219196.629328,-0.001353,-0.015914,0.715459,0.001579,0.002101,0.008581,-0.001353,0.015913,-0.999872,-0.001653,0.001436,-0.006048,-3.801071,-16.977343,-43.735703,,,,,,,
1558219196.649312,-0.001235,-0.015893,0.715653,0.000526,0.004216,0.005397,-0.001234,0.015892,-0.999873,0.002913,0.000175,-0.007863,-3.802458,-16.978271,-43.735222,,,,,,,
1558219196.669274,-0.001146,-0.015838,0.715686,0.001595,0.003145,0.000050,-0.001146,0.015837,-0.999874,-0.001082,-0.000395,-0.008900,-3.795549,-16.979647,-43.735287,,,,,,,
1558219196.689254,-0.001109,-0.015767,0.715692,0.002661,0.004198,0.001128,-0.001109,0.015766,-0.999875,-0.000905,-0.004032,-0.007236,-3.794040,-16.980980,-43.734901,,,,,,,
1558219196.709203,-0.001025,-0.015273,0.715853,0.001583,0.005279,0.013949,-0.001025,0.015272,-0.999883,0.000308,-0.011870,-0.008906,-3.793819,-16.992977,-43.730259,,,,,,,
1558219196.729167,-0.000618,-0.015116,0.716227,0.003707,0.005274,0.017154,-0.000618,0.015115,-0.999886,0.003777,-0.004144,-0.008781,-3.785512,-17.005640,-43.726055,,,,,,,
1558219196.749172,-0.000335,-0.014452,0.716344,0.000513,-0.005310,-0.004303,-0.000335,0.014451,-0.999896,0.013595,-0.027986,-0.008497,-3.783110,-17.011953,-43.723812,,,,,,,
1558219196.769156,-0.000322,-0.013958,0.716382,-0.002696,-0.004215,0.009584,-0.000322,0.013958,-0.999903,-0.003707,-0.003368,-0.006582,-3.763324,-17.058504,-43.707375,,,,,,,
1558219196.789140,-0.001063,-0.013075,0.716906,0.002637,0.004222,0.031028,-0.001063,0.013074,-0.999914,-0.009481,-0.039640,-0.007761,-3.803669,-17.061388,-43.702759,,,,,,,
1558219196.809125,-0.000728,-0.012898,0.717177,0.011219,0.014715,0.009783,-0.000728,0.012898,-0.999917,-0.046635,-0.095509,-0.010139,-3.809791,-17.099236,-43.687431,,,,,,,
1558219196.829110,-0.000931,-0.012915,0.717068,-0.002677,-0.016969,-0.021493,-0.000931,0.012914,-0.999916,-0.008713,-0.020528,-0.007133,-3.804082,-17.104670,-43.685802,,,,,,,
1558219196.849094,-0.001073,-0.013059,0.716614,-0.001567,-0.006416,-0.028865,-0.001073,0.013059,-0.999914,-0.005885,-0.059628,-0.008921,-3.810089,-17.098299,-43.687771,,,,,,,
1558219196.869075,-0.001645,-0.013224,0.716097,-0.010219,-0.038050,-0.007822,-0.001645,0.013224,-0.999911,-0.021579,-0.066553,-0.011716,-3.812362,-17.096617,-43.688232,,,,,,,
1558219196.889041,-0.002134,-0.012153,0.715959,0.011178,-0.008572,-0.011794,-0.002134,0.012153,-0.999924,0.005552,-0.030875,-0.009064,-3.842921,-17.137873,-43.669388,,,,,,,
1558219196.909037,-0.002180,-0.012021,0.714664,0.007064,-0.001271,-0.091801,-0.002180,0.012020,-0.999925,0.000471,-0.015179,-0.011381,-3.836767,-17.145329,-43.667000,,,,,,,
1558219196.929011,-0.002466,-0.011254,0.712955,0.009067,-0.027666,-0.064293,-0.002466,0.011254,-0.999934,-0.017950,-0.066827,-0.011648,-3.814168,-17.153578,-43.665741,,,,,,,
1558219196.948999,-0.002544,-0.011094,0.712779,0.013408,0.027363,0.006708,-0.002544,0.011094,-0.999935,0.001781,-0.014817,-0.012272,-3.810821,-17.195835,-43.649410,,,,,,,
1558219196.969000,-0.002413,-0.011017,0.712429,0.002806,0.024195,-0.028564,-0.002413,0.011017,-0.999936,0.001421,-0.011032,0.001859,-3.803643,-17.201143,-43.647942,,,,,,,
1558219196.988971,-0.002504,-0.009732,0.712018,0.004794,-0.011728,-0.010756,-0.002504,0.009731,-0.999950,0.009706,-0.047588,-0.023152,-3.784855,-17.204065,-43.648422,,,,,,,
1558219197.008960,-0.002531,-0.009452,0.712692,0.016521,0.020006,0.047210,-0.002531,0.009452,-0.999952,0.007200,-0.018622,-0.002001,-3.803504,-17.267908,-43.621582,,,,,,,
1558219197.028953,-0.002341,-0.009095,0.712909,0.022919,0.001933,0.000066,-0.002341,0.009095,-0.999956,0.012900,-0.019654,-0.018370,-3.801404,-17.276497,-43.618370,,,,,,,
1558219197.048921,-0.002163,-0.007530,0.713173,0.011174,-0.000085,0.022457,-0.002163,0.007530,-0.999969,0.004177,-0.038124,0.000213,-3.804268,-17.287987,-43.613564,,,,,,,
1558219197.068922,-0.002655,-0.004701,0.713634,0.013294,-0.006441,0.021331,-0.002655,0.004701,-0.999985,-0.001145,-0.049211,0.000977,-3.820544,-17.415281,-43.561466,,,,,,,
1558219197.088906,-0.002827,-0.002622,0.714294,0.008094,0.040130,0.046328,-0.002827,0.002622,-0.999993,-0.008113,-0.013197,-0.017631,-3.840071,-17.546814,-43.506935,,,,,,,
1558219197.108888,-0.003094,-0.001547,0.714651,0.018629,-0.011790,0.012749,-0.003094,0.001547,-0.999994,-0.004642,-0.030416,-0.011389,-3.841828,-17.563173,-43.500175,,,,,,,
1558219197.128875,-0.003696,0.001056,0.715068,0.013316,-0.004341,0.028831,-0.003696,-0.001056,-0.999993,0.007572,-0.021405,-0.006935,-3.900204,-17.694263,-43.441818,,,,,,,
1558219197.148844,-0.003464,0.001783,0.716049,0.012172,-0.013798,0.061836,-0.003464,-0.001783,-0.999992,-0.001770,-0.009814,0.007057,-3.892147,-17.735397,-43.425758,,,,,,,
1558219197.168844,-0.003231,0.002200,0.716891,0.003795,0.020043,0.044003,-0.003231,-0.002200,-0.999992,-0.001255,-0.009427,-0.013268,-3.906241,-17.749548,-43.418716,,,,,,,
1558219197.188829,-0.003250,0.003616,0.717835,0.004785,0.003150,0.059857,-0.003250,-0.003616,-0.999988,-0.010956,-0.030411,-0.004696,-3.908606,-17.788866,-43.402409,,,,,,,
1558219197.208810,-0.003090,0.004681,0.719029,0.025199,0.050576,0.040042,-0.003089,-0.004681,-0.999984,-0.022469,-0.027851,-0.005936,-3.927078,-17.822865,-43.386787,,,,,,,
1558219197.228797,-0.003179,0.007461,0.718808,0.098718,0.039518,-0.026199,-0.003179,-0.007461,-0.999967,-0.032297,-0.023423,0.024366,-3.922667,-17.923378,-43.345764,,,,,,,
1558219197.248781,-0.004678,0.010653,0.718852,0.105543,-0.136990,0.006281,-0.004678,-0.010653,-0.999932,0.056863,0.089724,-0.101279,-3.973909,-18.098482,-43.268269,,,,,,,
1558219197.268747,-0.004703,0.011995,0.718850,0.088010,0.024780,-0.011396,-0.004703,-0.011995,-0.999917,0.029514,0.006807,0.002496,-4.014444,-18.143229,-43.245781,,,,,,,
1558219197.288750,-0.003540,0.015923,0.720505,0.165581,0.056323,0.150182,-0.003540,-0.015922,-0.999867,0.010360,0.043128,-0.115520,-3.987401,-18.266872,-43.196205,,,,,,,
1558219197.308734,-0.003137,0.016199,0.722309,0.005979,0.013616,0.009784,-0.003137,-0.016198,-0.999864,0.001367,-0.046286,0.000139,-3.991469,-18.345850,-43.162346,,,,,,,
1558219197.328715,-0.003307,0.015741,0.722745,0.011241,0.006220,0.032138,-0.003307,-0.015740,-0.999871,-0.004292,0.033441,-0.007911,-4.011565,-18.324398,-43.169594,,,,,,,
1558219197.348703,-0.003387,0.016015,0.722543,0.007096,0.017795,-0.017934,-0.003386,-0.016014,-0.999866,0.001220,0.012047,0.003894,-4.021109,-18.333565,-43.164810,,,,,,,
1558219197.368688,-0.002971,0.014897,0.722373,-0.005753,0.007329,0.006511,-0.002971,-0.014896,-0.999885,0.005870,0.044880,-0.024560,-4.007338,-18.341131,-43.162880,,,,,,,
1558219197.388673,-0.003029,0.014780,0.722603,-0.002608,-0.003246,0.014954,-0.003028,-0.014780,-0.999886,0.018104,-0.002066,-0.013374,-3.996635,-18.286091,-43.187214,,,,,,,
1558219197.408657,-0.003450,0.015269,0.723585,-0.002663,0.005294,0.071621,-0.003449,-0.015268,-0.999878,-0.014022,-0.021048,-0.005433,-4.010807,-18.282089,-43.187599,,,,,,,
1558219197.428624,-0.003251,0.015366,0.725012,0.005912,0.009414,0.042843,-0.003250,-0.015365,-0.999877,-0.013305,0.002014,-0.000261,-4.036320,-18.301695,-43.176918,,,,,,,
1558219197.448624,-0.003370,0.014734,0.724853,0.002856,0.018834,-0.029669,-0.003370,-0.014734,-0.999886,0.011045,0.033594,0.004112,-4.059910,-18.273275,-43.186737,,,,,,,
1558219197.468590,-0.002987,0.014722,0.723636,-0.000346,-0.000230,-0.066154,-0.002986,-0.014721,-0.999887,0.012523,0.035061,-0.010199,-4.046199,-18.274954,-43.187317,,,,,,,
1558219197.488575,-0.002933,0.014623,0.723649,-0.004753,-0.007483,0.017049,-0.002933,-0.014622,-0.999889,0.003223,-0.002040,-0.007008,-4.008401,-18.278717,-43.189251,,,,,,,
1558219197.508578,-0.002946,0.014630,0.723665,-0.000413,0.007259,-0.005227,-0.002946,-0.014629,-0.999889,0.002244,-0.014454,-0.006245,-4.019415,-18.273512,-43.190430,,,,,,,
1558219197.528535,-0.002793,0.014810,0.723397,0.000606,-0.010728,-0.013939,-0.002793,-0.014810,-0.999886,-0.003479,-0.028144,-0.015616,-4.010950,-18.273857,-43.191071,,,,,,,
1558219197.548527,-0.002522,0.014862,0.723054,-0.003556,0.011468,-0.029745,-0.002522,-0.014862,-0.999886,-0.010097,0.015365,-0.000709,-3.989968,-18.287195,-43.187366,,,,,,,
1558219197.568532,-0.003461,0.013760,0.722088,-0.011036,-0.006500,-0.052343,-0.003461,-0.013759,-0.999899,-0.014316,0.020397,-0.003213,-3.993350,-18.270010,-43.194324,,,,,,,
1558219197.588502,-0.003418,0.013300,0.721354,-0.010057,-0.021286,-0.028988,-0.003418,-0.013300,-0.999906,0.005066,0.012415,-0.019076,-4.006566,-18.242245,-43.204838,,,,,,,
1558219197.608490,-0.003643,0.013749,0.721481,-0.004709,0.010475,0.024703,-0.003643,-0.013748,-0.999899,0.000195,-0.039902,-0.011530,-3.989361,-18.231258,-43.211063,,,,,,,
1558219197.628485,-0.003957,0.014293,0.721814,-0.012213,-0.008519,0.020244,-0.003957,-0.014292,-0.999890,-0.008021,-0.025457,-0.010532,-4.007463,-18.243195,-43.204353,,,,,,,
1558219197.648468,-0.004768,0.014463,0.722412,-0.004660,0.023152,0.022689,-0.004767,-0.014462,-0.999884,-0.010125,0.012097,-0.006967,-4.064423,-18.277754,-43.184418,,,,,,,
1558219197.668451,-0.005661,0.012473,0.722119,-0.004614,0.012491,-0.036133,-0.005661,-0.012473,-0.999906,-0.017472,0.025764,-0.010195,-4.089833,-18.217255,-43.207581,,,,,,,
1558219197.688437,-0.005988,0.011883,0.720224,-0.009818,0.012397,-0.116211,-0.005987,-0.011883,-0.999911,-0.013117,0.015240,-0.001111,-4.092012,-18.186823,-43.220192,,,,,,,
1558219197.708406,-0.005631,0.011029,0.717774,-0.014176,-0.008690,-0.097199,-0.005631,-0.011029,-0.999923,0.005265,0.005124,-0.014267,-4.050119,-18.149424,-43.239853,,,,,,,
1558219197.728378,-0.005610,0.010738,0.716917,-0.008935,-0.003336,-0.032017,-0.005609,-0.010738,-0.999927,-0.000021,-0.004200,-0.005078,-4.012376,-18.128960,-43.251957,,,,,,,
1558219197.748372,-0.005416,0.010591,0.716665,-0.010066,-0.009626,-0.001117,-0.005416,-0.010591,-0.999929,0.015517,0.015383,-0.010752,-4.016769,-18.146729,-43.244095,,,,,,,
1558219197.768375,-0.004435,0.009388,0.716368,-0.017390,0.027401,-0.008242,-0.004435,-0.009388,-0.999946,0.022944,0.011936,-0.024727,-3.980972,-18.089605,-43.271332,,,,,,,
1558219197.788360,-0.004413,0.009299,0.716486,-0.003683,-0.011778,-0.006471,-0.004412,-0.009299,-0.999947,-0.006238,-0.001230,-0.005439,-0.119675,-14.765777,-43.968235,,,,,,,
1558219197.808329,-0.004437,0.009112,0.716217,-0.001595,-0.036141,-0.033394,-0.004436,-0.009112,-0.999949,-0.004063,0.005221,-0.008184,-0.112592,-14.763868,-43.968891,,,,,,,
1558219197.828329,-0.004527,0.008924,0.715160,-0.005628,0.020920,-0.058474,-0.004527,-0.008924,-0.999950,0.004725,0.011518,-0.008214,-0.130455,-14.763120,-43.969093,,,,,,,
1558219197.848313,-0.004060,0.008276,0.713501,-0.003634,-0.030919,-0.083525,-0.004060,-0.008276,-0.999958,0.011842,0.003576,0.006076,-0.075289,-14.724254,-43.982258,,,,,,,
1558219197.868266,-0.002670,0.009569,0.713101,0.004853,0.008312,0.024689,-0.002670,-0.009569,-0.999951,0.021911,-0.027327,0.000942,-0.016050,-14.746128,-43.974987,,,,,,,
1558219197.888282,-0.002087,0.010009,0.714648,-0.009033,0.024344,0.093161,-0.002087,-0.010008,-0.999948,0.002697,0.001601,-0.011496,0.009602,-14.801786,-43.956284,,,,,,,
1558219197.908265,-0.002261,0.009370,0.715827,0.004821,0.004101,0.036393,-0.002261,-0.009370,-0.999954,-0.024014,0.052659,-0.014741,-0.015947,-14.766992,-43.967987,,,,,,,
1558219197.928244,-0.002072,0.009346,0.715579,0.002824,0.007162,-0.044721,-0.002072,-0.009346,-0.999954,-0.023120,0.027260,-0.013458,-0.012652,-14.766222,-43.968243,,,,,,,
1558219197.948235,-0.002294,0.009089,0.714261,-0.000258,0.022970,-0.085142,-0.002294,-0.009089,-0.999956,-0.027384,0.010462,-0.002699,-0.001357,-14.767374,-43.967857,,,,,,,
1558219197.968218,-0.002211,0.009086,0.712551,-0.003562,-0.000234,-0.062946,-0.002210,-0.009086,-0.999956,0.055967,-0.002053,-0.010740,0.026934,-14.756026,-43.971661,,,,,,,
1558219197.988203,-0.002190,0.008067,0.713014,0.002641,0.000974,0.059849,-0.002190,-0.008067,-0.999965,0.004800,0.041010,-0.011403,0.023229,-14.753600,-43.972477,,,,,,,
1558219198.008180,-0.002116,0.008030,0.713255,0.001696,0.002980,-0.015935,-0.002116,-0.008030,-0.999966,-0.042791,0.031559,-0.010548,0.020129,-14.709063,-43.987396,,,,,,,
1558219198.028162,-0.002774,0.007470,0.711816,-0.002379,0.015539,-0.111906,-0.002774,-0.007469,-0.999968,0.011960,0.019142,-0.018052,0.034690,-14.709522,-43.987236,,,,,,,
1558219198.048141,-0.002909,0.007460,0.709143,-0.001463,-0.033100,-0.119845,-0.002909,-0.007460,-0.999968,0.024180,0.014815,-0.015047,0.040976,-14.682711,-43.996185,,,,,,,
1558219198.068117,-0.003033,0.007605,0.707996,0.012399,0.014525,-0.030763,-0.003033,-0.007604,-0.999967,0.022320,-0.009348,0.006757,0.050053,-14.684719,-43.995506,,,,,,,
1558219198.088124,-0.003584,0.007183,0.707743,0.000585,-0.005489,-0.007462,-0.003584,-0.007183,-0.999968,-0.023973,0.005321,0.006514,0.070986,-14.689744,-43.993797,,,,,,,
1558219198.108100,-0.003877,0.007174,0.706477,-0.000407,-0.026765,-0.102687,-0.003877,-0.007174,-0.999967,-0.001525,0.001299,-0.014987,0.044841,-14.672173,-43.999695,,,,,,,
1558219198.128079,-0.003771,0.007114,0.704041,-0.007671,0.013384,-0.139676,-0.003771,-0.007114,-0.999968,0.023058,0.034305,0.002699,0.066932,-14.670123,-44.000351,,,,,,,
1558219198.148078,-0.002418,0.006220,0.701643,-0.005479,0.058911,-0.083721,-0.002418,-0.006220,-0.999978,0.036476,0.045161,-0.026115,0.115975,-14.658757,-44.004040,,,,,,,
1558219198.168063,-0.002314,0.005940,0.700359,-0.000305,0.030398,-0.047690,-0.002314,-0.005940,-0.999980,0.034464,0.051869,-0.000554,0.188226,-14.617700,-44.017445,,,,,,,
1558219198.188047,-0.001981,0.005988,0.699382,0.005013,0.030375,-0.044483,-0.001981,-0.005988,-0.999980,-0.009005,0.033530,0.016963,0.205912,-14.612225,-44.019188,,,,,,,
1558219198.208031,-0.002507,0.004431,0.697449,-0.004579,-0.007749,-0.124929,-0.002507,-0.004431,-0.999987,-0.018809,0.039831,-0.010145,0.248342,-14.616380,-44.017586,,,,,,,
1558219198.228016,-0.002676,0.004358,0.694504,-0.002401,-0.008870,-0.160171,-0.002676,-0.004358,-0.999987,-0.003137,0.040491,-0.005949,0.252064,-14.544201,-44.041462,,,,,,,
1558219198.247968,-0.002645,0.004265,0.691608,-0.007723,0.004943,-0.130149,-0.002645,-0.004265,-0.999987,0.034536,0.079353,-0.009580,0.291274,-14.540547,-44.042431,,,,,,,
1558219198.267984,-0.001432,0.003321,0.690098,-0.003610,0.006127,-0.032978,-0.001432,-0.003321,-0.999993,0.031370,0.025691,-0.016669,0.339572,-14.532354,-44.044788,,,,,,,
1558219198.287941,-0.001458,0.003149,0.691037,-0.008039,0.011623,0.093053,-0.001458,-0.003149,-0.999994,0.003426,0.019033,0.004251,0.380395,-14.491032,-44.058071,,,,,,,
1558219198.307954,-0.001544,0.003160,0.692947,-0.003804,-0.001103,0.080123,-0.001544,-0.003160,-0.999994,-0.057385,0.096330,0.000482,0.357164,-14.489295,-44.058834,,,,,,,
1558219198.327938,-0.003009,0.000248,0.692601,-0.001410,0.012389,-0.074555,-0.003009,-0.000248,-0.999995,-0.039410,0.101643,-0.011479,0.274275,-14.361015,-44.101406,,,,,,,
1558219198.347911,-0.002779,0.000219,0.689815,-0.001266,0.014365,-0.166354,-0.002779,-0.000219,-0.999996,-0.007460,0.120931,-0.006580,0.282354,-14.360600,-44.101494,,,,,,,
1558219198.367891,-0.002608,0.000204,0.685951,-0.000194,-0.001555,-0.206008,-0.002608,-0.000204,-0.999997,0.009993,0.113379,0.001339,0.365911,-14.356700,-44.102146,,,,,,,
1558219198.387890,-0.002379,0.000259,0.682018,0.004088,0.015365,-0.185558,-0.002379,-0.000259,-0.999997,-0.001573,0.103912,-0.008319,0.445287,-14.355404,-44.101841,,,,,,,
1558219198.407873,-0.002113,0.000268,0.678448,-0.000186,0.015403,-0.174884,-0.002113,-0.000268,-0.999998,-0.007073,0.129571,-0.013262,0.461981,-14.355883,-44.101509,,,,,,,
1558219198.427839,-0.002116,0.000335,0.674849,-0.000239,-0.004693,-0.183618,-0.002116,-0.000335,-0.999998,0.001841,0.129104,-0.002673,0.550363,-14.354772,-44.100861,,,,,,,
1558219198.447833,-0.001923,0.000322,0.671427,-0.000221,0.012256,-0.158900,-0.001923,-0.000322,-0.999998,0.009323,0.112993,-0.009462,0.619884,-14.352407,-44.100708,,,,,,,
1558219198.467829,-0.001792,0.000321,0.668928,-0.000335,0.001765,-0.105618,-0.001792,-0.000321,-0.999998,0.004005,0.121872,-0.008852,0.656946,-14.350604,-44.100754,,,,,,,
1558219198.487787,-0.001597,0.000353,0.667731,-0.000414,0.008206,-0.039363,-0.001597,-0.000353,-0.999999,-0.015600,0.149644,-0.010332,0.690697,-14.350470,-44.100285,,,,,,,
1558219198.507788,-0.001745,-0.004971,0.667286,0.001644,0.010364,-0.001972,-0.001745,0.004971,-0.999986,-0.009775,0.138965,-0.008910,-10.818625,-8.525070,-43.994175,,,,,,,
1558219198.527782,-0.001617,-0.004997,0.667293,-0.002624,0.008276,0.000140,-0.001617,0.004997,-0.999986,0.004119,0.008965,-0.008604,-10.832419,-8.291247,-44.035446,,,,,,,
1558219198.547762,-0.001531,-0.005050,0.667317,-0.004805,-0.007569,-0.000014,-0.001531,0.005050,-0.999986,0.005055,0.017823,-0.022597,-10.823064,-8.289204,-44.038136,,,,,,,
1558219198.567738,-0.001913,-0.005211,0.667431,-0.000624,-0.020240,0.023356,-0.001913,0.005211,-0.999985,-0.005213,0.006843,0.007767,-10.835636,-8.280522,-44.036674,,,,,,,
1558219198.587735,-0.002237,-0.005309,0.667674,-0.000536,-0.001240,0.006456,-0.002237,0.005309,-0.999983,0.013406,-0.032881,-0.006502,-10.857017,-8.273202,-44.032784,,,,,,,
1558219198.607698,-0.002230,-0.005314,0.667681,0.000541,-0.000198,0.000061,-0.002230,0.005314,-0.999983,0.002505,0.008602,-0.007463,-10.857244,-8.272033,-44.032948,,,,,,,
1558219198.627674,-0.002240,-0.005308,0.667650,0.000544,-0.000202,-0.002075,-0.002240,0.005308,-0.999983,0.001584,0.000719,-0.008653,-10.857341,-8.272258,-44.032879,,,,,,,
1558219198.647688,-0.002239,-0.005308,0.667630,-0.000524,-0.000193,0.000060,-0.002239,0.005308,-0.999983,0.003261,-0.000776,-0.008928,-10.857029,-8.272837,-44.032848,,,,,,,
1558219198.667656,-0.002227,-0.005308,0.667637,0.001605,0.000856,0.002207,-0.002227,0.005308,-0.999983,0.001311,0.002734,-0.007341,-10.856889,-8.272540,-44.032940,,,,,,,
1558219198.687652,-0.002204,-0.005286,0.667638,0.000546,0.001917,0.001148,-0.002204,0.005286,-0.999984,0.003806,0.005136,-0.005983,-10.856005,-8.273529,-44.032970,,,,,,,
1558219198.707641,-0.001916,-0.005416,0.667652,0.000542,0.000861,0.001138,-0.001916,0.005415,-0.999983,0.005731,0.003297,-0.008287,-10.855072,-8.273994,-44.033115,,,,,,,
1558219198.727625,-0.001666,-0.005509,0.667644,0.001607,0.000854,0.000071,-0.001666,0.005509,-0.999983,0.002337,0.000854,-0.006074,-10.836467,-8.264743,-44.039433,,,,,,,
1558219198.747610,-0.001525,-0.005551,0.667646,0.000539,-0.000197,0.000060,-0.001525,0.005551,-0.999983,0.002196,0.005405,-0.008195,-10.831650,-8.264522,-44.040661,,,,,,,
1558219198.767589,-0.001371,-0.005755,0.667643,0.002672,0.000848,-0.000996,-0.001371,0.005755,-0.999982,0.003340,0.005857,-0.009234,-10.825776,-8.261847,-44.042606,,,,,,,
1558219198.787579,-0.001096,-0.005942,0.667635,0.000542,0.000860,-0.000997,-0.001096,0.005942,-0.999982,0.002393,0.001764,-0.008029,-10.811395,-8.247301,-44.048862,,,,,,,
1558219198.807563,-0.000903,-0.005980,0.667627,-0.000525,-0.000192,-0.002076,-0.000903,0.005980,-0.999982,0.001772,0.001345,-0.008792,-10.801167,-8.245256,-44.051758,,,,,,,
1558219198.827547,-0.000827,-0.006029,0.667639,0.000533,-0.001252,0.000050,-0.000827,0.006029,-0.999981,0.002048,0.001280,-0.006961,-10.798222,-8.243151,-44.052872,,,,,,,
1558219198.847531,-0.000676,-0.006277,0.667620,0.001606,0.000854,-0.002064,-0.000676,0.006277,-0.999980,0.001530,0.004404,-0.009114,-10.791245,-8.235835,-44.055950,,,,,,,
1558219198.867492,-0.000627,-0.006433,0.667606,0.003753,0.006126,-0.003080,-0.000627,0.006433,-0.999979,-0.000822,0.000403,-0.009390,-10.786228,-8.222884,-44.059601,,,,,,,
1558219198.887471,-0.000561,-0.006427,0.667597,0.001603,0.000856,-0.000997,-0.000561,0.006427,-0.999979,-0.001163,0.005170,-0.000173,-10.785909,-8.223404,-44.059578,,,,,,,
1558219198.907484,-0.000439,-0.006366,0.667583,0.000539,0.001921,0.001148,-0.000439,0.006366,-0.999980,-0.000232,-0.000431,-0.012182,-10.779451,-8.224885,-44.060883,,,,,,,
1558219198.927470,-0.000271,-0.006538,0.667570,0.001602,0.000855,-0.000997,-0.000271,0.006538,-0.999979,0.001110,0.003869,-0.007529,-10.771708,-8.224161,-44.062912,,,,,,,
1558219198.947443,-0.000065,-0.006612,0.667568,0.000541,0.002978,0.001158,-0.000065,0.006612,-0.999978,0.001896,0.000835,-0.008613,-10.766688,-8.220392,-44.064842,,,,,,,
1558219198.967439,-0.000109,-0.006683,0.667579,-0.002698,-0.010746,0.001024,-0.000109,0.006683,-0.999978,0.000979,0.002121,-0.006050,-10.760639,-8.216286,-44.067085,,,,,,,
1558219198.987423,-0.000110,-0.006789,0.667612,-0.002679,-0.004402,0.002152,-0.000110,0.006789,-0.999977,0.002109,0.001710,-0.007088,-10.764968,-8.210627,-44.067081,,,,,,,
1558219199.007396,-0.000184,-0.006910,0.667714,-0.000561,-0.001222,0.016063,-0.000184,0.006910,-0.999976,-0.021072,0.014483,-0.006509,-10.763963,-8.206699,-44.068058,,,,,,,
1558219199.027376,-0.000727,-0.007330,0.669093,0.000426,0.007328,0.084475,-0.000727,0.007330,-0.999973,0.002497,-0.001546,-0.008755,-10.802288,-8.174560,-44.064659,,,,,,,
1558219199.047377,0.000764,-0.006646,0.670156,0.000510,-0.001231,0.011794,0.000764,0.006646,-0.999978,0.025832,-0.021768,-0.008262,-10.778143,-8.159659,-44.073330,,,,,,,
1558219199.067349,0.000714,-0.006711,0.670146,-0.001600,-0.001239,-0.001020,0.000714,0.006711,-0.999977,0.000003,-0.000043,-0.007789,-10.748142,-8.184056,-44.076134,,,,,,,
1558219199.087345,0.000660,-0.006868,0.670147,0.001579,-0.004424,0.001087,0.000660,0.006868,-0.999976,-0.000614,0.003828,-0.006738,-10.748290,-8.181069,-44.076649,,,,,,,
1558219199.107328,0.000483,-0.007127,0.670158,0.000525,-0.002328,0.000052,0.000483,0.007127,-0.999974,-0.001002,0.004775,-0.007197,-10.756945,-8.170662,-44.076469,,,,,,,
1558219199.127299,0.000488,-0.007107,0.670202,-0.000536,-0.001265,0.000061,0.000488,0.007106,-0.999975,0.003906,-0.001629,-0.007304,-10.761951,-8.164092,-44.076466,,,,,,,
1558219199.147269,0.000469,-0.007139,0.670278,0.002639,-0.002325,0.009663,0.000469,0.007139,-0.999974,-0.005459,0.017046,-0.006327,-10.758569,-8.166409,-44.076859,,,,,,,
1558219199.167256,0.000242,-0.007071,0.670741,0.000492,-0.002297,0.021405,0.000242,0.007070,-0.999975,0.007219,-0.013006,-0.007746,-10.775614,-8.157671,-44.074314,,,,,,,
1558219199.187247,0.000350,-0.007149,0.670861,0.000527,-0.001272,0.000062,0.000350,0.007149,-0.999974,0.003496,0.005271,-0.009547,-10.774938,-8.161072,-44.073853,,,,,,,
1558219199.207246,0.000361,-0.007263,0.670836,0.000521,-0.003387,-0.001026,0.000361,0.007263,-0.999974,0.002416,0.005173,-0.008892,-10.770730,-8.156945,-44.075645,,,,,,,
1558219199.227223,0.000359,-0.007666,0.670746,0.000531,-0.001278,-0.004209,0.000359,0.007666,-0.999971,-0.003426,0.001596,-0.007445,-10.768957,-8.148655,-44.077610,,,,,,,
1558219199.247220,0.000279,-0.007513,0.670843,0.000524,0.002970,0.009711,0.000279,0.007513,-0.999972,-0.004231,-0.006201,-0.008558,-10.768959,-8.135454,-44.080048,,,,,,,
1558219199.267176,0.000284,-0.007443,0.670973,0.000511,-0.002318,0.007525,0.000284,0.007443,-0.999972,-0.002725,0.013827,-0.008054,-10.773520,-8.140444,-44.078011,,,,,,,
1558219199.287159,0.000323,-0.007439,0.671118,0.000510,-0.003378,0.005379,0.000323,0.007438,-0.999972,0.000669,0.001305,-0.006970,-10.773583,-8.142734,-44.077572,,,,,,,
1558219199.307173,0.000159,-0.007434,0.671353,0.000491,-0.002300,0.020337,0.000159,0.007434,-0.999972,-0.001395,-0.004565,-0.011746,-10.780287,-8.135131,-44.077339,,,,,,,
1558219199.327150,-0.000010,-0.007166,0.671983,0.002633,0.008281,0.035387,-0.000010,0.007166,-0.999974,0.002345,-0.004526,-0.007914,-10.797475,-8.142434,-44.071781,,,,,,,
1558219199.347119,-0.000125,-0.007477,0.672106,0.000496,-0.006548,0.007484,-0.000125,0.007477,-0.999972,0.000156,-0.000275,-0.006101,-10.800336,-8.128873,-44.073586,,,,,,,
1558219199.367126,0.000052,-0.007299,0.672146,0.002685,0.008228,0.000154,0.000052,0.007299,-0.999973,0.004419,-0.005208,-0.012737,-10.800632,-8.130573,-44.073200,,,,,,,
1558219199.387110,0.000007,-0.007781,0.672083,0.001579,-0.006574,-0.006395,0.000007,0.007781,-0.999970,0.000619,0.011536,-0.007477,-10.794068,-8.136905,-44.073639,,,,,,,
1558219199.407095,-0.000022,-0.008017,0.672015,-0.001608,-0.002323,-0.002086,-0.000022,0.008016,-0.999968,-0.000329,0.011530,-0.009126,-10.795864,-8.117876,-44.076710,,,,,,,
1558219199.427050,-0.000085,-0.008514,0.672005,-0.002682,-0.001249,0.005397,-0.000085,0.008514,-0.999964,-0.003760,0.013657,-0.009161,-10.798863,-8.085141,-44.081989,,,,,,,
1558219199.447064,-0.000277,-0.009528,0.672522,-0.002745,-0.002253,0.041687,-0.000277,0.009528,-0.999955,-0.002958,0.027505,-0.007980,-10.805846,-8.065632,-44.083851,,,,,,,
1558219199.467048,-0.000034,-0.010320,0.673603,0.002601,0.009358,0.049276,-0.000034,0.010320,-0.999947,0.005695,0.013606,-0.007805,-10.816414,-8.002896,-44.092693,,,,,,,
1558219199.487010,0.000409,-0.010720,0.674361,0.000479,0.006180,0.036432,0.000409,0.010720,-0.999942,0.002170,0.013847,-0.006726,-10.800046,-7.977936,-44.101227,,,,,,,
1558219199.507017,0.000509,-0.011176,0.675190,-0.001673,0.005151,0.048164,0.000509,0.011176,-0.999937,-0.001074,0.020501,-0.007158,-10.797825,-7.959642,-44.105076,,,,,,,
1558219199.527001,0.000606,-0.012133,0.676382,-0.009178,-0.003243,0.063025,0.000606,0.012132,-0.999926,0.005391,0.013197,-0.007673,-10.807905,-7.895754,-44.114090,,,,,,,
1558219199.546977,0.000858,-0.011795,0.678413,-0.012469,-0.015852,0.101337,0.000858,0.011794,-0.999930,0.003872,0.015946,-0.010415,-10.804254,-7.878477,-44.118076,,,,,,,
1558219199.566970,0.000605,-0.013548,0.680342,0.005666,0.000972,0.106850,0.000605,0.013547,-0.999908,-0.007593,0.022204,-0.008942,-10.821820,-7.802650,-44.127247,,,,,,,
1558219199.586955,0.000015,-0.014745,0.682261,-0.006056,-0.009567,0.088590,0.000015,0.014745,-0.999891,-0.010757,0.044078,-0.010714,-10.865022,-7.747024,-44.126427,,,,,,,
1558219199.606928,-0.000152,-0.016098,0.684587,0.000256,-0.007410,0.139862,-0.000152,0.016097,-0.999870,0.024414,0.038514,0.000099,-10.900933,-7.620806,-44.139549,,,,,,,
1558219199.626923,0.000508,-0.017169,0.687661,-0.001880,-0.002091,0.152724,0.000508,0.017168,-0.999852,0.011943,0.033414,-0.001765,-10.901013,-7.582426,-44.146137,,,,,,,
1558219199.646908,0.000676,-0.018654,0.691088,0.000217,0.006406,0.188039,0.000676,0.018653,-0.999826,-0.004628,0.032510,-0.009253,-10.915056,-7.470743,-44.161705,,,,,,,
1558219199.666871,0.000248,-0.019926,0.694831,-0.009443,-0.016802,0.186741,0.000248,0.019925,-0.999801,-0.009617,0.032718,-0.007843,-10.954858,-7.375513,-44.167858,,,,,,,
1558219199.686875,-0.000189,-0.020703,0.698551,-0.012623,-0.015741,0.178207,-0.000189,0.020702,-0.999786,-0.003488,0.023732,-0.004533,-10.998989,-7.305226,-44.168571,,,,,,,
1558219199.706836,-0.001476,-0.021779,0.702119,-0.006184,0.004312,0.184809,-0.001475,0.021777,-0.999762,-0.028478,0.019162,-0.005213,-11.045486,-7.234968,-44.168533,,,,,,,
1558219199.726817,-0.002161,-0.023155,0.705585,0.007717,0.014769,0.161431,-0.002161,0.023153,-0.999730,-0.017859,0.033610,-0.005291,-11.149783,-7.108915,-44.162796,,,,,,,
1558219199.746828,-0.002039,-0.023860,0.707915,0.011042,0.023098,0.088913,-0.002038,0.023857,-0.999713,-0.015311,0.043815,-0.007428,-11.149783,-7.108915,-44.162796,,,,,,,
1558219199.766804,-0.001263,-0.025980,0.709242,-0.000761,-0.012810,0.066141,-0.001262,0.025977,-0.999662,0.019725,0.026376,-0.014270,-11.181533,-6.962821,-44.178040,,,,,,,
1558219199.786770,-0.001292,-0.027664,0.711066,-0.008360,-0.037019,0.106474,-0.001292,0.027660,-0.999617,0.012614,0.030003,0.003111,-11.174945,-6.846022,-44.197956,,,,,,,
1558219199.806764,-0.000991,-0.028163,0.712812,0.005772,0.033663,0.063389,-0.000990,0.028159,-0.999603,0.008116,0.028085,0.003784,-11.174945,-6.846022,-44.197956,,,,,,,
1558219199.826762,0.000255,-0.029824,0.713876,0.031299,0.027177,0.055874,0.000255,0.029820,-0.999555,0.011326,0.032741,-0.007387,-11.164129,-6.735269,-44.217701,,,,,,,
1558219199.846751,0.001471,-0.030776,0.715443,-0.002805,0.036939,0.100782,0.001471,0.030771,-0.999525,0.010202,0.022040,-0.009172,-11.102141,-6.649740,-44.246243,,,,,,,
1558219199.866724,0.001844,-0.031465,0.717843,0.005472,-0.020137,0.132272,0.001843,0.031460,-0.999503,-0.001645,0.033955,-0.016335,-11.102141,-6.649740,-44.246243,,,,,,,
1558219199.886721,0.001220,-0.033702,0.720634,0.005464,-0.018022,0.134426,0.001219,0.033696,-0.999431,-0.005934,0.016994,0.000301,-11.126061,-6.458001,-44.268631,,,,,,,
1558219199.906705,0.001540,-0.033490,0.723217,-0.002839,0.038016,0.116806,0.001539,0.033484,-0.999438,-0.008391,-0.014502,0.000018,-11.146998,-6.420382,-44.268837,,,,,,,
1558219199.926690,0.001820,-0.033327,0.725648,0.000221,-0.001106,0.119636,0.001819,0.033321,-0.999443,-0.016529,-0.043483,-0.010918,-11.147571,-6.409925,-44.270206,,,,,,,
1558219199.946674,0.001749,-0.033143,0.727548,0.024763,0.012492,0.110177,0.001748,0.033137,-0.999449,-0.017266,-0.009303,-0.015138,-11.170397,-6.384851,-44.268078,,,,,,,
1558219199.966657,0.001930,-0.033129,0.730021,-0.017814,0.001049,0.083342,0.001929,0.033123,-0.999449,-0.005088,0.077427,-0.005098,-11.171148,-6.384177,-44.267982,,,,,,,
1558219199.986643,0.002317,-0.033034,0.730357,0.012220,0.027175,-0.011404,0.002316,0.033028,-0.999452,0.018345,-0.059991,-0.013106,-11.178481,-6.351672,-44.270805,,,,,,,
1558219200.006626,0.002364,-0.032893,0.730188,-0.000700,-0.011850,-0.000044,0.002363,0.032887,-0.999456,0.015978,-0.007436,-0.006205,-11.161985,-6.365692,-44.272957,,,,,,,
1558219200.026591,0.002404,-0.032901,0.730702,0.007813,0.009317,0.048209,0.002402,0.032895,-0.999456,0.011712,0.027896,-0.005595,-2.940397,-13.574290,-44.306782,,,,,,,
1558219200.046596,0.002584,-0.032561,0.732316,0.022610,0.001921,0.102600,0.002583,0.032555,-0.999467,0.010127,0.011833,-0.010482,-2.946993,-13.578318,-44.305111,,,,,,,
1558219200.066578,0.003084,-0.032426,0.734568,0.005620,0.017875,0.109145,0.003082,0.032420,-0.999470,-0.031265,-0.019694,-0.013775,-2.967087,-13.584679,-44.301819,,,,,,,
1558219200.086554,0.003042,-0.032351,0.736905,0.003369,-0.012745,0.123797,0.003040,0.032345,-0.999472,-0.037159,0.049503,-0.009225,-2.986500,-13.582952,-44.301044,,,,,,,
1558219200.106530,0.002861,-0.032276,0.739215,0.003439,-0.003272,0.097197,0.002860,0.032271,-0.999475,-0.019828,0.019212,-0.006003,-3.032872,-13.578991,-44.299110,,,,,,,
1558219200.126525,0.003103,-0.031953,0.740002,0.020674,0.017641,0.016281,0.003101,0.031947,-0.999485,0.011364,-0.049037,-0.010906,-3.050125,-13.576330,-44.298740,,,,,,,
1558219200.146495,0.003315,-0.031656,0.740363,0.002569,0.019866,0.026964,0.003313,0.031651,-0.999493,0.008284,-0.023838,-0.005206,-3.052520,-13.597831,-44.291981,,,,,,,
1558219200.166476,0.003129,-0.031906,0.742049,-0.006246,-0.024331,0.129028,0.003128,0.031901,-0.999486,0.001145,0.017263,-0.012553,-3.049742,-13.597422,-44.292297,,,,,,,
1558219200.186463,0.003258,-0.032052,0.745232,-0.001967,-0.005286,0.156973,0.003257,0.032046,-0.999481,-0.000083,0.043683,-0.011994,-3.110926,-13.569784,-44.296520,,,,,,,
1558219200.206470,0.003165,-0.031912,0.747809,-0.001844,0.008377,0.104789,0.003163,0.031907,-0.999486,0.028102,-0.048249,-0.003612,-3.160238,-13.566687,-44.293980,,,,,,,
1558219200.226455,0.003289,-0.031847,0.749780,0.000264,0.004144,0.109021,0.003287,0.031842,-0.999488,0.015512,0.002384,-0.007059,-3.177045,-13.562963,-44.293911,,,,,,,
1558219200.246438,0.003299,-0.031739,0.752492,0.003414,0.009473,0.149645,0.003298,0.031733,-0.999491,-0.015108,0.014287,-0.004553,-3.221555,-13.558329,-44.292118,,,,,,,
1558219200.266398,0.003719,-0.031714,0.754941,0.000312,0.015761,0.102726,0.003717,0.031708,-0.999490,-0.022424,-0.011399,-0.006598,-3.242002,-13.553083,-44.292229,,,,,,,
1558219200.286390,0.003872,-0.031469,0.755909,0.008867,-0.009775,0.020279,0.003870,0.031464,-0.999497,0.001044,0.007507,-0.006637,-3.247015,-13.550785,-44.292568,,,,,,,
1558219200.306385,0.003585,-0.031359,0.756511,0.006674,-0.017123,0.046898,0.003583,0.031354,-0.999502,0.005770,-0.010358,-0.009913,-3.270072,-13.559088,-44.288330,,,,,,,
1558219200.326378,0.003288,-0.031311,0.758403,-0.010512,-0.025364,0.131150,0.003286,0.031306,-0.999504,0.005045,0.032964,-0.007209,-3.303966,-13.559889,-44.285568,,,,,,,
1558219200.346346,0.003063,-0.031273,0.761347,0.001302,0.014768,0.149693,0.003061,0.031268,-0.999506,-0.005533,0.020383,0.013514,-3.350503,-13.550136,-44.285057,,,,,,,
1558219200.366338,0.002889,-0.031288,0.763759,0.010878,-0.011791,0.093929,0.002887,0.031283,-0.999506,-0.011127,-0.074191,-0.011892,-3.407118,-13.536850,-44.284801,,,,,,,
1558219200.386330,0.001500,-0.029633,0.765518,-0.008301,-0.014849,0.104560,0.001499,0.029629,-0.999560,-0.024952,-0.040142,0.002032,-3.493468,-13.608315,-44.256165,,,,,,,
1558219200.406315,0.001339,-0.029663,0.767476,0.002359,-0.014922,0.093891,0.001339,0.029659,-0.999559,-0.022655,-0.007823,-0.010405,-3.520325,-13.599531,-44.256733,,,,,,,
1558219200.426283,0.001211,-0.029475,0.769472,0.016209,-0.012885,0.090719,0.001210,0.029471,-0.999565,-0.006932,0.039240,0.000648,-3.566564,-13.595470,-44.254280,,,,,,,
1558219200.446283,0.001351,-0.030016,0.771257,-0.008222,0.008398,0.100512,0.001350,0.030012,-0.999549,-0.001777,-0.020643,-0.012887,-3.583977,-13.593810,-44.253384,,,,,,,
1558219200.466268,0.001411,-0.030152,0.773143,0.002401,-0.012846,0.068287,0.001411,0.030147,-0.999545,-0.002006,-0.051403,-0.018934,-3.611088,-13.558062,-44.262142,,,,,,,
1558219200.486252,0.001769,-0.029242,0.774386,-0.001994,-0.050858,0.078597,0.001768,0.029238,-0.999571,0.013979,-0.022005,-0.000338,-3.632298,-13.552673,-44.262058,,,,,,,
1558219200.506216,0.001849,-0.029063,0.774431,0.001494,-0.003448,-0.013832,0.001848,0.029059,-0.999576,-0.000154,-0.020209,-0.008313,-3.624054,-13.589733,-44.251369,,,,,,,
1558219200.526221,0.001877,-0.027308,0.774832,0.008880,-0.006596,0.027782,0.001876,0.027304,-0.999625,-0.000518,-0.038977,-0.013604,-3.621508,-13.602118,-44.247776,,,,,,,
1558219200.546206,0.001838,-0.027012,0.775532,0.020504,-0.027782,0.038265,0.001837,0.027009,-0.999633,0.002344,-0.067383,0.002517,-3.629352,-13.680278,-44.223026,,,,,,,
1558219200.566173,0.001495,-0.024354,0.776647,0.013139,0.006114,0.062071,0.001495,0.024352,-0.999702,-0.013549,-0.060149,-0.018578,-3.645267,-13.691631,-44.218208,,,,,,,
1558219200.586174,0.001372,-0.024085,0.777437,0.012157,0.012400,0.020492,0.001372,0.024083,-0.999709,-0.017714,-0.013936,0.000045,-3.684272,-13.801781,-44.180714,,,,,,,
1558219200.606160,0.001511,-0.023965,0.776901,0.015455,0.015459,-0.042467,0.001511,0.023962,-0.999712,0.017868,-0.030020,-0.008925,-3.679303,-13.809494,-44.178719,,,,,,,
1558219200.626140,0.002186,-0.021747,0.776427,0.008964,0.002884,0.005452,0.002185,0.021745,-0.999761,0.008465,-0.043275,-0.009989,-3.663069,-13.822762,-44.175919,,,,,,,
1558219200.646127,0.002096,-0.021499,0.776235,0.002648,0.006028,-0.035094,0.002096,0.021497,-0.999767,0.024363,-0.028013,-0.008229,-3.638215,-13.918594,-44.147869,,,,,,,
1558219200.666096,0.002206,-0.021288,0.776472,0.014080,0.012605,0.163560,0.002206,0.021286,-0.999771,-0.068017,-0.185028,-0.024933,-3.627347,-13.933348,-44.144112,,,,,,,
1558219200.686076,0.002836,-0.020945,0.785238,0.010493,0.018317,0.437998,0.002835,0.020943,-0.999777,0.042926,0.013969,-0.022013,-3.711949,-13.921164,-44.140923,,,,,,,
1558219200.706080,0.002679,-0.020933,0.793746,0.017053,0.050986,0.394542,0.002678,0.020931,-0.999777,0.024574,0.035481,-0.011789,-3.813586,-13.897761,-44.139633,,,,,,,
1558219200.726065,0.002825,-0.020966,0.798118,-0.002829,0.011511,0.079192,0.002824,0.020965,-0.999776,0.031569,0.070283,-0.006373,-3.926670,-13.865582,-44.139839,,,,,,,
1558219200.746043,0.002982,-0.020889,0.796664,-0.005640,0.047201,-0.097698,0.002982,0.020888,-0.999777,0.014230,-0.006148,-0.000741,-3.927160,-13.869474,-44.138573,,,,,,,
1558219200.766033,0.002887,-0.020658,0.795982,0.012091,-0.008734,0.023492,0.002886,0.020657,-0.999782,0.008954,-0.093212,-0.018894,-3.891307,-13.880663,-44.138229,,,,,,,
1558219200.786019,0.001779,-0.020869,0.798352,-0.023499,-0.078079,0.178677,0.001779,0.020868,-0.999781,-0.010644,-0.116632,-0.022879,-3.949638,-13.875444,-44.134689,,,,,,,
1558219200.806002,0.001342,-0.021003,0.804419,0.020081,-0.025222,0.337229,0.001342,0.021002,-0.999779,-0.029800,0.155588,-0.025093,-4.059289,-13.838367,-44.136379,,,,,,,
1558219200.825971,0.001446,-0.020814,0.807665,0.009925,0.007220,0.082364,0.001446,0.020812,-0.999782,-0.053859,0.100205,-0.005772,-4.120117,-13.833017,-44.132420,,,,,,,
1558219200.845967,0.001427,-0.020619,0.809000,0.017310,-0.021386,0.063946,0.001427,0.020617,-0.999786,-0.014916,-0.077716,-0.000366,-4.142841,-13.831251,-44.130848,,,,,,,
1558219200.865957,0.001380,-0.020749,0.809902,-0.014528,-0.012831,0.018093,0.001379,0.020747,-0.999784,0.004053,-0.088481,-0.007174,-4.163304,-13.827789,-44.130009,,,,,,,
1558219200.885927,0.000994,-0.020874,0.809138,-0.009053,-0.004528,-0.065100,0.000993,0.020872,-0.999782,0.011595,-0.062254,0.011653,-4.170547,-13.821596,-44.131264,,,,,,,
1558219200.905903,0.000655,-0.020918,0.807888,0.004757,-0.010937,-0.060879,0.000654,0.020917,-0.999781,-0.029433,0.002613,0.000086,-4.171463,-13.822900,-44.130768,,,,,,,
1558219200.925909,0.000667,-0.021205,0.806246,-0.060096,-0.000070,-0.090721,0.000667,0.021204,-0.999775,-0.039089,-0.253977,-0.094753,-4.161128,-13.830310,-44.129425,,,,,,,
1558219200.945877,0.000126,-0.024313,0.804604,-0.144374,-0.049286,-0.076313,0.000126,0.024311,-0.999704,-0.023289,0.041714,0.018152,-4.138683,-13.792931,-44.143230,,,,,,,
1558219200.965870,0.001324,-0.026300,0.804552,-0.111585,0.224353,-0.045909,0.001323,0.026297,-0.999653,0.001805,-0.029959,0.027791,-4.143500,-13.625142,-44.194855,,,,,,,
1558219200.985862,0.001909,-0.028061,0.803245,-0.081063,-0.166777,0.037919,0.001908,0.028058,-0.999604,-0.013001,0.007602,0.023027,-3.999556,-13.567946,-44.225700,,,,,,,
1558219201.005828,-0.000338,-0.028871,0.805641,-0.013569,-0.022278,0.067115,-0.000338,0.028867,-0.999583,-0.008253,-0.077787,-0.018788,-4.102051,-13.509723,-44.234135,,,,,,,
1558219201.025831,-0.000007,-0.029103,0.803992,-0.005726,0.011226,-0.120464,-0.000007,0.029099,-0.999577,0.023749,-0.113373,-0.027859,-4.151973,-13.478591,-44.238976,,,,,,,
1558219201.045816,-0.000263,-0.029261,0.801809,-0.015437,-0.012984,-0.086539,-0.000262,0.029257,-0.999572,-0.005170,-0.046652,-0.001435,-4.123425,-13.483439,-44.240170,,,,,,,
1558219201.065800,-0.000680,-0.029567,0.801395,-0.012416,-0.029796,-0.008760,-0.000680,0.029563,-0.999563,-0.003974,0.026849,-0.008418,-4.124855,-13.476014,-44.242298,,,,,,,
1558219201.085785,-0.001149,-0.030057,0.800319,-0.046597,-0.066616,-0.011275,-0.001149,0.030052,-0.999548,-0.059536,-0.039345,0.006460,-4.123722,-13.462780,-44.246429,,,,,,,
1558219201.105752,-0.000435,-0.030215,0.799836,0.015738,0.072445,-0.102779,-0.000434,0.030210,-0.999543,0.004310,-0.063215,-0.037612,-4.121861,-13.442101,-44.252895,,,,,,,
1558219201.125753,0.000811,-0.030117,0.795801,-0.006498,0.061839,-0.205393,0.000810,0.030112,-0.999546,-0.000841,-0.067038,-0.010250,-4.041310,-13.463879,-44.253700,,,,,,,
1558219201.145738,0.001392,-0.030157,0.791983,0.003052,0.039548,-0.226942,0.001392,0.030153,-0.999544,0.012875,-0.021302,-0.005369,-3.925923,-13.476702,-44.260185,,,,,,,
1558219201.165721,0.001990,-0.030253,0.786842,-0.000211,0.009941,-0.245378,0.001989,0.030249,-0.999540,0.000421,-0.056875,-0.030077,-3.845680,-13.491266,-44.262791,,,,,,,
1558219201.185706,0.000507,-0.031051,0.783101,-0.048456,-0.056273,-0.161706,0.000507,0.031046,-0.999518,0.005749,-0.077952,-0.015695,-3.790785,-13.499372,-44.265057,,,,,,,
1558219201.205691,0.001943,-0.030562,0.778763,0.025413,0.076538,-0.150767,0.001942,0.030557,-0.999531,-0.070073,-0.242898,-0.020382,-3.708484,-13.506586,-44.269829,,,,,,,
1558219201.225675,0.001868,-0.030744,0.778199,0.009538,0.118949,-0.119412,0.001867,0.030739,-0.999526,0.018565,0.095817,0.013503,-3.710690,-13.504713,-44.270214,,,,,,,
1558219201.245659,0.005585,-0.029006,0.770079,0.107281,0.242698,-0.430970,0.005583,0.029002,-0.999564,0.044618,-0.103449,-0.030557,-3.560027,-13.554497,-44.267372,,,,,,,
1558219201.265645,0.005329,-0.027215,0.769125,0.048702,-0.137673,0.174969,0.005327,0.027212,-0.999615,0.005155,-0.056082,0.021039,-3.345876,-13.690813,-44.242119,,,,,,,
1558219201.285629,0.005313,-0.025753,0.771035,0.122956,0.028689,0.003662,0.005311,0.025750,-0.999654,0.003463,-0.097573,-0.007166,-3.423660,-13.729230,-44.224262,,,,,,,
1558219201.305613,0.006247,-0.022945,0.771842,0.120569,0.007749,0.129441,0.006246,0.022943,-0.999717,-0.006535,-0.179117,-0.014229,-3.404569,-13.789312,-44.207039,,,,,,,
1558219201.325597,0.006124,-0.022252,0.776325,0.010873,0.027469,0.208548,0.006122,0.022250,-0.999734,-0.077305,-0.265872,-0.012672,-3.452307,-13.892664,-44.170963,,,,,,,
1558219201.345565,0.006561,-0.022846,0.779028,-0.080407,0.009658,-0.007360,0.006559,0.022844,-0.999718,-0.039121,-0.010103,-0.009514,-3.480492,-13.885390,-44.171036,,,,,,,
1558219201.365566,0.005288,-0.024038,0.778987,-0.051049,-0.102462,0.044972,0.005287,0.024036,-0.999697,0.007851,-0.014682,-0.019666,-3.489961,-13.837786,-44.185230,,,,,,,
1558219201.385548,0.004528,-0.025908,0.779223,-0.107160,-0.030359,-0.001359,0.004526,0.025905,-0.999654,0.001135,-0.011455,-0.015010,-3.554422,-13.785565,-44.196411,,,,,,,
1558219201.405526,0.004825,-0.029720,0.779669,-0.230457,0.037978,0.025887,0.004823,0.029716,-0.999547,-0.004258,-0.010383,-0.045070,-3.573943,-13.600223,-44.252224,,,,,,,
