timestamp(unix),attitude_roll(radians),attitude_pitch(radians),attitude_yaw(radians),rotation_rate_x(radians/s),rotation_rate_y(radians/s),rotation_rate_z(radians/s),gravity_x(G),gravity_y(G),gravity_z(G),user_acc_x(G),user_acc_y(G),user_acc_z(G),magnetic_field_x(microteslas),magnetic_field_y(microteslas),magnetic_field_z(microteslas),latitude(degree),longitude(degree),altitude(meter),speed(m/s),course(degree),timestamp(unix),User Mark
1558216551.554813,0.085261,0.526953,0.412945,-0.507088,0.752530,-0.055213,0.073605,-0.502902,-0.861204,0.006351,-0.007657,-0.061678,-1.874462,-33.962570,-30.501963,,,,,,,
1558216551.574799,0.097583,0.513704,0.412247,-0.719194,0.336093,-0.076451,0.084853,-0.491406,-0.866787,0.003831,0.002042,-0.194690,-1.485931,-33.699928,-30.813095,,,,,,,
1558216551.594759,0.099934,0.502461,0.415753,-0.405002,0.190042,0.199991,0.087437,-0.481583,-0.872028,-0.069492,-0.045638,-0.022259,-1.282315,-33.373833,-31.175035,,,,,,,
1558216551.614746,0.099077,0.505172,0.422554,0.456572,0.051475,0.334946,0.086559,-0.483958,-0.870800,-0.031856,0.038828,0.089489,-1.339689,-33.110466,-31.452217,,,,,,,
1558216551.634730,0.093987,0.522968,0.426831,1.002928,-0.234827,0.233352,0.081305,-0.499453,-0.862517,0.011789,-0.040921,0.037429,-1.585819,-33.558216,-30.962418,,,,,,,
1558216551.654727,0.094254,0.540677,0.430629,0.688724,0.358756,0.236646,0.080690,-0.514717,-0.853555,0.032897,-0.053017,0.063165,-1.721796,-33.860985,-30.623665,,,,,,,
1558216551.674703,0.101618,0.548323,0.433288,0.233636,0.444423,0.083361,0.086572,-0.521257,-0.848997,0.107199,-0.020048,0.055601,-1.654249,-34.413864,-30.004816,,,,,,,
1558216551.694683,0.114155,0.550754,0.430226,0.080317,0.606457,-0.248317,0.097063,-0.523330,-0.846584,0.108411,-0.002121,0.042202,-1.327570,-34.518642,-29.900515,,,,,,,
1558216551.714690,0.129998,0.549894,0.419819,-0.037836,0.472395,-0.545434,0.110522,-0.522597,-0.845386,0.088407,0.021102,-0.016003,-1.050598,-34.542248,-29.884262,,,,,,,
1558216551.734675,0.143719,0.546308,0.408453,-0.140479,0.388549,-0.427810,0.122378,-0.519536,-0.845639,-0.074878,-0.003199,-0.047824,-0.125401,-34.503914,-29.946690,,,,,,,
1558216551.754660,0.152520,0.544950,0.407318,0.046051,0.442464,0.235865,0.129923,-0.518375,-0.845226,-0.236597,0.001575,0.111462,0.266974,-34.439598,-30.019707,,,,,,,
1558216551.774644,0.162814,0.549665,0.416153,0.217315,0.846779,0.490769,0.138219,-0.522402,-0.841422,-0.110128,-0.092695,0.101860,0.325305,-34.464176,-29.990906,,,,,,,
1558216551.794628,0.171532,0.555247,0.427838,0.171937,0.665283,0.539175,0.145049,-0.527154,-0.837299,0.026566,-0.029609,-0.009182,0.521688,-34.646973,-29.776751,,,,,,,
1558216551.814586,0.174045,0.560501,0.439259,0.211906,0.176672,0.498230,0.146671,-0.531611,-0.834193,0.050656,-0.025503,-0.077947,0.478808,-34.750568,-29.656506,,,,,,,
1558216551.834597,0.165800,0.570258,0.445166,0.595639,-0.462152,0.171061,0.138925,-0.539849,-0.830218,0.052206,0.042245,-0.056806,0.335873,-34.826351,-29.569447,,,,,,,
1558216551.854583,0.153266,0.587119,0.439373,1.018163,-0.983937,-0.212610,0.127101,-0.553965,-0.822781,0.006444,-0.036535,0.008648,-0.237687,-35.401882,-28.878887,,,,,,,
1558216551.874567,0.128537,0.601992,0.431432,0.542224,-1.680168,-0.244211,0.105650,-0.566286,-0.817410,-0.050978,0.211748,-0.016117,-0.819512,-35.918804,-28.222466,,,,,,,
1558216551.894550,0.105981,0.608251,0.421388,0.321876,-1.139224,-0.477295,0.086810,-0.571433,-0.816045,-0.004138,0.156394,0.064702,-0.819512,-35.918804,-28.222466,,,,,,,
1558216551.914518,0.099717,0.612144,0.411762,0.138009,-0.290162,-0.226960,0.081475,-0.574623,-0.814353,-0.027901,-0.005516,0.172842,-1.574940,-36.253555,-27.758585,,,,,,,
1558216551.934519,0.099444,0.607866,0.411294,-0.498093,0.003303,0.109513,0.081496,-0.571117,-0.816813,-0.026915,-0.059895,-0.010076,-1.555898,-36.302387,-27.695772,,,,,,,
1558216551.954501,0.097953,0.582682,0.417985,-1.731658,0.379740,0.109993,0.081659,-0.550265,-0.830987,0.021567,-0.085477,0.025064,-1.555898,-36.302387,-27.695772,,,,,,,
1558216551.974477,0.108101,0.541773,0.431100,-2.279591,0.994246,0.562780,0.092440,-0.515656,-0.851794,0.007077,-0.010375,-0.118787,-1.405840,-34.607765,-29.793726,,,,,,,
1558216551.994457,0.112975,0.495541,0.454336,-2.389693,0.631541,0.783426,0.099174,-0.475508,-0.874103,0.161934,0.004927,-0.129452,-1.309276,-33.515556,-31.021496,,,,,,,
1558216552.014436,0.100659,0.455276,0.480438,-1.905936,-0.388487,1.063382,0.090254,-0.439710,-0.893594,0.216112,0.106839,-0.026008,-1.544382,-32.006092,-32.566311,,,,,,,
1558216552.034413,0.078449,0.429121,0.508818,-1.116197,-0.382998,1.148411,0.071263,-0.416072,-0.906535,0.166545,0.080272,0.043101,-2.774716,-30.529499,-33.876106,,,,,,,
1558216552.054424,0.067803,0.416688,0.532459,-0.525891,0.057650,1.017511,0.061954,-0.404734,-0.912333,0.147580,0.039470,-0.067266,-3.314782,-28.596550,-32.050808,,,,,,,
1558216552.074413,0.059138,0.409793,0.556949,-0.367544,0.047530,1.169146,0.054210,-0.398420,-0.915600,0.125584,0.037229,-0.057072,-3.726573,-28.284428,-32.281704,,,,,,,
1558216552.094397,0.052801,0.404787,0.583697,-0.300509,0.355803,1.154001,0.048512,-0.393823,-0.917905,-0.002964,-0.031272,0.011228,-4.605143,-27.786169,-32.599480,,,,,,,
1558216552.114357,0.054682,0.399050,0.602118,-0.368408,0.503340,0.616196,0.050360,-0.388543,-0.920053,-0.017096,-0.086203,0.029245,-4.838346,-27.562803,-32.754951,,,,,,,
1558216552.134366,0.060694,0.389555,0.614867,-0.601457,0.538431,0.644104,0.056112,-0.379777,-0.923375,0.006800,-0.045714,0.051610,-4.830611,-27.241402,-33.023865,,,,,,,
1558216552.154350,0.060891,0.377182,0.633656,-0.651805,0.247380,0.926340,0.056576,-0.368302,-0.927983,0.069843,-0.100539,-0.051906,-4.934534,-26.626032,-33.506859,,,,,,,
1558216552.174333,0.057352,0.370331,0.653989,-0.194062,0.233287,0.886001,0.053435,-0.361924,-0.930675,-0.036040,-0.072448,-0.025487,-5.295175,-26.185799,-33.797482,,,,,,,
1558216552.194319,0.060381,0.373114,0.670429,0.217220,0.577505,0.670757,0.056192,-0.364517,-0.929500,-0.057077,-0.056549,-0.008138,-5.428711,-26.097614,-33.844471,,,,,,,
1558216552.214284,0.068881,0.378906,0.680498,0.238956,0.573855,0.400656,0.063945,-0.369904,-0.926867,-0.079478,-0.088668,0.015963,-5.357251,-26.201948,-33.775177,,,,,,,
1558216552.234264,0.074800,0.383017,0.686752,0.164742,0.275954,0.256815,0.069316,-0.373721,-0.924948,-0.066218,-0.065229,0.020468,-5.207449,-26.302809,-33.720161,,,,,,,
1558216552.254273,0.076729,0.386627,0.690138,0.174048,0.134074,0.128415,0.070995,-0.377066,-0.923461,-0.036861,-0.040109,0.057510,-5.189379,-26.345760,-33.689404,,,,,,,
1558216552.274256,0.078903,0.389637,0.692653,0.091145,0.179985,0.144802,0.072913,-0.379853,-0.922169,-0.013083,-0.044784,0.016377,-5.150331,-26.489445,-33.582558,,,,,,,
1558216552.294228,0.082052,0.388753,0.697327,-0.157754,0.291397,0.262043,0.075844,-0.379035,-0.922269,-0.021462,-0.045724,-0.000994,-5.100390,-26.471214,-33.604546,,,,,,,
1558216552.314213,0.086935,0.383412,0.703895,-0.376481,0.459550,0.259207,0.080522,-0.374087,-0.923891,-0.021928,-0.045484,-0.009565,-5.071112,-26.394388,-33.669342,,,,,,,
1558216552.334195,0.095377,0.375612,0.710282,-0.467719,0.549868,0.254660,0.088593,-0.366842,-0.926055,-0.002884,-0.039011,-0.057893,-4.814691,-25.991215,-34.018822,,,,,,,
1558216552.354168,0.103457,0.366805,0.717111,-0.448745,0.508595,0.288445,0.096403,-0.358635,-0.928487,-0.017561,-0.016655,-0.056804,-4.583526,-25.642084,-34.314423,,,,,,,
1558216552.374178,0.111945,0.360426,0.723862,-0.288768,0.594406,0.273380,0.104533,-0.352673,-0.929890,-0.005214,-0.027469,-0.031384,-4.482862,-25.480892,-34.447536,,,,,,,
1558216552.394164,0.124199,0.358398,0.730668,-0.094439,0.801707,0.334240,0.116009,-0.350774,-0.929247,-0.000286,-0.025874,-0.011397,-4.042278,-25.193743,-34.712246,,,,,,,
1558216552.414150,0.137190,0.358600,0.737677,-0.002063,0.717675,0.305750,0.128061,-0.350964,-0.927591,0.043326,-0.055347,0.005655,-3.658647,-25.129238,-34.801445,,,,,,,
1558216552.434134,0.145867,0.360730,0.742245,0.081817,0.296441,0.235590,0.135995,-0.352958,-0.925703,0.053290,-0.063607,-0.000536,-3.658647,-25.129238,-34.801445,,,,,,,
1558216552.454117,0.145009,0.363325,0.746879,0.081714,-0.051291,0.251479,0.135069,-0.355384,-0.924910,0.071642,-0.050469,0.009139,-3.328557,-25.172947,-34.802990,,,,,,,
1558216552.474103,0.142165,0.363709,0.753467,-0.093710,0.054404,0.338830,0.132418,-0.355743,-0.925155,0.016950,0.027465,-0.007477,-3.557522,-25.195227,-34.764194,,,,,,,
1558216552.494076,0.143828,0.360843,0.761811,-0.238752,0.317377,0.387140,0.134102,-0.353063,-0.925939,0.024070,0.027883,-0.019129,-3.557522,-25.195227,-34.764194,,,,,,,
1558216552.514058,0.148577,0.357752,0.771769,-0.200136,0.450499,0.482398,0.138658,-0.350169,-0.926367,0.082167,0.001079,0.000906,-3.562366,-24.866783,-34.999393,,,,,,,
1558216552.534057,0.153324,0.355865,0.785141,-0.201342,0.497307,0.679292,0.143155,-0.348401,-0.926349,0.077334,0.000516,0.012470,-3.515878,-24.696175,-35.124664,,,,,,,
1558216552.554019,0.159949,0.352162,0.801223,-0.392428,0.675955,0.723554,0.149494,-0.344928,-0.926648,0.067868,0.031436,0.023968,-3.489397,-24.537819,-35.238106,,,,,,,
1558216552.574026,0.169072,0.343715,0.817710,-0.616684,0.767988,0.691159,0.158425,-0.336987,-0.928085,0.028953,0.041135,-0.014726,-3.299785,-24.075876,-35.573418,,,,,,,
1558216552.594011,0.177621,0.332710,0.834716,-0.685092,0.686972,0.701005,0.166999,-0.326605,-0.930290,0.016259,0.044776,0.006493,-3.150404,-23.692604,-35.843273,,,,,,,
1558216552.613995,0.185289,0.323471,0.851676,-0.526712,0.623796,0.714406,0.174676,-0.317860,-0.931908,0.023536,0.060993,0.023461,-2.986631,-23.169706,-36.197365,,,,,,,
1558216552.633980,0.189734,0.318557,0.868339,-0.313513,0.404972,0.742377,0.179109,-0.313196,-0.932646,-0.026872,0.073099,0.004606,-2.887072,-22.693350,-36.505909,,,,,,,
1558216552.653963,0.191078,0.315947,0.885071,-0.279844,0.286415,0.745539,0.180517,-0.310717,-0.933204,-0.060979,0.067354,0.008994,-2.939446,-22.496410,-36.623436,,,,,,,
1558216552.673949,0.190826,0.312646,0.900108,-0.304510,0.182800,0.639898,0.180475,-0.307578,-0.934251,-0.062235,0.049719,0.012101,-3.063484,-22.244017,-36.767151,,,,,,,
1558216552.693933,0.188523,0.308828,0.914494,-0.320895,0.058166,0.645098,0.178542,-0.303942,-0.935811,-0.071700,0.039629,-0.006862,-3.277496,-21.907597,-36.950233,,,,,,,
1558216552.713896,0.185037,0.305317,0.929048,-0.291072,0.059052,0.635521,0.175474,-0.300595,-0.937471,-0.094846,0.063260,-0.018294,-3.527499,-21.634697,-37.087749,,,,,,,
1558216552.733902,0.182220,0.302006,0.941943,-0.255863,0.041818,0.543567,0.173012,-0.297436,-0.938935,-0.095757,0.035367,-0.018005,-3.639783,-21.504681,-37.152458,,,,,,,
1558216552.753887,0.179548,0.299877,0.952326,-0.152523,0.011495,0.420580,0.170615,-0.295403,-0.940015,-0.090094,0.006890,-0.038150,-3.934537,-21.178238,-37.309601,,,,,,,
1558216552.773846,0.176801,0.299284,0.960060,-0.069542,-0.046161,0.326142,0.168063,-0.294836,-0.940652,-0.066074,0.004125,-0.042594,-4.060036,-21.083965,-37.349525,,,,,,,
1558216552.793856,0.173546,0.299230,0.966426,-0.057882,-0.077987,0.289546,0.165003,-0.294784,-0.941210,-0.056803,0.001983,-0.039411,-4.232890,-21.008238,-37.373005,,,,,,,
1558216552.813841,0.170230,0.298611,0.972309,-0.094021,-0.076790,0.256431,0.161912,-0.294193,-0.941932,-0.049775,0.004871,-0.037591,-4.454358,-20.915325,-37.399364,,,,,,,
1558216552.833798,0.163758,0.296679,0.978358,-0.096057,-0.070518,0.209519,0.155905,-0.292346,-0.943519,-0.043310,0.000919,-0.036798,-4.574653,-20.842102,-37.425713,,,,,,,
1558216552.853810,0.161871,0.295787,0.981953,-0.061722,-0.022188,0.134206,0.154166,-0.291493,-0.944068,-0.043601,-0.000591,-0.036858,-4.841577,-20.721298,-37.459198,,,,,,,
1558216552.873779,0.161194,0.295389,0.984432,-0.018980,0.018783,0.115415,0.153545,-0.291112,-0.944287,-0.041119,0.017125,-0.029865,-4.919053,-20.656445,-37.484917,,,,,,,
1558216552.893778,0.157031,0.293606,0.988301,0.028927,0.031232,0.136932,0.149694,-0.289406,-0.945429,-0.017705,0.008446,-0.021780,-5.051124,-20.577152,-37.510952,,,,,,,
1558216552.913764,0.156878,0.295166,0.990933,0.070436,0.027838,0.133730,0.149479,-0.290898,-0.945005,-0.017490,0.009938,-0.022204,-5.127614,-20.556042,-37.512146,,,,,,,
1558216552.933748,0.153484,0.297313,0.993874,0.158929,0.051614,0.093463,0.146174,-0.292952,-0.944887,-0.026622,-0.001100,-0.015715,-5.218956,-20.561409,-37.496605,,,,,,,
1558216552.953732,0.151780,0.302803,0.995436,0.164669,0.141308,0.018527,0.144319,-0.298196,-0.943531,-0.015672,-0.013464,-0.000484,-5.388734,-20.749203,-37.368931,,,,,,,
1558216552.973718,0.154557,0.305307,0.994912,0.077418,0.135369,-0.017899,0.146823,-0.300586,-0.942386,-0.007647,-0.008664,-0.001935,-5.339483,-20.851667,-37.318932,,,,,,,
1558216552.993702,0.157562,0.307540,0.994767,0.093256,0.119510,0.034275,0.149549,-0.302715,-0.941275,0.008501,-0.008885,-0.017297,-9.415202,-19.663929,-35.621609,,,,,,,
1558216553.013686,0.159548,0.310296,0.995365,0.149593,0.103386,0.052316,0.151285,-0.305340,-0.940149,-0.002603,0.001721,-0.008780,-9.296549,-19.775200,-35.591164,,,,,,,
1558216553.033651,0.161453,0.313875,0.995829,0.188939,0.095794,0.061883,0.152899,-0.308747,-0.938774,-0.000708,0.006043,-0.007103,-9.255432,-19.853821,-35.558094,,,,,,,
1558216553.053633,0.163354,0.319017,0.996406,0.280627,0.136528,0.057008,0.154423,-0.313633,-0.936903,-0.000431,-0.001568,0.014647,-9.202633,-20.030342,-35.472698,,,,,,,
1558216553.073640,0.166888,0.324468,0.996098,0.240350,0.173685,0.023167,0.157446,-0.318804,-0.934652,0.010934,-0.018827,0.014715,-9.103086,-20.222565,-35.389221,,,,,,,
1558216553.093626,0.171674,0.328048,0.995562,0.092539,0.213553,0.009549,0.161722,-0.322196,-0.932757,0.011084,-0.005121,0.027606,-9.045221,-20.298988,-35.360294,,,,,,,
1558216553.113607,0.174591,0.328681,0.995446,0.043202,0.090107,-0.014093,0.164407,-0.322795,-0.932080,0.016105,-0.000172,-0.006534,-8.829245,-20.405352,-35.353661,,,,,,,
1558216553.133594,0.176295,0.331983,0.993872,0.253837,0.033984,-0.048626,0.165807,-0.325918,-0.930745,0.016993,-0.002512,-0.016658,-8.776503,-20.458998,-35.335785,,,,,,,
1558216553.153578,0.178296,0.337374,0.992014,0.284664,0.040228,-0.006905,0.167355,-0.331011,-0.928668,0.024753,-0.000395,-0.002622,-8.741565,-20.595184,-35.265263,,,,,,,
1558216553.173543,0.181160,0.343193,0.991299,0.328601,0.157416,0.052972,0.169664,-0.336496,-0.926275,0.036971,-0.005621,0.022115,-8.624162,-20.896923,-35.116344,,,,,,,
1558216553.193548,0.179850,0.347232,0.992870,0.081648,-0.129739,0.127964,0.168206,-0.340296,-0.925151,0.018562,-0.022329,0.031307,-8.609730,-21.033619,-35.038189,,,,,,,
1558216553.213503,0.176910,0.346370,0.993922,-0.113731,-0.056021,-0.034837,0.165537,-0.339485,-0.925930,-0.041727,-0.013359,0.004544,-8.715406,-21.062290,-34.994812,,,,,,,
1558216553.233516,0.178306,0.343760,0.992330,-0.147721,0.212472,-0.168922,0.166986,-0.337029,-0.926567,-0.009287,0.002724,-0.007057,-8.767029,-20.975067,-35.034286,,,,,,,
1558216553.253502,0.184643,0.341208,0.990170,-0.092433,0.246181,-0.052183,0.173011,-0.334626,-0.926333,0.007867,0.009217,0.028964,-8.535604,-20.913803,-35.127930,,,,,,,
1558216553.273470,0.186450,0.338189,0.991345,-0.218956,0.016574,0.053350,0.174872,-0.331780,-0.927007,0.007746,-0.005562,0.024663,-8.426725,-20.884882,-35.171402,,,,,,,
1558216553.293470,0.184874,0.333479,0.992788,-0.248718,-0.011946,-0.037696,0.173696,-0.327332,-0.928807,-0.013830,-0.011016,-0.013957,-8.420994,-20.648397,-35.312122,,,,,,,
1558216553.313425,0.186801,0.329139,0.991054,-0.154400,0.129020,-0.156915,0.175748,-0.323228,-0.929858,0.005191,0.001817,-0.019162,-8.386946,-20.511087,-35.400139,,,,,,,
1558216553.333440,0.190609,0.326762,0.988482,-0.072511,0.125482,-0.114177,0.179432,-0.320978,-0.929934,0.018841,0.009012,-0.016813,-8.303429,-20.475220,-35.440571,,,,,,,
1558216553.353425,0.193228,0.324807,0.987217,-0.068685,0.032570,-0.031789,0.181987,-0.319126,-0.930075,0.025731,-0.001110,-0.009241,-8.083100,-20.410698,-35.528610,,,,,,,
1558216553.373394,0.194162,0.323530,0.986673,-0.047258,0.064135,-0.053890,0.182934,-0.317915,-0.930304,0.015461,-0.000520,-0.006098,-8.060192,-20.379263,-35.551853,,,,,,,
1558216553.393393,0.197221,0.322159,0.985234,-0.060955,0.102245,-0.065282,0.185864,-0.316615,-0.930166,0.027484,0.001155,0.002447,-7.956409,-20.353775,-35.589813,,,,,,,
1558216553.413378,0.199252,0.320428,0.984815,-0.085555,0.088704,-0.017387,0.187861,-0.314973,-0.930323,0.025029,-0.000426,0.002619,-7.841504,-20.301819,-35.644943,,,,,,,
1558216553.433361,0.201325,0.318686,0.984791,-0.083607,0.041154,-0.001827,0.189899,-0.313319,-0.930467,0.016018,0.000255,0.001741,-7.760492,-20.259287,-35.686852,,,,,,,
1558216553.453346,0.201379,0.317480,0.984912,-0.038016,-0.016172,-0.006610,0.190024,-0.312173,-0.930827,0.014444,-0.006705,-0.006231,-7.737251,-20.215374,-35.716789,,,,,,,
1558216553.473332,0.201592,0.317735,0.984695,0.015123,-0.036513,0.006048,0.190207,-0.312416,-0.930708,0.010385,-0.006279,-0.004457,-7.722146,-20.189514,-35.734680,,,,,,,
1558216553.493297,0.201597,0.318835,0.984481,-0.001912,-0.039596,0.002801,0.190142,-0.313461,-0.930370,0.004499,-0.009186,-0.003865,-7.727771,-20.230064,-35.710522,,,,,,,
1558216553.513300,0.201780,0.318926,0.984521,0.000503,0.046005,0.000419,0.190307,-0.313547,-0.930307,0.000443,-0.007941,-0.007925,-7.735789,-20.236462,-35.705162,,,,,,,
1558216553.533278,0.203371,0.319595,0.984768,0.012344,0.095655,0.022257,0.191744,-0.314182,-0.929798,-0.002047,-0.009640,-0.003750,-7.715353,-20.246937,-35.703644,,,,,,,
1558216553.553269,0.204388,0.321512,0.985152,0.004803,0.058673,0.004815,0.192567,-0.316002,-0.929011,-0.004075,-0.020775,0.008677,-7.652456,-20.294928,-35.689934,,,,,,,
1558216553.573254,0.204956,0.321476,0.984727,-0.046400,-0.000334,-0.051308,0.193098,-0.315968,-0.928912,-0.003385,-0.017788,0.010531,-7.631262,-20.314487,-35.683342,,,,,,,
1558216553.593221,0.204929,0.320678,0.983470,-0.065582,-0.019298,-0.077128,0.193124,-0.315210,-0.929164,-0.001839,-0.007849,0.003963,-7.622255,-20.332375,-35.675076,,,,,,,
1558216553.613222,0.204836,0.319776,0.982557,-0.047453,-0.000336,-0.055579,0.193095,-0.314354,-0.929460,-0.002498,-0.011421,-0.015074,-7.603734,-20.298557,-35.698280,,,,,,,
1558216553.633179,0.206312,0.319850,0.981406,0.033734,0.088031,-0.052533,0.194462,-0.314424,-0.929151,-0.000279,-0.009993,-0.016924,-7.595095,-20.295053,-35.702110,,,,,,,
1558216553.653188,0.208868,0.320562,0.980162,0.009211,0.077597,-0.048383,0.196789,-0.315100,-0.928432,0.010944,-0.006631,0.006313,-7.476352,-20.344769,-35.698879,,,,,,,
1558216553.673176,0.210594,0.319649,0.978915,-0.064352,0.032499,-0.071294,0.198452,-0.314233,-0.928372,0.010166,-0.004431,0.003949,-7.411177,-20.353645,-35.707405,,,,,,,
1558216553.693148,0.211531,0.318143,0.977603,-0.050613,0.003893,-0.068355,0.199421,-0.312803,-0.928647,0.016780,0.003446,-0.009219,-7.336946,-20.325623,-35.738686,,,,,,,
1558216553.713124,0.212916,0.316882,0.976391,-0.017599,0.021732,-0.040400,0.200790,-0.311605,-0.928755,0.014130,0.001074,-0.009874,-7.277288,-20.290897,-35.770599,,,,,,,
1558216553.733131,0.214269,0.316350,0.975602,-0.014345,0.043925,-0.032713,0.202082,-0.311099,-0.928644,0.015935,0.001010,-0.006445,-7.236829,-20.283661,-35.782909,,,,,,,
1558216553.753114,0.216007,0.315821,0.974976,-0.026051,0.051408,-0.018772,0.203730,-0.310597,-0.928452,0.023061,-0.001354,-0.001876,-7.153016,-20.277126,-35.803463,,,,,,,
1558216553.773100,0.217505,0.314473,0.974897,-0.057041,0.026239,0.004449,0.205212,-0.309316,-0.928554,0.009724,0.005101,-0.013921,-7.082378,-20.244593,-35.835899,,,,,,,
1558216553.793085,0.218150,0.314309,0.975038,0.034539,0.037386,0.005697,0.205821,-0.309159,-0.928471,0.004491,0.000230,-0.016704,-7.061149,-20.215691,-35.856400,,,,,,,
1558216553.813063,0.218864,0.315745,0.974678,0.071766,0.021313,-0.009375,0.206388,-0.310524,-0.927889,0.002002,-0.006157,-0.005826,-7.041537,-20.228657,-35.852943,,,,,,,
1558216553.833033,0.219854,0.316891,0.973785,0.004729,0.014222,-0.040458,0.207228,-0.311614,-0.927337,0.004793,-0.003358,0.012313,-7.001695,-20.314194,-35.812359,,,,,,,
1558216553.853038,0.221137,0.316006,0.972912,-0.069712,0.038934,-0.034944,0.208478,-0.310772,-0.927339,0.006472,0.001049,0.012742,-6.951137,-20.313900,-35.822372,,,,,,,
1558216553.873010,0.221941,0.314050,0.973119,-0.097425,0.043359,-0.000759,0.209358,-0.308913,-0.927762,0.002053,-0.003556,-0.001483,-6.921310,-20.290504,-35.841404,,,,,,,
1558216553.893007,0.222885,0.313077,0.973338,-0.015404,0.058776,-0.004817,0.210300,-0.307988,-0.927856,-0.004062,-0.000301,-0.008850,-6.864957,-20.206371,-35.899723,,,,,,,
1558216553.912975,0.224250,0.313013,0.973193,-0.013298,0.054547,0.001550,0.211570,-0.307927,-0.927588,0.004006,-0.002407,-0.001169,-6.859134,-20.201420,-35.903622,,,,,,,
1558216553.932955,0.225360,0.312089,0.973513,-0.057965,0.067465,0.001638,0.212663,-0.307047,-0.927629,-0.002275,0.001597,-0.000029,-6.789484,-20.187149,-35.924885,,,,,,,
1558216553.952948,0.226206,0.310864,0.973717,-0.052772,0.025147,-0.005169,0.213532,-0.305881,-0.927815,-0.000397,0.001529,0.001363,-6.737967,-20.132238,-35.965370,,,,,,,
1558216553.972942,0.225929,0.309858,0.973754,-0.058225,-0.021355,-0.019498,0.213343,-0.304924,-0.928174,-0.003871,-0.004402,-0.005573,-6.732772,-20.121941,-35.972107,,,,,,,
1558216553.992930,0.225396,0.308659,0.973467,-0.055016,-0.021388,-0.030172,0.212931,-0.303781,-0.928643,-0.002650,-0.000983,-0.005653,-6.744538,-20.069988,-35.998920,,,,,,,
1558216554.012915,0.225524,0.307127,0.973341,-0.101686,0.035957,-0.015781,0.213153,-0.302321,-0.929068,-0.000995,-0.002641,-0.000772,-6.744641,-20.018200,-36.027721,,,,,,,
1558216554.032899,0.226997,0.303623,0.974314,-0.211075,0.124299,0.008466,0.214759,-0.298979,-0.929780,-0.004874,-0.001802,-0.004074,-6.712238,-19.945513,-36.074059,,,,,,,
1558216554.052884,0.229395,0.299632,0.975238,-0.196119,0.131591,-0.010670,0.217257,-0.295169,-0.930417,0.000547,-0.004346,-0.005924,-6.629786,-19.793976,-36.172642,,,,,,,
1558216554.072869,0.230835,0.296154,0.975857,-0.164538,0.025729,-0.007388,0.218830,-0.291844,-0.931097,0.003109,-0.003307,-0.004740,-6.522748,-19.625216,-36.283882,,,,,,,
1558216554.092853,0.229222,0.293428,0.976067,-0.055213,-0.081644,-0.032884,0.217508,-0.289236,-0.932219,-0.004693,0.006002,-0.018647,-6.545705,-19.518307,-36.337376,,,,,,,
1558216554.112838,0.228095,0.293203,0.975176,0.033270,-0.047247,-0.045295,0.216472,-0.289020,-0.932527,-0.000545,0.003803,-0.019789,-6.545705,-19.518307,-36.337376,,,,,,,
1558216554.132821,0.228401,0.293643,0.974113,0.031383,0.028875,-0.040298,0.216729,-0.289442,-0.932337,0.002296,-0.004198,-0.009497,-6.601182,-19.509537,-36.332047,,,,,,,
1558216554.152807,0.229172,0.293847,0.973532,-0.002773,0.011120,-0.017007,0.217434,-0.289637,-0.932112,0.001056,-0.004522,-0.013841,-6.549968,-19.550724,-36.319172,,,,,,,
1558216554.172762,0.229269,0.294374,0.972789,0.075980,-0.005184,-0.040588,0.217489,-0.290141,-0.931942,-0.000189,0.000010,-0.019077,-6.549968,-19.550724,-36.319172,,,,,,,
1558216554.192756,0.229430,0.296634,0.971505,0.131227,-0.027640,-0.019406,0.217490,-0.292303,-0.931266,0.008675,-0.006846,-0.007744,-6.537030,-19.645681,-36.270233,,,,,,,
1558216554.212747,0.229043,0.298520,0.971083,0.052413,-0.026121,0.012574,0.217004,-0.294106,-0.930812,0.007376,-0.007347,-0.001042,-6.546506,-19.714832,-36.230980,,,,,,,
1558216554.232729,0.229071,0.298671,0.971316,-0.036855,0.016622,0.007574,0.217020,-0.294251,-0.930762,0.001592,-0.007248,0.007758,-6.557630,-19.754942,-36.207115,,,,,,,
1558216554.252706,0.229964,0.297046,0.971638,-0.113252,0.065651,-0.014408,0.217960,-0.292697,-0.931033,-0.001636,0.000643,0.001513,-6.529394,-19.704830,-36.239506,,,,,,,
1558216554.272715,0.231555,0.294733,0.971611,-0.099366,0.074014,-0.028197,0.219595,-0.290484,-0.931341,0.001184,-0.000974,-0.003137,-6.485588,-19.644825,-36.279930,,,,,,,
1558216554.292697,0.232280,0.293584,0.971590,-0.018729,0.003860,-0.006383,0.220348,-0.289385,-0.931506,-0.000331,0.000902,-0.008848,-6.424810,-19.580427,-36.325527,,,,,,,
1558216554.312683,0.231973,0.294445,0.971014,0.070645,-0.022021,-0.034318,0.220004,-0.290209,-0.931331,-0.006686,-0.001387,0.002101,-6.423349,-19.590977,-36.320099,,,,,,,
1558216554.332668,0.231841,0.295228,0.969805,0.024893,-0.022862,-0.050377,0.219829,-0.290958,-0.931139,-0.000255,0.002597,0.007326,-6.430559,-19.633385,-36.295914,,,,,,,
1558216554.352652,0.232090,0.294283,0.969207,-0.067655,0.008319,-0.023462,0.220124,-0.290054,-0.931351,0.008041,0.003830,0.002548,-6.417038,-19.645613,-36.291691,,,,,,,
1558216554.372637,0.232848,0.292484,0.969112,-0.032371,0.057816,-0.020825,0.220949,-0.288332,-0.931690,0.001829,0.006136,-0.019467,-6.385727,-19.580147,-36.332569,,,,,,,
1558216554.392622,0.233964,0.292296,0.968853,0.023982,0.044856,-0.007025,0.222002,-0.288152,-0.931495,0.000517,0.007161,-0.017495,-6.348620,-19.565022,-36.347221,,,,,,,
1558216554.412605,0.234678,0.292772,0.968542,0.026012,0.014190,-0.008385,0.222636,-0.288607,-0.931203,0.003225,0.004366,-0.003581,-6.313165,-19.572695,-36.349266,,,,,,,
1558216554.432592,0.234761,0.292755,0.968161,-0.007063,-0.014193,-0.020427,0.222713,-0.288591,-0.931189,0.001637,-0.002165,-0.004068,-6.298349,-19.588924,-36.343090,,,,,,,
1558216554.452547,0.235123,0.293039,0.967682,0.024976,0.019470,-0.015809,0.223032,-0.288863,-0.931029,0.004217,-0.007050,-0.007219,-6.294186,-19.592373,-36.341953,,,,,,,
1558216554.472560,0.235855,0.293443,0.967362,0.001614,0.036505,-0.015665,0.223686,-0.289250,-0.930752,-0.000297,-0.009395,-0.006473,-6.271553,-19.620201,-36.330853,,,,,,,
1558216554.492544,0.236677,0.293456,0.966845,-0.004701,0.048131,-0.037978,0.224450,-0.289262,-0.930564,-0.004204,-0.007445,-0.006203,-6.253276,-19.627373,-36.330128,,,,,,,
1558216554.512523,0.237470,0.293447,0.966173,-0.000584,0.011134,-0.024450,0.225188,-0.289254,-0.930388,0.007585,-0.003059,-0.006883,-6.192191,-19.639416,-36.334080,,,,,,,
1558216554.532504,0.237488,0.293371,0.965887,-0.001740,-0.008918,-0.007561,0.225211,-0.289181,-0.930406,0.005792,-0.002002,-0.004745,-6.186164,-19.640545,-36.334499,,,,,,,
1558216554.552471,0.237475,0.293051,0.965817,-0.016583,0.008067,-0.010613,0.225220,-0.288874,-0.930499,-0.004929,0.000453,-0.015485,-6.178480,-19.638481,-36.336922,,,,,,,
1558216554.572462,0.237686,0.293367,0.965076,0.078261,0.022307,-0.049903,0.225395,-0.289177,-0.930362,-0.001594,-0.000099,-0.015683,-6.183002,-19.631611,-36.339863,,,,,,,
1558216554.592460,0.238594,0.295175,0.963542,0.083545,0.015954,-0.038216,0.226115,-0.290907,-0.929648,0.004064,-0.003755,-0.003427,-6.151573,-19.696302,-36.310181,,,,,,,
1558216554.612447,0.239150,0.295818,0.963060,-0.000527,0.033343,-0.014629,0.226588,-0.291523,-0.929340,-0.001369,-0.006558,-0.002835,-6.118935,-19.759399,-36.281403,,,,,,,
1558216554.632436,0.240318,0.295340,0.962694,-0.039763,0.069458,-0.034599,0.227706,-0.291065,-0.929210,-0.002960,-0.004604,-0.004476,-6.113577,-19.763618,-36.280006,,,,,,,
1558216554.652420,0.241543,0.294302,0.962081,-0.036697,0.029270,-0.038185,0.228916,-0.290072,-0.929223,0.003750,0.000506,-0.006217,-6.035277,-19.739132,-36.306438,,,,,,,
1558216554.672406,0.241896,0.293748,0.961505,-0.009224,-0.024757,-0.021598,0.229283,-0.289541,-0.929298,0.007884,0.001181,0.000663,-5.996340,-19.716663,-36.325092,,,,,,,
1558216554.692390,0.241840,0.293402,0.961159,-0.025114,0.000703,-0.017097,0.229255,-0.289210,-0.929408,-0.001747,-0.000447,-0.000829,-5.990016,-19.712408,-36.328445,,,,,,,
1558216554.712373,0.242727,0.292571,0.961079,-0.042998,0.067395,-0.012202,0.230137,-0.288414,-0.929437,-0.003178,-0.003028,-0.006064,-5.990016,-19.712408,-36.328445,,,,,,,
1558216554.732331,0.243613,0.292473,0.960969,-0.001564,0.040745,-0.015626,0.230967,-0.288321,-0.929261,-0.004710,-0.009409,-0.010162,-5.922419,-19.675608,-36.359463,,,,,,,
1558216554.752344,0.243331,0.293247,0.960746,0.051357,-0.043010,0.002832,0.230652,-0.289062,-0.929109,-0.003860,-0.009872,-0.011993,-5.917304,-19.695644,-36.349449,,,,,,,
1558216554.772311,0.241826,0.294792,0.960491,0.075758,-0.071690,-0.004896,0.229146,-0.290541,-0.929020,-0.016347,-0.011919,-0.011333,-5.965919,-19.737415,-36.318832,,,,,,,
1558216554.792287,0.240681,0.296254,0.960012,0.016394,-0.007996,-0.028888,0.227980,-0.291940,-0.928868,-0.013961,-0.022406,-0.003581,-6.024836,-19.805679,-36.271915,,,,,,,
1558216554.812298,0.240832,0.295738,0.959789,-0.080307,0.043251,-0.026339,0.228156,-0.291446,-0.928980,-0.020469,-0.028317,-0.006124,-6.026320,-19.813797,-36.267231,,,,,,,
1558216554.832278,0.241240,0.294595,0.959951,-0.079217,0.051704,-0.023053,0.228614,-0.290352,-0.929210,-0.033973,-0.035316,-0.013844,-6.030451,-19.794392,-36.277142,,,,,,,
1558216554.852254,0.240175,0.294819,0.960027,-0.035607,0.027114,-0.051008,0.227610,-0.290567,-0.929389,-0.050944,-0.044516,-0.022866,-6.011250,-19.756716,-36.300858,,,,,,,
1558216554.872251,0.240500,0.294412,0.958247,0.024977,-0.029319,-0.113423,0.227940,-0.290177,-0.929430,-0.052388,-0.049590,-0.026350,-6.032444,-19.770464,-36.289856,,,,,,,
1558216554.892236,0.240496,0.294730,0.955012,0.057949,-0.058099,-0.158514,0.227914,-0.290482,-0.929341,-0.053933,-0.050110,-0.034083,-6.007648,-19.808138,-36.273422,,,,,,,
1558216554.912220,0.239055,0.295933,0.951623,0.051607,-0.057052,-0.184130,0.226492,-0.291632,-0.929329,-0.049993,-0.055230,-0.039696,-5.978327,-19.882362,-36.237640,,,,,,,
1558216554.932183,0.238933,0.296515,0.947784,0.094101,-0.072037,-0.159683,0.226338,-0.292189,-0.929191,-0.044804,-0.062990,-0.038658,-6.011938,-19.957909,-36.190521,,,,,,,
1558216554.952190,0.238036,0.298366,0.943971,0.150346,-0.124126,-0.159069,0.225377,-0.293959,-0.928867,-0.046498,-0.075334,-0.030667,-6.004548,-20.051260,-36.140114,,,,,,,
1558216554.972175,0.234374,0.302373,0.939960,0.166138,-0.198268,-0.200334,0.221698,-0.297787,-0.928533,-0.060199,-0.080143,-0.025203,-6.046502,-20.213737,-36.042477,,,,,,,
1558216554.992138,0.231509,0.304885,0.934444,0.194828,-0.231243,-0.239062,0.218865,-0.300184,-0.928433,-0.056771,-0.079287,-0.016849,-6.167934,-20.379450,-35.928398,,,,,,,
1558216555.012142,0.229121,0.307189,0.928194,0.157726,-0.202569,-0.279387,0.216489,-0.302381,-0.928277,-0.061170,-0.072558,0.005090,-6.229779,-20.547400,-35.821918,,,,,,,
1558216555.032128,0.226072,0.309228,0.921667,0.056762,-0.187351,-0.349784,0.213520,-0.304323,-0.928330,-0.052463,-0.058790,0.012375,-6.251577,-20.656815,-35.755127,,,,,,,
1558216555.052105,0.225108,0.308515,0.913492,0.057989,-0.162069,-0.402924,0.212673,-0.303644,-0.928747,-0.021816,-0.031104,-0.006617,-6.285620,-20.843689,-35.640522,,,,,,,
1558216555.072097,0.223925,0.308573,0.905239,0.078051,-0.199128,-0.374435,0.211570,-0.303699,-0.928981,-0.004280,-0.021634,-0.006978,-6.247268,-20.913681,-35.606247,,,,,,,
1558216555.092082,0.221186,0.309198,0.897762,0.125606,-0.278569,-0.317505,0.208983,-0.304294,-0.929371,0.014406,-0.012203,0.009312,-6.262554,-21.066805,-35.513172,,,,,,,
1558216555.112041,0.217831,0.310504,0.891218,0.126726,-0.248937,-0.289462,0.205778,-0.305539,-0.929678,-0.004164,-0.001849,0.025152,-6.315430,-21.164892,-35.445419,,,,,,,
1558216555.132051,0.215299,0.312032,0.884536,0.066140,-0.237038,-0.320358,0.203323,-0.306993,-0.929739,-0.007049,-0.022169,0.023321,-6.366510,-21.320330,-35.342983,,,,,,,
1558216555.152035,0.213018,0.310977,0.876966,0.004589,-0.206149,-0.378832,0.201270,-0.305989,-0.930517,-0.006217,-0.018184,0.016088,-6.388694,-21.386143,-35.299191,,,,,,,
1558216555.172020,0.212092,0.309221,0.869723,-0.062288,-0.133868,-0.342961,0.200521,-0.304317,-0.931226,0.000773,-0.022114,0.011518,-6.360172,-21.467701,-35.254807,,,,,,,
1558216555.192004,0.211455,0.307134,0.863658,-0.026200,-0.140317,-0.287476,0.200061,-0.302328,-0.931973,0.000027,-0.026880,0.016201,-6.320096,-21.469193,-35.261105,,,,,,,
1558216555.211990,0.208863,0.306949,0.857553,-0.034000,-0.263999,-0.321762,0.197656,-0.302152,-0.932543,-0.003412,-0.052706,0.010210,-6.302657,-21.482609,-35.256054,,,,,,,
1558216555.231974,0.203152,0.307582,0.850608,-0.031961,-0.332848,-0.405691,0.192288,-0.302755,-0.933469,-0.011853,-0.044978,-0.016497,-6.442305,-21.626204,-35.142841,,,,,,,
1558216555.251959,0.198895,0.307253,0.842239,0.062698,-0.347051,-0.381195,0.188333,-0.302441,-0.934377,0.001990,-0.047458,-0.012797,-6.500981,-21.685862,-35.095238,,,,,,,
1558216555.271941,0.194003,0.307975,0.834376,0.115834,-0.367393,-0.367468,0.183718,-0.303129,-0.935072,-0.006716,-0.031832,0.003004,-6.563972,-21.782902,-35.023346,,,,,,,
1558216555.291927,0.188266,0.309596,0.825923,0.014964,-0.351116,-0.464515,0.178258,-0.304674,-0.935627,-0.009556,-0.024839,-0.015270,-6.739646,-22.009464,-34.847893,,,,,,,
1558216555.311892,0.184971,0.306725,0.815250,-0.083860,-0.330618,-0.534863,0.175334,-0.301939,-0.937065,0.013615,-0.034335,-0.026390,-6.765049,-22.051838,-34.816170,,,,,,,
1558216555.331868,0.180299,0.304686,0.805561,0.037020,-0.427288,-0.432130,0.171065,-0.299994,-0.938478,0.029863,-0.033990,-0.019393,-6.784959,-22.109154,-34.775921,,,,,,,
1558216555.351881,0.173406,0.306829,0.797399,0.188819,-0.507201,-0.324941,0.164481,-0.302037,-0.938999,0.033502,-0.038768,-0.002681,-6.889811,-22.195820,-34.700020,,,,,,,
1558216555.371859,0.166662,0.309150,0.790595,0.069871,-0.414583,-0.302797,0.158027,-0.304249,-0.939394,-0.003257,-0.020321,0.005464,-7.026235,-22.343933,-34.577393,,,,,,,
1558216555.391816,0.161642,0.307945,0.783607,-0.091523,-0.323997,-0.374659,0.153368,-0.303101,-0.940536,-0.013751,-0.017960,0.012680,-7.224253,-22.507782,-34.430008,,,,,,,
1558216555.411836,0.156564,0.304737,0.775294,-0.074709,-0.426735,-0.454634,0.148741,-0.300042,-0.942258,-0.018278,-0.000693,0.008894,-7.237856,-22.505573,-34.428589,,,,,,,
1558216555.431818,0.149016,0.303218,0.764998,0.033408,-0.593341,-0.512728,0.141692,-0.298593,-0.943804,0.004884,-0.022452,0.004381,-7.338458,-22.510544,-34.404037,,,,,,,
1558216555.451795,0.139600,0.302374,0.754433,-0.000745,-0.607919,-0.485136,0.132834,-0.297787,-0.945345,0.004327,-0.009372,-0.005155,-7.606048,-22.652611,-34.252338,,,,,,,
1558216555.471789,0.132839,0.299564,0.745634,-0.132113,-0.380910,-0.406198,0.126550,-0.295103,-0.947048,0.006919,0.005675,0.008663,-3.875246,-22.136265,-40.058304,,,,,,,
1558216555.491763,0.129067,0.294973,0.737738,-0.179750,-0.303508,-0.412969,0.123150,-0.290714,-0.948852,0.004902,0.004535,0.013930,-3.929744,-22.094151,-40.076241,,,,,,,
1558216555.511729,0.123912,0.290717,0.728824,-0.140737,-0.451810,-0.490160,0.118409,-0.286639,-0.950693,-0.024812,0.047686,0.003519,-4.047692,-21.934887,-40.151917,,,,,,,
1558216555.531744,0.116775,0.286933,0.716292,-0.085469,-0.573972,-0.701612,0.111746,-0.283012,-0.952584,-0.006827,0.057854,-0.039344,-4.203277,-21.888027,-40.161499,,,,,,,
1558216555.551728,0.109559,0.284604,0.700810,-0.001279,-0.563906,-0.743087,0.104942,-0.280777,-0.954019,0.026787,0.061676,-0.040031,-4.279961,-21.877748,-40.159000,,,,,,,
1558216555.571712,0.103179,0.283668,0.688293,0.022108,-0.457951,-0.490089,0.098880,-0.279878,-0.954930,0.088239,0.068514,-0.007671,-4.473811,-21.966383,-40.089432,,,,,,,
1558216555.591674,0.098290,0.281906,0.681821,-0.033538,-0.400098,-0.170357,0.094258,-0.278187,-0.955891,0.071254,0.033619,0.006580,-4.524530,-21.964283,-40.084888,,,,,,,
1558216555.611681,0.092040,0.279330,0.680983,-0.177994,-0.244821,-0.039802,0.088348,-0.275712,-0.957172,-0.033675,0.037217,-0.006222,-4.706811,-21.954268,-40.069386,,,,,,,
1558216555.631665,0.090227,0.275318,0.677525,-0.165375,-0.090964,-0.308434,0.086712,-0.271853,-0.958424,-0.064647,0.028598,-0.006328,-4.922937,-21.766415,-40.145824,,,,,,,
1558216555.651649,0.089784,0.271994,0.667074,-0.081368,-0.259935,-0.620669,0.086367,-0.268652,-0.959357,-0.025897,0.008246,-0.014306,-4.854738,-21.705017,-40.187351,,,,,,,
1558216555.671635,0.083390,0.271559,0.653717,0.097281,-0.637163,-0.615596,0.080241,-0.268234,-0.960006,0.031866,-0.000504,-0.010346,-4.814709,-21.702372,-40.193596,,,,,,,
1558216555.691620,0.072854,0.272743,0.643236,0.070473,-0.609255,-0.424241,0.070099,-0.269374,-0.960481,0.036987,0.019435,0.007509,-5.011947,-21.821186,-40.105057,,,,,,,
1558216555.711604,0.067087,0.271416,0.637144,-0.131892,-0.226305,-0.218953,0.064583,-0.268096,-0.961225,0.008247,0.045546,0.028394,-5.398222,-21.929573,-39.995655,,,,,,,
1558216555.731588,0.065347,0.265394,0.633873,-0.359384,-0.121486,-0.194643,0.063014,-0.262290,-0.962930,-0.036189,0.043097,0.012261,-5.439179,-21.823273,-40.048214,,,,,,,
1558216555.751573,0.062841,0.257867,0.626848,-0.315892,-0.299723,-0.483512,0.060723,-0.255019,-0.965028,-0.065682,0.032652,-0.049178,-5.449574,-21.628092,-40.152550,,,,,,,
1558216555.771528,0.056628,0.254192,0.614315,-0.034328,-0.544595,-0.671401,0.054779,-0.251463,-0.966315,-0.006744,0.054274,-0.025262,-5.539894,-21.389015,-40.268089,,,,,,,
1558216555.791542,0.048768,0.254594,0.600220,0.065667,-0.563084,-0.667227,0.047177,-0.251853,-0.966615,0.018741,0.058188,-0.017272,-5.660878,-21.456438,-40.215359,,,,,,,
1558216555.811526,0.043170,0.253122,0.587864,-0.067043,-0.394118,-0.532262,0.041782,-0.250427,-0.967233,0.042279,0.057129,-0.006277,-5.781915,-21.551081,-40.147476,,,,,,,
1558216555.831493,0.039700,0.249088,0.579799,-0.260424,-0.194084,-0.330852,0.038464,-0.246520,-0.968374,0.022479,0.075866,-0.007273,-5.879982,-21.495770,-40.162884,,,,,,,
1558216555.851494,0.038546,0.239060,0.574687,-0.332640,-0.097380,-0.240305,0.037440,-0.236789,-0.970839,-0.001872,0.073367,-0.007417,-5.875527,-21.340439,-40.246284,,,,,,,
1558216555.871451,0.035915,0.234060,0.568464,-0.164908,-0.297179,-0.374472,0.034928,-0.231929,-0.972106,-0.044267,0.076793,-0.037401,-5.879370,-20.954941,-40.447781,,,,,,,
1558216555.891460,0.028920,0.230912,0.557970,0.013652,-0.483441,-0.605656,0.028148,-0.228865,-0.973051,-0.035381,0.071959,-0.043459,-5.957136,-20.924931,-40.451939,,,,,,,
1558216555.911440,0.020710,0.231356,0.544864,0.037733,-0.610425,-0.616461,0.020156,-0.229297,-0.973148,-0.006591,0.073886,-0.030423,-6.144935,-20.934799,-40.418724,,,,,,,
1558216555.931417,0.010155,0.231412,0.533993,-0.015794,-0.648019,-0.497288,0.009884,-0.229352,-0.973293,0.023395,0.083997,0.006603,-6.477592,-21.053209,-40.305119,,,,,,,
1558216555.951420,0.001838,0.228582,0.524324,-0.210006,-0.448213,-0.452825,0.001790,-0.226597,-0.973987,0.031291,0.080799,0.013645,-6.691113,-21.071699,-40.260551,,,,,,,
1558216555.971387,-0.002591,0.221031,0.515746,-0.459618,-0.250188,-0.379598,-0.002528,-0.219236,-0.975669,0.031902,0.087736,-0.004968,-6.835601,-20.918556,-40.316101,,,,,,,
1558216555.991376,-0.006213,0.211266,0.509996,-0.458877,-0.274262,-0.217545,-0.006074,-0.209698,-0.977747,0.022371,0.074520,-0.038335,-6.910578,-20.497387,-40.519135,,,,,,,
1558216556.011373,-0.012078,0.202635,0.506753,-0.187835,-0.360137,-0.145553,-0.011830,-0.201251,-0.979468,0.006093,0.078784,-0.039300,-7.036218,-20.277885,-40.607861,,,,,,,
1558216556.031358,-0.018988,0.201285,0.502880,-0.012219,-0.400277,-0.217329,-0.018603,-0.199929,-0.979634,-0.003568,0.077935,-0.030742,-7.264925,-20.049236,-40.681057,,,,,,,
1558216556.051343,-0.027103,0.201878,0.498161,0.026876,-0.492455,-0.225653,-0.026549,-0.200509,-0.979332,0.010421,0.047509,-0.008705,-8.887358,-21.734890,-39.463207,,,,,,,
1558216556.071327,-0.035559,0.199563,0.493944,-0.027339,-0.454070,-0.196506,-0.034846,-0.198241,-0.979534,0.011851,0.060469,-0.000004,-9.109583,-21.774876,-39.390423,,,,,,,
1558216556.091311,-0.041568,0.197670,0.489934,-0.153375,-0.261036,-0.199029,-0.040747,-0.196385,-0.979680,0.003088,0.082311,0.005345,-9.351912,-21.681740,-39.385014,,,,,,,
1558216556.111295,-0.044841,0.190318,0.484958,-0.180750,-0.192273,-0.259252,-0.044016,-0.189171,-0.980957,-0.004674,0.079430,-0.027725,-9.469582,-21.568121,-39.419266,,,,,,,
1558216556.131279,-0.048460,0.187490,0.478970,-0.138310,-0.253866,-0.301446,-0.047593,-0.186394,-0.981322,-0.017746,0.078941,-0.049120,-9.519930,-21.352808,-39.524220,,,,,,,
1558216556.151245,-0.051686,0.186377,0.472157,-0.012465,-0.209164,-0.360706,-0.050768,-0.185300,-0.981370,-0.041639,0.063123,-0.071761,-9.582121,-21.311077,-39.531708,,,,,,,
1558216556.171239,-0.055927,0.187236,0.464875,0.210856,-0.275882,-0.366505,-0.054921,-0.186144,-0.980986,-0.012752,0.051729,-0.045671,-9.644354,-21.358536,-39.490944,,,,,,,
1558216556.191204,-0.060200,0.191939,0.457736,0.170481,-0.247111,-0.353450,-0.059059,-0.190763,-0.979858,-0.011116,0.052655,-0.029007,-9.659596,-21.417791,-39.455109,,,,,,,
1558216556.211219,-0.061399,0.189892,0.451563,-0.079887,0.042859,-0.292156,-0.060257,-0.188753,-0.980174,-0.026138,0.062502,-0.040959,-9.754671,-21.612045,-39.325577,,,,,,,
1558216556.231204,-0.056703,0.187949,0.445822,-0.099587,0.213175,-0.269189,-0.055675,-0.186844,-0.980811,-0.000737,0.059067,-0.040857,-9.498660,-21.589943,-39.400318,,,,,,,
1558216556.251171,-0.052974,0.185304,0.440795,0.040148,0.005356,-0.213416,-0.052043,-0.184245,-0.981502,0.018458,0.056773,-0.019979,-9.427655,-21.583061,-39.421135,,,,,,,
1558216556.271173,-0.054994,0.187267,0.437776,0.097907,-0.187171,-0.110583,-0.054006,-0.186175,-0.981031,0.022359,0.043841,-0.007586,-9.209387,-21.561520,-39.484470,,,,,,,
1558216556.291158,-0.058317,0.186698,0.436699,0.033965,-0.183494,-0.024092,-0.057271,-0.185616,-0.980952,0.002599,0.032692,-0.019643,-9.333065,-21.589134,-39.440311,,,,,,,
1558216556.311141,-0.060789,0.187748,0.436540,0.076811,-0.099147,-0.016845,-0.059684,-0.186647,-0.980612,-0.006234,0.035539,-0.026285,-9.422001,-21.612034,-39.406612,,,,,,,
1558216556.331126,-0.062904,0.188482,0.435549,0.135379,-0.122814,-0.087490,-0.061749,-0.187368,-0.980347,-0.001422,0.033803,-0.015136,-9.500317,-21.616901,-39.385136,,,,,,,
1558216556.351112,-0.066071,0.191351,0.433332,0.135151,-0.209545,-0.125688,-0.064818,-0.190186,-0.979606,0.016509,0.030518,-0.013299,-9.591214,-21.773098,-39.276917,,,,,,,
1558216556.371096,-0.068100,0.191559,0.431628,0.152270,-0.143973,-0.046043,-0.066803,-0.190390,-0.979433,0.015762,0.035208,-0.002653,-9.647101,-21.817287,-39.238689,,,,,,,
1558216556.391006,-0.068738,0.194560,0.432044,0.138856,0.026411,0.044191,-0.067388,-0.193335,-0.978816,0.026586,0.021659,0.027049,-9.697954,-21.888702,-39.186344,,,,,,,
1558216556.410989,-0.066994,0.196567,0.433335,0.082340,0.010908,0.077094,-0.065655,-0.195304,-0.978543,0.035794,0.007132,0.037381,-9.704802,-21.996418,-39.124283,,,,,,,
1558216556.430975,-0.067019,0.197525,0.434697,0.027070,0.022781,0.047269,-0.065667,-0.196243,-0.978354,0.007561,0.011642,0.029517,-10.211491,-21.178022,-39.732533,,,,,,,
1558216556.450943,-0.065767,0.197145,0.434826,-0.039682,0.087513,-0.017291,-0.064447,-0.195871,-0.978510,-0.000296,-0.000662,0.017862,-10.202362,-21.183544,-39.731934,,,,,,,
1558216556.470924,-0.063003,0.196591,0.433457,-0.074693,0.097129,-0.072745,-0.061748,-0.195327,-0.978792,0.033459,-0.021226,0.003267,-10.068377,-21.169918,-39.773354,,,,,,,
1558216556.490915,-0.062000,0.195046,0.432451,-0.062292,0.006234,-0.023425,-0.060785,-0.193811,-0.979154,0.026163,-0.012396,-0.007739,-10.003247,-21.129822,-39.811096,,,,,,,
1558216556.510898,-0.061951,0.195268,0.432013,0.047354,0.007772,-0.023323,-0.060735,-0.194030,-0.979114,0.017492,-0.006562,-0.018842,-9.988324,-21.098852,-39.831261,,,,,,,
1558216556.530891,-0.059945,0.197092,0.431563,0.059320,0.088055,-0.016139,-0.058749,-0.195818,-0.978879,0.007831,-0.021925,-0.014239,-9.913739,-21.180283,-39.806667,,,,,,,
1558216556.550871,-0.058099,0.197873,0.431488,0.031591,0.078708,-0.002371,-0.056934,-0.196585,-0.978832,0.006808,-0.020441,-0.008747,-9.854168,-21.211874,-39.804634,,,,,,,
1558216556.570851,-0.057334,0.198769,0.431397,0.053776,0.024675,-0.008209,-0.056174,-0.197463,-0.978700,-0.003137,-0.004105,-0.010085,-9.798143,-21.240582,-39.803158,,,,,,,
1558216556.590852,-0.056104,0.199935,0.431511,0.062344,0.051091,0.015539,-0.054958,-0.198606,-0.978537,0.010661,-0.000536,0.000052,-9.766428,-21.293776,-39.782524,,,,,,,
1558216556.610837,-0.055891,0.201048,0.432494,0.075853,-0.023947,0.069281,-0.054737,-0.199696,-0.978328,0.006534,0.007588,0.001964,-9.732931,-21.331757,-39.770386,,,,,,,
1558216556.630822,-0.058171,0.201839,0.434832,0.078969,-0.029194,0.107668,-0.056958,-0.200472,-0.978042,-0.021853,0.017290,0.002060,-9.821602,-21.339474,-39.744438,,,,,,,
1558216556.650807,-0.060044,0.202882,0.437263,0.092066,0.058420,0.080759,-0.058777,-0.201493,-0.977725,-0.023986,0.000459,0.012713,-9.925863,-21.367748,-39.703323,,,,,,,
1558216556.670791,-0.060368,0.204680,0.438642,0.086623,0.004481,0.042871,-0.059072,-0.203254,-0.977342,-0.018244,0.000450,0.015062,-9.958069,-21.412422,-39.671177,,,,,,,
1558216556.690776,-0.062109,0.206159,0.439595,0.051348,-0.049274,0.023111,-0.060755,-0.204701,-0.976937,-0.017095,-0.000117,0.017022,-10.045883,-21.478180,-39.613449,,,,,,,
1558216556.710760,-0.063523,0.206911,0.439811,-0.016460,0.029236,-0.016762,-0.062126,-0.205438,-0.976696,-0.014107,-0.011634,0.019039,-10.114473,-21.508123,-39.579735,,,,,,,
1558216556.730728,-0.062670,0.206819,0.439183,-0.051546,0.033622,-0.033830,-0.061294,-0.205347,-0.976768,0.004501,-0.006918,0.010017,-10.105173,-21.524197,-39.573376,,,,,,,
1558216556.750730,-0.062561,0.206678,0.438621,0.003476,-0.057537,-0.012239,-0.061190,-0.205210,-0.976803,0.018313,-0.003195,0.006009,-10.081551,-21.516758,-39.583443,,,,,,,
1558216556.770714,-0.063323,0.207792,0.438814,0.021422,-0.080806,0.038800,-0.061920,-0.206300,-0.976528,0.010833,-0.012435,0.001094,-10.066929,-21.541018,-39.573967,,,,,,,
1558216556.790678,-0.064814,0.208351,0.440006,-0.029456,-0.007581,0.056543,-0.063368,-0.206847,-0.976319,-0.010133,-0.017030,-0.006164,-10.108211,-21.569649,-39.547840,,,,,,,
1558216556.810683,-0.065048,0.208349,0.440999,0.026080,0.034360,0.027095,-0.063596,-0.206845,-0.976305,-0.014162,-0.004306,-0.022688,-10.196288,-21.576799,-39.521324,,,,,,,
1558216556.830664,-0.065384,0.210510,0.441470,0.152610,-0.016009,0.011767,-0.063895,-0.208959,-0.975835,-0.007622,-0.001109,-0.022349,-10.207948,-21.632923,-39.487614,,,,,,,
1558216556.850652,-0.065721,0.213123,0.442271,0.093003,0.002329,0.049263,-0.064187,-0.211514,-0.975265,0.002908,-0.001987,0.001693,-10.220112,-21.658859,-39.470249,,,,,,,
1558216556.870610,-0.064740,0.213565,0.443420,-0.027109,0.062177,0.064686,-0.063225,-0.211945,-0.975234,0.008034,-0.003784,0.011871,-10.234704,-21.771294,-39.404556,,,,,,,
1558216556.890599,-0.064539,0.212006,0.445138,-0.052998,-0.021124,0.108709,-0.063050,-0.210421,-0.975576,0.000321,0.015810,0.004201,-10.215191,-21.723181,-39.436161,,,,,,,
1558216556.910607,-0.066768,0.209623,0.447960,-0.047743,-0.029578,0.131053,-0.065258,-0.208091,-0.975930,-0.017200,0.024238,-0.000190,-10.231864,-21.691322,-39.449368,,,,,,,
1558216556.930565,-0.066982,0.207540,0.449800,-0.084587,0.063523,0.058247,-0.065495,-0.206054,-0.976346,-0.007671,0.009414,-0.011737,-10.394599,-21.528961,-39.495743,,,,,,,
1558216556.950566,-0.065377,0.205104,0.450516,-0.046384,0.031624,0.064378,-0.063961,-0.203669,-0.976948,0.016369,0.016123,-0.022197,-10.361121,-21.405621,-39.571503,,,,,,,
1558216556.970560,-0.066487,0.204665,0.452775,0.088178,-0.124350,0.138795,-0.065051,-0.203239,-0.976966,0.010974,0.012306,-0.030282,-10.343697,-21.374012,-39.593143,,,,,,,
1558216556.990541,-0.070483,0.206824,0.455163,0.128594,-0.169071,0.062596,-0.068924,-0.205353,-0.976258,-0.035599,0.000824,-0.030196,-10.517876,-21.363056,-39.553146,,,,,,,
1558216557.010505,-0.072812,0.208420,0.453973,0.035460,-0.094886,-0.135351,-0.071173,-0.206914,-0.975767,-0.032556,0.007985,-0.008562,-10.672696,-21.466698,-39.455444,,,,,,,
1558216557.030513,-0.072963,0.208099,0.450415,-0.053626,-0.009908,-0.169841,-0.071325,-0.206600,-0.975822,-0.010202,0.018261,-0.008476,-10.676877,-21.480904,-39.446575,,,,,,,
1558216557.050496,-0.071539,0.206425,0.447798,-0.062135,0.032548,-0.082962,-0.069960,-0.204962,-0.976267,0.029921,0.026663,-0.017905,-10.584576,-21.462084,-39.481682,,,,,,,
1558216557.070472,-0.071100,0.205456,0.447310,-0.033622,0.009294,0.018264,-0.069546,-0.204014,-0.976495,0.031521,0.043537,-0.047965,-10.528299,-21.419973,-39.519577,,,,,,,
1558216557.090468,-0.071361,0.206063,0.449319,0.087565,0.016241,0.142275,-0.069792,-0.204608,-0.976353,0.033293,0.049991,-0.048214,-10.540934,-21.407387,-39.523029,,,,,,,
1558216557.110433,-0.070157,0.206797,0.453044,0.106852,0.079642,0.194144,-0.068606,-0.205326,-0.976286,0.010058,0.036152,-0.020296,-10.550546,-21.397541,-39.525795,,,,,,,
1558216557.130437,-0.068308,0.206949,0.457411,-0.042954,0.183011,0.229178,-0.066799,-0.205475,-0.976380,-0.013722,0.018127,0.003251,-10.556858,-21.416170,-39.514023,,,,,,,
1558216557.150421,-0.064541,0.203907,0.461996,-0.133061,0.292339,0.218408,-0.063160,-0.202497,-0.977244,-0.015224,0.011182,-0.005910,-10.476198,-21.291519,-39.602749,,,,,,,
1558216557.170400,-0.059701,0.202073,0.465862,-0.028831,0.248399,0.181771,-0.058451,-0.200701,-0.977907,-0.015767,0.023714,-0.016508,-10.421247,-21.203194,-39.664589,,,,,,,
1558216557.190390,-0.056558,0.203787,0.469363,0.162485,0.151177,0.162843,-0.055359,-0.202379,-0.977741,-0.003342,0.032320,-0.026897,-10.248585,-21.152168,-39.736755,,,,,,,
1558216557.210375,-0.055257,0.206301,0.473119,0.210170,0.097051,0.184784,-0.054057,-0.204841,-0.977301,-0.004124,0.047981,-0.002099,-10.228287,-21.215576,-39.708172,,,,,,,
1558216557.230360,-0.054067,0.209899,0.477730,0.176088,0.117398,0.241537,-0.052855,-0.208361,-0.976623,-0.003344,0.053484,0.005645,-10.229607,-21.279026,-39.673866,,,,,,,
1558216557.250345,-0.052793,0.211500,0.483883,0.163200,0.122877,0.325923,-0.051592,-0.209927,-0.976355,0.001208,0.046597,0.002707,-10.250261,-21.410652,-39.597645,,,,,,,
1558216557.270327,-0.052834,0.212506,0.491399,0.162001,0.102858,0.366301,-0.051621,-0.210910,-0.976141,-0.018691,0.058063,-0.022623,-10.311956,-21.411228,-39.581314,,,,,,,
1558216557.290313,-0.051645,0.213600,0.498982,0.173095,0.232779,0.346201,-0.050449,-0.211980,-0.975971,-0.029492,0.068684,-0.033001,-10.369431,-21.365896,-39.590790,,,,,,,
1558216557.310279,-0.048446,0.212679,0.506700,0.177694,0.331108,0.359986,-0.047336,-0.211079,-0.976322,-0.017727,0.067570,-0.006710,-10.376164,-21.294975,-39.627220,,,,,,,
1558216557.330268,-0.043615,0.214468,0.514115,0.146799,0.321746,0.352399,-0.042602,-0.212828,-0.976161,-0.005234,0.050215,0.004603,-10.318076,-21.266193,-39.657829,,,,,,,
1558216557.350267,-0.038919,0.213901,0.521514,0.085207,0.366450,0.345304,-0.038023,-0.212274,-0.976470,-0.020251,0.054956,0.010360,-10.222306,-21.207592,-39.713974,,,,,,,
1558216557.370253,-0.033253,0.212589,0.528264,0.051340,0.406718,0.296551,-0.032498,-0.210991,-0.976948,-0.014468,0.062783,0.022022,-10.068299,-21.100512,-39.810238,,,,,,,
1558216557.390227,-0.025829,0.210571,0.533001,-0.033825,0.367931,0.210700,-0.025256,-0.209018,-0.977586,0.017627,0.030963,0.004411,-9.923657,-20.988544,-39.905632,,,,,,,
1558216557.410222,-0.020255,0.209610,0.537483,-0.040463,0.304587,0.238915,-0.019810,-0.208079,-0.977911,0.051686,0.032770,-0.010446,-9.702117,-20.889696,-40.011833,,,,,,,
1558216557.430207,-0.014554,0.207932,0.543921,-0.026042,0.233944,0.402669,-0.014240,-0.206437,-0.978356,0.061405,0.029786,-0.016150,-9.558952,-20.784166,-40.101151,,,,,,,
1558216557.450163,-0.012865,0.207793,0.554382,0.020370,0.183220,0.575179,-0.012588,-0.206301,-0.978408,0.028244,0.047564,-0.015428,-9.491152,-20.677948,-40.172104,,,,,,,
1558216557.470175,-0.011057,0.208849,0.567087,0.107728,0.233591,0.637655,-0.010817,-0.207334,-0.978210,0.016218,0.014006,-0.022293,-9.579948,-20.590290,-40.196041,,,,,,,
1558216557.490150,-0.009733,0.211963,0.579839,0.183113,0.163394,0.612487,-0.009515,-0.210379,-0.977574,0.032647,-0.000497,-0.028011,-9.674930,-20.562798,-40.187366,,,,,,,
1558216557.510144,-0.010048,0.214829,0.592534,0.130639,0.073843,0.624400,-0.009817,-0.213181,-0.976964,0.025015,0.039383,-0.039363,-9.776780,-20.586403,-40.150616,,,,,,,
1558216557.530129,-0.008474,0.217831,0.605706,0.203714,0.294409,0.647922,-0.008274,-0.216112,-0.976333,0.024158,0.030809,-0.005585,-9.930099,-20.556858,-40.128120,,,,,,,
1558216557.550098,-0.005269,0.222739,0.618796,0.260961,0.225414,0.653714,-0.005139,-0.220902,-0.975283,0.035245,0.001679,-0.002485,-9.982896,-20.619385,-40.082916,,,,,,,
1558216557.570097,-0.006175,0.227691,0.632789,0.242178,0.035312,0.694585,-0.006016,-0.225729,-0.974172,0.035831,-0.020426,0.009252,-10.044771,-20.675905,-40.038319,,,,,,,
1558216557.590077,-0.010349,0.231690,0.646946,0.179051,-0.065841,0.687160,-0.010072,-0.229623,-0.973228,0.015291,-0.027152,0.006827,-10.237544,-20.715832,-39.968792,,,,,,,
1558216557.610054,-0.013409,0.234564,0.660710,0.112476,0.069767,0.660646,-0.013042,-0.232419,-0.972528,-0.000142,-0.020892,0.018900,-10.703927,-20.718954,-39.844803,,,,,,,
1558216557.630052,-0.013481,0.236454,0.674854,0.107540,0.204087,0.697160,-0.013106,-0.234257,-0.972086,-0.003282,-0.021069,0.014811,-10.847042,-20.672775,-39.830078,,,,,,,
1558216557.650014,-0.011884,0.237397,0.688862,0.044122,0.326988,0.666256,-0.011550,-0.235174,-0.971885,-0.000642,-0.066569,0.018455,-11.965521,-21.787420,-38.308613,,,,,,,
1558216557.669996,-0.007205,0.237659,0.700787,-0.015129,0.376784,0.535365,-0.007002,-0.235428,-0.971867,0.010679,-0.037339,-0.030147,-12.011790,-21.603828,-38.398006,,,,,,,
1558216557.690006,-0.003184,0.237915,0.712068,0.051597,0.288748,0.566605,-0.003094,-0.235677,-0.971826,0.020245,-0.024882,-0.018057,-11.997222,-21.568815,-38.422237,,,,,,,
1558216557.709981,-0.002093,0.240563,0.724773,0.176702,0.171938,0.646728,-0.002033,-0.238250,-0.971202,0.030994,-0.023179,0.003764,-11.990701,-21.430668,-38.501492,,,,,,,
1558216557.729946,-0.000872,0.244768,0.739085,0.164916,0.199655,0.760155,-0.000846,-0.242332,-0.970193,0.017295,-0.063073,-0.008551,-12.157632,-21.412779,-38.459072,,,,,,,
1558216557.749936,-0.000653,0.248433,0.755983,0.201116,0.235512,0.833127,-0.000633,-0.245886,-0.969299,0.003807,-0.061213,-0.015824,-12.293672,-21.365833,-38.441933,,,,,,,
1558216557.769917,-0.000055,0.252652,0.772497,0.147263,0.324440,0.739982,-0.000053,-0.249973,-0.968253,-0.057213,-0.023450,0.009207,-12.451835,-21.315409,-38.419010,,,,,,,
1558216557.789929,0.003420,0.253981,0.785784,0.022989,0.340732,0.594838,0.003310,-0.251259,-0.967914,-0.010604,-0.039253,0.026584,-12.558764,-21.222713,-38.435520,,,,,,,
1558216557.809915,0.005338,0.255208,0.797982,0.029846,0.163133,0.603820,0.005165,-0.252447,-0.967597,0.004188,-0.033137,0.018714,-12.586646,-21.083324,-38.503052,,,,,,,
1558216557.829897,0.004260,0.256648,0.811017,0.071128,0.114365,0.652498,0.004121,-0.253840,-0.967237,-0.007051,-0.042638,0.007856,-12.700383,-21.032393,-38.493557,,,,,,,
1558216557.849882,0.004332,0.257308,0.825286,-0.024110,0.300946,0.685169,0.004189,-0.254478,-0.967070,-0.043084,-0.018059,0.021086,-12.904487,-20.865095,-38.516712,,,,,,,
1558216557.869849,0.009912,0.254953,0.838273,-0.188270,0.508834,0.584533,0.009591,-0.252200,-0.967628,-0.028909,0.002994,0.027442,-12.923209,-20.709646,-38.594254,,,,,,,
1558216557.889852,0.017971,0.249128,0.849739,-0.349852,0.557186,0.543229,0.017415,-0.246559,-0.968971,0.000849,0.026801,0.013893,-12.763680,-20.398216,-38.812580,,,,,,,
1558216557.909837,0.024667,0.241375,0.862401,-0.426097,0.412966,0.670972,0.023949,-0.239038,-0.970715,0.022438,-0.000342,-0.009418,-12.532318,-19.855446,-39.167812,,,,,,,
1558216557.929808,0.028748,0.235539,0.878717,-0.211432,0.376138,0.830939,0.027950,-0.233367,-0.971987,0.009189,-0.021165,-0.001051,-12.505557,-19.381002,-39.413235,,,,,,,
1558216557.949806,0.029543,0.234744,0.896363,0.000757,0.179537,0.871933,0.028728,-0.232594,-0.972150,-0.035473,-0.034374,-0.024982,-12.558663,-19.137363,-39.515270,,,,,,,
1558216557.969791,0.028770,0.236035,0.913980,0.043372,0.168671,0.823819,0.027969,-0.233849,-0.971871,-0.086593,-0.041160,-0.029350,-12.794639,-18.877556,-39.564510,,,,,,,
1558216557.989776,0.029640,0.236727,0.928608,-0.018804,0.278662,0.646524,0.028809,-0.234523,-0.971684,-0.077042,-0.065526,-0.036373,-12.930475,-18.706398,-39.601624,,,,,,,
1558216558.009759,0.033696,0.235824,0.941041,-0.072726,0.370843,0.604658,0.032757,-0.233644,-0.971770,-0.033810,-0.073851,-0.036225,-12.917593,-18.561007,-39.674175,,,,,,,
1558216558.029746,0.037157,0.236597,0.954535,0.055741,0.305811,0.686347,0.036114,-0.234396,-0.971470,-0.028744,-0.070093,-0.017971,-9.489651,-20.641302,-40.120186,,,,,,,
1558216558.049728,0.038605,0.239938,0.969100,0.163943,0.206990,0.719652,0.037490,-0.237643,-0.970629,-0.049102,-0.051313,0.010286,-9.572650,-20.612495,-40.115276,,,,,,,
1558216558.069713,0.038903,0.242634,0.982609,0.060734,0.171432,0.611397,0.037754,-0.240261,-0.969974,-0.054889,-0.065556,0.007556,-9.675213,-20.600288,-40.096935,,,,,,,
1558216558.089699,0.039022,0.244610,0.994348,-0.063438,0.243835,0.527646,0.037851,-0.242178,-0.969493,-0.033838,-0.075571,0.003459,-9.847764,-20.558525,-40.076363,,,,,,,
1558216558.109662,0.042523,0.243452,1.005698,-0.080190,0.351812,0.577778,0.041257,-0.241055,-0.969634,-0.007901,-0.049686,0.014999,-9.847686,-20.435783,-40.139111,,,,,,,
1558216558.129652,0.046125,0.243305,1.019221,-0.035740,0.325325,0.692866,0.044750,-0.240912,-0.969515,-0.010906,-0.030267,0.034487,-9.809966,-20.261280,-40.236691,,,,,,,
1558216558.149650,0.048152,0.243551,1.033729,-0.006187,0.254368,0.705022,0.046713,-0.241150,-0.969363,-0.023870,-0.034195,0.023989,-9.857087,-20.070108,-40.320900,,,,,,,
1558216558.169615,0.048551,0.245559,1.048055,0.066962,0.153539,0.685966,0.047076,-0.243098,-0.968859,-0.020419,-0.052709,0.050295,-9.924560,-19.974148,-40.351986,,,,,,,
1558216558.189595,0.046676,0.247919,1.062363,0.086757,0.037209,0.716897,0.045233,-0.245387,-0.968369,-0.018515,-0.044087,0.067567,-10.091954,-19.911985,-40.341190,,,,,,,
1558216558.209602,0.042645,0.249269,1.078376,-0.020029,-0.017036,0.823057,0.041314,-0.246696,-0.968212,-0.059716,-0.028328,0.069362,-10.440130,-19.788425,-40.313377,,,,,,,
1558216558.229591,0.038820,0.246547,1.096162,-0.283709,0.093271,0.856999,0.037637,-0.244057,-0.969030,-0.081261,-0.043876,0.049917,-10.690402,-19.607708,-40.336079,,,,,,,
1558216558.249562,0.039461,0.237897,1.112363,-0.562753,0.297442,0.694312,0.038340,-0.235659,-0.971079,-0.101923,-0.056272,0.011332,-10.925042,-19.172493,-40.482159,,,,,,,
1558216558.269534,0.043321,0.226003,1.124292,-0.603938,0.301573,0.483992,0.042206,-0.224084,-0.973655,-0.067658,-0.058097,-0.084801,-10.903694,-18.402233,-40.843769,,,,,,,
1558216558.289545,0.045287,0.218149,1.133880,-0.246530,0.209806,0.455641,0.044199,-0.216423,-0.975299,-0.042917,-0.072197,-0.026059,-10.879533,-17.983620,-41.036221,,,,,,,
1558216558.309499,0.043959,0.219518,1.144242,0.178195,-0.072395,0.549368,0.042891,-0.217759,-0.975060,-0.029997,-0.056853,-0.050774,-10.915127,-17.742649,-41.131557,,,,,,,
1558216558.329515,0.039155,0.224214,1.156246,0.185639,-0.068099,0.598554,0.038165,-0.222340,-0.974222,-0.076419,-0.055065,0.009012,-11.257202,-17.777615,-41.024117,,,,,,,
1558216558.349499,0.036249,0.227449,1.167877,-0.078203,0.249170,0.492480,0.035307,-0.225493,-0.973605,-0.078902,-0.052217,0.027407,-11.404141,-17.759830,-40.991219,,,,,,,
1558216558.369484,0.041157,0.223073,1.177260,-0.300202,0.368637,0.435793,0.040126,-0.221228,-0.974396,-0.054652,-0.034998,0.047089,-11.486042,-17.636539,-41.021572,,,,,,,
1558216558.389467,0.044786,0.217862,1.186110,-0.230453,0.206521,0.418282,0.043713,-0.216143,-0.975383,-0.005856,-0.016798,0.017634,-11.333744,-17.214973,-41.242420,,,,,,,
1558216558.409448,0.044773,0.217045,1.196096,-0.033097,0.061895,0.528091,0.043708,-0.215345,-0.975559,-0.003135,-0.006990,0.022739,-11.327075,-17.143795,-41.273891,,,,,,,
1558216558.429417,0.043583,0.217238,1.208044,-0.042687,0.093769,0.604191,0.042545,-0.215533,-0.975569,-0.031086,-0.014844,0.035902,-11.477462,-16.914742,-41.326817,,,,,,,
1558216558.449400,0.042799,0.214854,1.220434,-0.277613,0.176343,0.571697,0.041802,-0.213205,-0.976113,-0.044106,-0.038230,0.023415,-11.656031,-16.666004,-41.377865,,,,,,,
1558216558.469389,0.044247,0.208195,1.231938,-0.380777,0.189521,0.539711,0.043277,-0.206694,-0.977448,-0.047397,-0.049302,-0.023681,-11.667035,-16.575283,-41.411186,,,,,,,
1558216558.489367,0.045509,0.202284,1.243614,-0.301966,0.212398,0.564549,0.044566,-0.200907,-0.978596,-0.057658,-0.060751,-0.053035,-12.298093,-15.378386,-40.843735,,,,,,,
