timestamp(unix),attitude_roll(radians),attitude_pitch(radians),attitude_yaw(radians),rotation_rate_x(radians/s),rotation_rate_y(radians/s),rotation_rate_z(radians/s),gravity_x(G),gravity_y(G),gravity_z(G),user_acc_x(G),user_acc_y(G),user_acc_z(G),magnetic_field_x(microteslas),magnetic_field_y(microteslas),magnetic_field_z(microteslas),latitude(degree),longitude(degree),altitude(meter),speed(m/s),course(degree),timestamp(unix),User Mark
1558971470.922771,-0.071470,0.675552,0.078337,0.016759,-0.160217,0.016540,-0.055725,-0.625328,-0.778370,0.004517,-0.007759,0.027103,-3.283130,-12.718654,-41.303154,,,,,,,
1558971470.942763,-0.075999,0.677088,0.078103,0.061095,-0.296878,-0.032778,-0.059177,-0.626526,-0.777151,0.005267,-0.015564,0.028814,-3.386339,-12.728474,-41.291790,,,,,,,
1558971470.962750,-0.083990,0.680478,0.076432,0.252986,-0.565412,-0.101388,-0.065206,-0.629165,-0.774532,-0.005946,-0.016663,0.042675,-3.779000,-12.873541,-41.212677,,,,,,,
1558971470.982714,-0.097480,0.690126,0.074015,0.516215,-0.825854,-0.161323,-0.075054,-0.636635,-0.767504,-0.031300,-0.041542,0.013736,-4.162649,-13.118662,-41.098255,,,,,,,
1558971471.002721,-0.113238,0.702938,0.070692,0.687415,-0.902929,-0.208900,-0.086210,-0.646462,-0.758060,-0.029009,-0.074683,0.027164,-4.807418,-13.572555,-40.879921,,,,,,,
1558971471.022708,-0.128338,0.718209,0.066939,0.770645,-0.863270,-0.255430,-0.096371,-0.658037,-0.746793,-0.045703,-0.099592,0.044980,-5.315609,-14.006851,-40.669964,,,,,,,
1558971471.042674,-0.141673,0.735132,0.061484,0.823009,-0.849963,-0.362026,-0.104733,-0.670685,-0.734311,-0.043155,-0.121490,0.084088,-6.239835,-14.994546,-40.183598,,,,,,,
1558971471.062655,-0.153945,0.753240,0.052947,0.869681,-0.960335,-0.494366,-0.111856,-0.684005,-0.720850,-0.029532,-0.118057,0.080851,-6.668949,-15.535666,-39.908165,,,,,,,
1558971471.082668,-0.168925,0.774288,0.041380,1.071043,-1.296680,-0.638353,-0.120194,-0.699207,-0.704743,0.002168,-0.115017,0.072342,-7.126578,-16.106834,-39.601456,,,,,,,
1558971471.102653,-0.191177,0.803441,0.028122,1.524230,-1.764336,-0.765246,-0.131914,-0.719749,-0.681586,0.003054,-0.126824,0.055640,-8.391409,-17.604156,-38.706215,,,,,,,
1558971471.122638,-0.221614,0.840241,0.015545,1.773467,-2.057428,-0.796678,-0.146672,-0.744804,-0.650964,-0.001628,-0.113030,0.031885,-9.253803,-18.638557,-38.019264,,,,,,,
1558971471.142607,-0.253385,0.876475,0.005505,1.586610,-1.868168,-0.709605,-0.160403,-0.768488,-0.619433,-0.047926,-0.123800,0.023669,-10.760648,-20.452492,-36.666027,,,,,,,
1558971471.162612,-0.278308,0.906566,-0.003448,1.261213,-1.419267,-0.658592,-0.169358,-0.787391,-0.592733,-0.054580,-0.108742,0.009405,-11.504545,-21.383823,-35.900848,,,,,,,
1558971471.182589,-0.293532,0.932870,-0.014405,1.154813,-1.110156,-0.722981,-0.172308,-0.803332,-0.570059,-0.058939,-0.103192,0.022360,-12.047255,-22.176060,-35.236053,,,,,,,
1558971471.202565,-0.304756,0.962066,-0.029060,1.372889,-1.246904,-0.926968,-0.171582,-0.820375,-0.545477,-0.043094,-0.142958,0.083364,-12.715771,-23.698080,-33.988289,,,,,,,
1558971471.222571,-0.320768,0.999607,-0.047031,1.786678,-1.739791,-1.101110,-0.170459,-0.841258,-0.513058,-0.033810,-0.144734,0.074611,-13.043692,-24.631645,-33.190926,,,,,,,
1558971471.242537,-0.347830,1.042476,-0.061148,1.934515,-2.052226,-0.992947,-0.171821,-0.863655,-0.473897,-0.029549,-0.137291,0.073247,-13.649294,-26.098839,-31.796867,,,,,,,
1558971471.262518,-0.383017,1.084456,-0.068000,1.857856,-2.008326,-0.885824,-0.174675,-0.884049,-0.433527,-0.064003,-0.157867,0.081995,-14.587358,-27.913889,-29.774441,,,,,,,
1558971471.282528,-0.410633,1.123505,-0.077314,1.631383,-1.658497,-1.003301,-0.172659,-0.901622,-0.396568,-0.057504,-0.135930,0.065315,-15.046192,-28.904644,-28.576687,,,,,,,
1558971471.302514,-0.422939,1.159879,-0.095977,1.433454,-1.375431,-1.135274,-0.163951,-0.916755,-0.364254,-0.018132,-0.103250,0.070553,-15.344162,-30.110489,-27.136848,,,,,,,
1558971471.322502,-0.426717,1.191926,-0.120976,1.154489,-1.366445,-1.051028,-0.153084,-0.929083,-0.336705,-0.004631,-0.044413,0.055043,-15.380232,-31.437609,-25.565968,,,,,,,
1558971471.342487,-0.431650,1.217635,-0.146946,0.868443,-1.533852,-0.908727,-0.144700,-0.938284,-0.314142,-0.034698,-0.016001,0.005685,-15.425647,-32.080235,-24.726532,,,,,,,
1558971471.362472,-0.436653,1.239119,-0.174954,0.754500,-1.532149,-0.876773,-0.137712,-0.945497,-0.295077,-0.091247,0.012316,-0.083021,-15.587752,-32.771248,-23.697269,,,,,,,
1558971471.382431,-0.434201,1.260385,-0.205753,0.750242,-1.215044,-0.890824,-0.128499,-0.952208,-0.277107,-0.095012,0.018904,-0.113976,-15.693453,-33.555740,-22.499359,,,,,,,
1558971471.402446,-0.421996,1.279713,-0.239203,0.632156,-0.849691,-0.847918,-0.117546,-0.957934,-0.261813,-0.101906,0.024187,-0.114896,-15.624735,-34.001434,-21.869240,,,,,,,
1558971471.422412,-0.395858,1.296913,-0.280427,0.519054,-0.616585,-0.868198,-0.104294,-0.962728,-0.249555,-0.047989,0.026311,-0.080950,-15.389074,-34.530144,-21.197620,,,,,,,
1558971471.442401,-0.363526,1.311352,-0.328600,0.391829,-0.786102,-0.873126,-0.091220,-0.966533,-0.239778,-0.025693,0.040751,-0.066512,-14.982251,-35.110878,-20.524418,,,,,,,
1558971471.462388,-0.324756,1.324673,-0.386558,0.410721,-0.894103,-0.930730,-0.077742,-0.969864,-0.230911,-0.028123,0.049256,-0.071946,-14.910549,-35.213402,-20.400623,,,,,,,
1558971471.482372,-0.278991,1.340679,-0.451556,0.617491,-0.843489,-0.993071,-0.062813,-0.973640,-0.219273,-0.018989,0.057837,-0.054836,-14.450570,-35.869598,-19.571575,,,,,,,
1558971471.502377,-0.222694,1.359396,-0.525190,0.740246,-0.746911,-1.008063,-0.046342,-0.977738,-0.204647,0.014940,0.091904,-0.035511,-13.932904,-36.536999,-18.692657,,,,,,,
1558971471.522350,-0.164597,1.378052,-0.599362,0.796447,-0.733206,-0.833860,-0.031387,-0.981482,-0.188964,0.082061,0.112540,0.016662,-13.817946,-36.675667,-18.505497,,,,,,,
1558971471.542330,-0.119537,1.396439,-0.662154,0.828511,-0.921209,-0.623172,-0.020687,-0.984838,-0.172237,0.080502,0.076696,0.034847,-13.267283,-37.447479,-17.325092,,,,,,,
1558971471.562336,-0.081568,1.412365,-0.723065,0.659324,-1.206711,-0.583335,-0.012855,-0.987476,-0.157245,0.054099,0.041690,0.037525,-13.113440,-37.981022,-16.247253,,,,,,,
1558971471.582317,-0.029631,1.422529,-0.799871,0.373223,-1.148183,-0.619304,-0.004377,-0.989029,-0.147660,0.058103,0.027618,0.037018,-13.099948,-38.072403,-16.042978,,,,,,,
1558971471.602307,0.029739,1.427755,-0.880789,0.206609,-0.967532,-0.563258,0.004239,-0.989787,-0.142491,0.081882,0.051173,0.038640,-12.940257,-38.505451,-15.112036,,,,,,,
1558971471.622295,0.078626,1.429876,-0.948182,0.081121,-0.857763,-0.403229,0.011032,-0.990087,-0.140021,0.052384,0.074667,0.008627,-12.782449,-38.740353,-14.638569,,,,,,,
1558971471.642280,0.101719,1.428729,-0.988443,-0.114951,-0.834254,-0.214187,0.014378,-0.989925,-0.140858,-0.021320,0.078304,-0.050960,-12.758821,-38.817867,-14.452648,,,,,,,
1558971471.662266,0.094195,1.423524,-0.996487,-0.322484,-0.727154,-0.007273,0.013802,-0.989175,-0.146091,-0.082085,0.058572,-0.114240,-12.849789,-38.824249,-14.354582,,,,,,,
1558971471.682253,0.068934,1.415139,-0.982788,-0.497447,-0.473453,0.097510,0.010678,-0.987910,-0.154661,-0.123761,0.054362,-0.162752,-13.113884,-38.686192,-14.487853,,,,,,,
1558971471.702239,0.048062,1.402021,-0.965082,-0.770463,0.022673,0.104175,0.008070,-0.985791,-0.167781,-0.148222,0.054639,-0.188679,-13.251555,-38.543205,-14.741473,,,,,,,
1558971471.722195,0.035349,1.384244,-0.947652,-0.951627,0.302734,0.143011,0.006555,-0.982650,-0.185357,-0.134088,0.056349,-0.230644,-13.312965,-38.276443,-15.367905,,,,,,,
1558971471.742207,0.015172,1.365051,-0.920144,-0.950640,0.349466,0.297200,0.003099,-0.978909,-0.204273,-0.146532,0.072857,-0.289410,-13.366281,-37.834087,-16.383459,,,,,,,
1558971471.762182,-0.007847,1.347391,-0.888669,-0.855735,0.427275,0.356741,-0.001738,-0.975149,-0.221545,-0.156343,0.074422,-0.308011,-13.481693,-37.444389,-17.165512,,,,,,,
1558971471.782166,-0.038207,1.327489,-0.845657,-1.136364,0.688177,0.665428,-0.009202,-0.970547,-0.240738,-0.173171,0.105694,-0.363983,-13.544293,-37.243858,-17.548237,,,,,,,
1558971471.802164,-0.078737,1.296117,-0.783746,-1.745204,1.165373,0.971652,-0.021334,-0.962512,-0.270398,-0.145231,0.191272,-0.407626,-13.908410,-36.272709,-19.218225,,,,,,,
1558971471.822154,-0.104000,1.256172,-0.727047,-1.918310,1.611281,0.969376,-0.032126,-0.950913,-0.307787,-0.144754,0.195328,-0.415541,-14.088242,-35.241066,-20.930408,,,,,,,
1558971471.842124,-0.106653,1.221373,-0.685495,-1.458146,1.950024,0.798960,-0.036444,-0.939570,-0.340410,-0.123056,0.183757,-0.390012,-14.063560,-34.706440,-21.821384,,,,,,,
1558971471.862129,-0.098882,1.198658,-0.649219,-0.837971,2.122151,0.746654,-0.035896,-0.931552,-0.361832,-0.038994,0.154391,-0.236404,-13.515993,-33.435745,-24.038769,,,,,,,
1558971471.882101,-0.094488,1.187597,-0.611106,-0.255516,1.863324,0.767064,-0.035276,-0.927473,-0.372222,0.000211,0.128553,-0.155351,-13.124113,-33.030445,-24.804047,,,,,,,
1558971471.902100,-0.104855,1.189350,-0.568252,0.406572,1.218266,0.785975,-0.038962,-0.928127,-0.370219,0.048774,0.062603,-0.035787,-12.739939,-32.747524,-25.372961,,,,,,,
1558971471.922087,-0.125434,1.201925,-0.527128,0.864022,0.718769,0.586181,-0.045108,-0.932735,-0.357730,0.002002,-0.057042,0.118747,-12.659545,-32.847618,-25.283661,,,,,,,
1558971471.942058,-0.141287,1.219880,-0.497519,0.965033,0.549735,0.292109,-0.048407,-0.939058,-0.340333,-0.010385,-0.060271,0.136552,-12.663870,-33.097385,-24.953613,,,,,,,
1558971471.962055,-0.149772,1.235848,-0.477748,0.725473,0.490602,0.196330,-0.049049,-0.944427,-0.325040,0.022087,-0.066650,0.161237,-12.580744,-33.491699,-24.464760,,,,,,,
1558971471.982045,-0.155969,1.245050,-0.461060,0.378353,0.460714,0.195766,-0.049710,-0.947412,-0.316131,0.018445,-0.068686,0.162872,-12.500342,-33.718075,-24.193518,,,,,,,
1558971472.002025,-0.158145,1.250563,-0.448959,0.290199,0.480070,0.106198,-0.049575,-0.949162,-0.310860,-0.016923,-0.084087,0.152779,-12.377286,-33.898842,-24.003433,,,,,,,
1558971472.022016,-0.151841,1.255695,-0.443527,0.228056,0.639871,0.015860,-0.046877,-0.950765,-0.306347,-0.021620,-0.071650,0.152172,-12.200212,-34.014393,-23.930510,,,,,,,
1558971472.042004,-0.138641,1.257315,-0.442524,-0.019620,0.740513,0.003813,-0.042616,-0.951266,-0.305413,0.025954,-0.045454,0.150674,-11.811584,-34.111633,-23.987000,,,,,,,
1558971472.061961,-0.124970,1.254252,-0.440734,-0.192070,0.779603,0.091596,-0.038800,-0.950317,-0.308857,0.046078,-0.030289,0.138309,-11.723405,-34.109062,-24.033876,,,,,,,
1558971472.081976,-0.118530,1.250294,-0.431074,-0.154999,0.776410,0.207969,-0.037255,-0.949077,-0.312833,0.032524,-0.037785,0.138089,-11.243956,-33.962799,-24.466206,,,,,,,
1558971472.101963,-0.115399,1.252067,-0.418333,-0.101897,0.746574,0.236551,-0.036081,-0.949634,-0.311276,0.020579,-0.029934,0.122174,-10.952479,-33.817123,-24.797958,,,,,,,
1558971472.121929,-0.112592,1.249467,-0.406253,-0.125422,0.685296,0.172954,-0.035485,-0.948816,-0.313829,0.014336,-0.025717,0.113084,-10.872986,-33.913582,-24.701023,,,,,,,
1558971472.141934,-0.106251,1.251012,-0.400283,-0.150177,0.549972,0.070212,-0.033338,-0.949303,-0.312589,0.008344,-0.020942,0.091382,-10.543806,-33.766106,-25.043396,,,,,,,
1558971472.161922,-0.097855,1.248585,-0.399144,-0.094094,0.424873,0.018880,-0.030938,-0.948538,-0.315150,0.009698,-0.006342,0.071909,-10.301168,-33.803978,-25.093229,,,,,,,
1558971472.181907,-0.092823,1.250346,-0.397180,-0.059361,0.308440,0.034876,-0.029197,-0.949094,-0.313638,0.000571,0.001904,0.054421,-10.109262,-33.754814,-25.237045,,,,,,,
1558971472.201885,-0.102686,1.257912,-0.386023,-0.190042,-0.029386,-0.136069,-0.031552,-0.951450,-0.306182,-0.067966,-0.090512,0.162429,-9.991401,-33.794525,-25.230843,,,,,,,
1558971472.221879,-0.091291,1.256541,-0.399322,-0.031603,-0.106408,-0.192197,-0.028180,-0.951027,-0.307821,-0.043659,-0.023247,0.058980,-10.084566,-33.976055,-24.948399,,,,,,,
1558971472.241866,-0.090818,1.257457,-0.401244,-0.038610,0.043772,-0.156590,-0.027955,-0.951310,-0.306966,-0.024337,0.000992,0.012121,-10.052517,-34.007786,-24.918087,,,,,,,
1558971472.261845,-0.078115,1.254412,-0.411202,-0.198717,0.234872,-0.159159,-0.024279,-0.950367,-0.310183,-0.008939,0.019794,-0.004148,-9.982092,-34.010841,-24.942211,,,,,,,
1558971472.281826,-0.062402,1.249489,-0.422032,-0.268878,0.268021,-0.150356,-0.019694,-0.948823,-0.315193,0.042033,0.058366,-0.033471,-9.663344,-33.883026,-25.239923,,,,,,,
1558971472.301825,-0.049620,1.245825,-0.431492,-0.122463,0.130930,-0.128063,-0.015836,-0.947660,-0.318889,0.049665,0.067029,-0.032689,-9.496494,-33.810780,-25.399628,,,,,,,
1558971472.321803,-0.034030,1.243173,-0.446606,0.097191,-0.054065,-0.079489,-0.010949,-0.946810,-0.321607,0.051705,0.071657,-0.035479,-9.382468,-33.782639,-25.479322,,,,,,,
1558971472.341789,-0.033745,1.246621,-0.449387,0.188433,-0.131640,-0.034212,-0.010747,-0.947914,-0.318346,0.021779,0.038261,-0.030318,-9.235547,-33.827927,-25.472912,,,,,,,
1558971472.361783,-0.035605,1.250010,-0.449713,0.153383,-0.091235,0.002447,-0.011224,-0.948988,-0.315113,0.015191,0.030302,-0.028744,-9.270226,-33.900742,-25.363285,,,,,,,
1558971472.381746,-0.036286,1.250573,-0.450212,0.125799,-0.055132,0.014513,-0.011419,-0.949165,-0.314572,0.005545,0.019142,-0.036945,-9.305157,-33.958752,-25.272728,,,,,,,
1558971472.401734,-0.039087,1.253490,-0.448124,0.158846,-0.033084,0.030765,-0.012192,-0.950079,-0.311770,-0.014297,0.003775,-0.040525,-9.346946,-34.007580,-25.191517,,,,,,,
1558971472.421741,-0.042687,1.255731,-0.444684,0.154749,0.009193,0.014086,-0.013224,-0.950776,-0.309596,-0.010412,-0.005599,-0.020055,-9.373983,-34.083229,-25.078976,,,,,,,
1558971472.441711,-0.042525,1.258750,-0.444473,0.146299,0.016595,-0.013609,-0.013051,-0.951707,-0.306729,-0.010462,-0.007475,-0.016666,-9.397161,-34.093201,-25.056746,,,,,,,
1558971472.461690,-0.041858,1.261848,-0.445032,0.119694,0.008244,-0.036130,-0.012723,-0.952654,-0.303790,-0.004656,-0.011152,0.006076,-9.370843,-34.202923,-24.916677,,,,,,,
1558971472.481700,-0.039081,1.264155,-0.448470,0.112071,-0.058355,-0.067736,-0.011794,-0.953353,-0.301628,-0.007966,-0.006806,0.005241,-9.350933,-34.280064,-24.817951,,,,,,,
1558971472.501686,-0.036737,1.266454,-0.453984,0.111661,-0.202169,-0.109683,-0.011006,-0.954044,-0.299464,-0.016658,-0.011761,0.094889,-9.345085,-34.314323,-24.772766,,,,,,,
1558971472.521657,-0.037035,1.272082,-0.459772,0.055411,-0.203091,-0.213292,-0.010897,-0.955716,-0.294090,-0.027403,-0.017932,0.049003,-9.447539,-34.506599,-24.464909,,,,,,,
1558971472.541630,-0.026274,1.271527,-0.472958,-0.100538,-0.017214,-0.159323,-0.007745,-0.955552,-0.294720,-0.018180,0.013963,0.011120,-9.435573,-34.523434,-24.445774,,,,,,,
1558971472.561645,-0.015805,1.264366,-0.481398,-0.202298,0.162103,-0.062670,-0.004768,-0.953416,-0.301620,0.009589,0.024690,-0.066056,-9.288718,-34.517647,-24.510105,,,,,,,
1558971472.581632,-0.006507,1.260360,-0.486478,-0.191369,0.232814,-0.097217,-0.001988,-0.952200,-0.305468,-0.000271,-0.005212,-0.070524,-9.089808,-34.320999,-24.858353,,,,,,,
1558971472.601602,0.005865,1.255708,-0.495841,-0.076700,0.119027,-0.154800,0.001818,-0.950769,-0.309895,0.001219,-0.002722,-0.042919,-8.950756,-34.271759,-24.976469,,,,,,,
1558971472.621603,0.015001,1.256388,-0.505070,0.103723,-0.029854,-0.121916,0.004639,-0.950979,-0.309219,0.015274,0.008047,-0.016327,-8.793036,-34.221832,-25.100645,,,,,,,
1558971472.641590,0.021565,1.258883,-0.512378,0.164353,-0.008920,-0.046935,0.006617,-0.951748,-0.306809,0.016072,0.009426,-0.010818,-8.726530,-34.322796,-24.985729,,,,,,,
1558971472.661548,0.025206,1.260890,-0.514712,0.046600,0.121735,-0.030831,0.007686,-0.952362,-0.304872,0.012379,0.004807,-0.019728,-8.665530,-34.373398,-24.937351,,,,,,,
1558971472.681561,0.032835,1.259726,-0.519066,-0.086331,0.167908,-0.016620,0.010048,-0.952006,-0.305913,0.018837,0.005717,-0.002711,-8.580858,-34.391937,-24.941067,,,,,,,
1558971472.701549,0.036826,1.258106,-0.520779,-0.055719,0.075743,-0.046304,0.011326,-0.951509,-0.307411,0.023739,0.009142,0.009362,-8.432705,-34.346394,-25.054104,,,,,,,
1558971472.721507,0.040928,1.258373,-0.525744,0.068274,-0.112066,-0.090708,0.012576,-0.951591,-0.307108,0.029309,0.018639,0.023585,-8.387007,-34.342865,-25.074272,,,,,,,
1558971472.741519,0.047299,1.262127,-0.536045,0.191427,-0.211009,-0.087291,0.014364,-0.952739,-0.303451,0.018382,0.021968,0.016128,-8.340933,-34.431343,-24.968075,,,,,,,
1558971472.761507,0.047856,1.265899,-0.541134,0.175420,-0.208765,-0.056320,0.014361,-0.953878,-0.299852,0.007032,0.011449,0.021715,-8.405738,-34.566910,-24.758144,,,,,,,
1558971472.781493,0.048376,1.268907,-0.545423,0.063785,-0.161648,-0.041012,0.014378,-0.954776,-0.296977,-0.001393,0.007968,0.015483,-8.443444,-34.652954,-24.624676,,,,,,,
1558971472.801478,0.047155,1.269225,-0.547046,-0.021285,-0.127353,-0.024737,0.014001,-0.954871,-0.296691,-0.003518,0.009528,0.009826,-8.493458,-34.684086,-24.563566,,,,,,,
1558971472.821461,0.044384,1.269032,-0.547289,-0.017079,-0.158078,-0.057055,0.013187,-0.954814,-0.296913,-0.011218,0.010249,0.006095,-8.564270,-34.685242,-24.537334,,,,,,,
1558971472.841451,0.042462,1.268840,-0.549521,0.011599,-0.199527,-0.106536,0.012624,-0.954757,-0.297120,-0.014669,0.020064,0.001237,-8.634177,-34.684982,-24.513191,,,,,,,
1558971472.861422,0.043002,1.269127,-0.555023,0.050794,-0.245146,-0.080249,0.012773,-0.954842,-0.296840,-0.005006,0.032173,-0.010090,-8.676834,-34.693954,-24.485413,,,,,,,
1558971472.881398,0.039272,1.267357,-0.556261,0.008182,-0.222629,-0.016008,0.011732,-0.954314,-0.298574,-0.004545,0.032897,-0.026469,-8.801327,-34.700348,-24.431856,,,,,,,
1558971472.901410,0.035936,1.264838,-0.556386,-0.077791,-0.139712,-0.004607,0.010822,-0.953559,-0.301013,0.000149,0.028769,-0.032483,-8.878083,-34.663609,-24.456234,,,,,,,
1558971472.921389,0.033146,1.263192,-0.555596,-0.076603,-0.090000,0.021494,0.010034,-0.953062,-0.302610,0.013724,0.033719,-0.044222,-8.927647,-34.599316,-24.529125,,,,,,,
1558971472.941365,0.028220,1.262236,-0.552465,-0.037329,-0.107064,0.058729,0.008569,-0.952772,-0.303566,0.006583,0.035642,-0.069130,-9.025804,-34.542263,-24.573574,,,,,,,
1558971472.961369,0.023345,1.258467,-0.549381,-0.035139,-0.088058,0.051438,0.007173,-0.951620,-0.307192,0.009230,0.030539,-0.074690,-9.096871,-34.521027,-24.577202,,,,,,,
1558971472.981353,0.019888,1.258021,-0.546583,-0.010376,-0.008932,0.038335,0.006119,-0.951483,-0.307640,0.022384,0.027777,-0.080300,-9.156480,-34.422089,-24.693562,,,,,,,
1558971473.001326,0.022050,1.255568,-0.547665,0.019620,0.058585,0.052880,0.006836,-0.950726,-0.309958,0.038834,0.027127,-0.056955,-9.185970,-34.412514,-24.695957,,,,,,,
1558971473.021327,0.020786,1.255798,-0.544476,0.001703,0.109403,0.044811,0.006439,-0.950797,-0.309748,0.035064,0.022269,-0.048101,-9.133006,-34.356884,-24.792866,,,,,,,
1558971473.041287,0.020232,1.255517,-0.541319,-0.021711,0.115884,0.055530,0.006273,-0.950710,-0.310018,0.029173,0.013179,-0.039606,-9.108323,-34.347385,-24.815098,,,,,,,
1558971473.061298,0.020256,1.254121,-0.539059,0.005854,0.093577,0.077757,0.006308,-0.950276,-0.311345,0.007914,-0.003490,-0.028636,-9.063919,-34.299114,-24.897984,,,,,,,
1558971473.081285,0.017131,1.254789,-0.533899,0.044166,0.090202,0.076687,0.005323,-0.950484,-0.310728,-0.005644,-0.011964,-0.019274,-9.074890,-34.295513,-24.898949,,,,,,,
1558971473.101259,0.014320,1.254882,-0.528969,0.009115,0.104094,0.054373,0.004449,-0.950513,-0.310654,-0.008416,-0.012149,-0.023437,-9.089130,-34.285751,-24.907192,,,,,,,
1558971473.121232,0.013195,1.254321,-0.525181,-0.045063,0.142446,0.064305,0.004107,-0.950338,-0.311192,-0.018602,-0.011622,-0.025356,-9.067808,-34.268845,-24.938213,,,,,,,
1558971473.141216,0.009607,1.252642,-0.518054,-0.036455,0.179421,0.081751,0.003005,-0.949815,-0.312799,-0.020034,-0.016250,-0.020834,-9.073873,-34.215515,-25.009136,,,,,,,
1558971473.161230,0.008573,1.252693,-0.513295,0.028473,0.168479,0.061413,0.002681,-0.949830,-0.312754,-0.021007,-0.016814,-0.005117,-9.040464,-34.186390,-25.061010,,,,,,,
1558971473.181217,0.008261,1.254445,-0.509960,0.094444,0.139525,0.016349,0.002570,-0.950377,-0.311091,-0.004035,-0.005373,0.006052,-8.999701,-34.208305,-25.045773,,,,,,,
1558971473.201183,0.008607,1.256340,-0.508102,0.089972,0.087798,0.045744,0.002662,-0.950965,-0.309288,-0.002357,0.005606,-0.002342,-8.962059,-34.241779,-25.013504,,,,,,,
1558971473.221189,0.004652,1.258122,-0.502221,0.111202,0.094106,0.098137,0.001431,-0.951514,-0.307601,-0.006177,0.003516,-0.005539,-8.952448,-34.269836,-24.978500,,,,,,,
1558971473.241176,-0.001637,1.260887,-0.493602,0.136780,0.105606,0.103608,-0.000499,-0.952361,-0.304972,-0.013219,-0.002549,0.003748,-8.991575,-34.321484,-24.893383,,,,,,,
1558971473.261150,-0.006391,1.264147,-0.486571,0.143176,0.098140,0.082189,-0.001929,-0.953350,-0.301860,-0.007760,-0.002613,0.016704,-9.039755,-34.382133,-24.792042,,,,,,,
1558971473.281147,-0.009078,1.268476,-0.482108,0.136695,0.056915,0.058301,-0.002703,-0.954648,-0.297724,0.003603,0.000348,0.020945,-9.046977,-34.443581,-24.703959,,,,,,,
1558971473.301134,-0.010658,1.272576,-0.479870,0.134403,0.000890,0.048153,-0.003132,-0.955861,-0.293803,0.007114,0.013463,0.023875,-9.056886,-34.553833,-24.545855,,,,,,,
1558971473.321120,-0.014819,1.276233,-0.476515,0.177712,-0.090204,0.072938,-0.004302,-0.956929,-0.290290,0.005507,0.017186,0.010749,-9.087570,-34.649654,-24.398994,,,,,,,
1558971473.341097,-0.023900,1.280346,-0.469736,0.205264,-0.132645,0.062946,-0.006844,-0.958115,-0.286302,-0.080894,-0.014251,0.016741,-9.183711,-34.708454,-24.279129,,,,,,,
1558971473.361092,-0.025405,1.284161,-0.470557,0.171447,-0.112543,-0.043615,-0.007182,-0.959201,-0.282635,-0.058690,-0.020765,0.004879,-9.277077,-34.823784,-24.077648,,,,,,,
1558971473.381078,-0.026832,1.287031,-0.471139,0.088589,-0.076221,-0.077495,-0.007511,-0.960008,-0.279871,-0.030086,-0.022566,0.008189,-9.326719,-34.903145,-23.943184,,,,,,,
1558971473.401037,-0.020994,1.288134,-0.478252,0.029196,-0.025223,-0.111220,-0.005855,-0.960316,-0.278852,-0.018712,-0.001247,0.010984,-9.305935,-34.942341,-23.894054,,,,,,,
1558971473.421040,-0.013988,1.288085,-0.485678,-0.015446,0.003578,-0.092830,-0.003902,-0.960303,-0.278933,0.016368,0.021811,0.007266,-9.222919,-34.975945,-23.877068,,,,,,,
1558971473.441011,-0.006395,1.287708,-0.493489,-0.003866,-0.021804,-0.062104,-0.001786,-0.960197,-0.279317,0.019868,0.025566,0.004338,-9.177000,-34.981041,-23.887293,,,,,,,
1558971473.461000,-0.003858,1.288341,-0.497633,0.056553,-0.100343,-0.063875,-0.001075,-0.960374,-0.278713,0.015342,0.023652,-0.009968,-9.123163,-34.992153,-23.891647,,,,,,,
1558971473.481007,-0.001775,1.290164,-0.502317,0.103293,-0.130186,-0.064124,-0.000492,-0.960881,-0.276963,0.002292,0.008488,-0.010589,-9.129310,-35.054417,-23.797840,,,,,,,
1558971473.500987,0.000268,1.291835,-0.507445,0.096869,-0.150266,-0.084606,0.000074,-0.961342,-0.275358,-0.002347,0.003914,-0.010684,-9.142632,-35.100830,-23.724194,,,,,,,
1558971473.520977,0.004308,1.293517,-0.514603,0.082044,-0.132238,-0.097257,0.001179,-0.961804,-0.273737,-0.007496,0.001034,-0.012350,-9.153767,-35.137203,-23.665985,,,,,,,
1558971473.540969,0.007650,1.295185,-0.520357,0.081070,-0.089904,-0.064824,0.002082,-0.962259,-0.272127,0.000772,0.007288,-0.004744,-9.148162,-35.221344,-23.542757,,,,,,,
1558971473.560954,0.010414,1.296507,-0.524619,0.051335,-0.059064,-0.044267,0.002821,-0.962618,-0.270848,0.003588,0.006517,0.002217,-9.145988,-35.256119,-23.491489,,,,,,,
1558971473.580926,0.013134,1.297031,-0.528359,-0.000729,-0.032373,-0.049392,0.003551,-0.962760,-0.270335,0.003270,0.008979,0.004527,-9.132186,-35.291313,-23.443970,,,,,,,
1558971473.600926,0.016999,1.295947,-0.532455,-0.041052,0.009069,-0.044758,0.004613,-0.962466,-0.271363,0.001597,0.021960,-0.007248,-9.098287,-35.292812,-23.454893,,,,,,,
1558971473.620912,0.019625,1.294444,-0.534755,-0.053832,0.020807,-0.015830,0.005354,-0.962057,-0.272796,0.002916,0.021704,-0.006638,-9.069533,-35.274029,-23.494247,,,,,,,
1558971473.640899,0.020923,1.292335,-0.535797,-0.033675,0.006977,-0.004203,0.005751,-0.961479,-0.274816,0.002916,0.023201,-0.015665,-9.042300,-35.231907,-23.567839,,,,,,,
1558971473.660886,0.021353,1.290952,-0.536231,0.012043,-0.003818,0.005338,0.005897,-0.961098,-0.276143,0.002617,0.022622,-0.012065,-9.030940,-35.187416,-23.638559,,,,,,,
1558971473.680858,0.021120,1.290856,-0.535892,0.013134,0.007813,0.011856,0.005835,-0.961072,-0.276237,0.000894,0.012952,-0.001748,-9.028808,-35.175568,-23.657001,,,,,,,
1558971473.700857,0.019944,1.289952,-0.534544,-0.039024,0.007023,0.007537,0.005528,-0.960822,-0.277112,-0.001820,0.010153,-0.009464,-9.035920,-35.165287,-23.669563,,,,,,,
1558971473.720844,0.020214,1.287910,-0.534324,-0.049575,0.035614,0.004598,0.005642,-0.960254,-0.279072,0.002873,0.014911,-0.015179,-9.035618,-35.117416,-23.740639,,,,,,,
1558971473.740813,0.021623,1.286362,-0.534944,-0.011310,0.025921,0.018414,0.006067,-0.959821,-0.280549,0.009695,0.017133,-0.010421,-9.014578,-35.077896,-23.806978,,,,,,,
1558971473.760815,0.020092,1.286706,-0.533378,0.057690,-0.021974,0.040430,0.005631,-0.959917,-0.280228,0.008773,0.018663,-0.008377,-9.010702,-35.065742,-23.826332,,,,,,,
1558971473.780790,0.017120,1.287635,-0.531124,0.057599,-0.047336,0.044457,0.004783,-0.960177,-0.279352,-0.000892,0.002001,-0.004828,-9.045712,-35.082657,-23.788137,,,,,,,
1558971473.800762,0.013552,1.288076,-0.528039,0.003444,-0.013249,0.029793,0.003780,-0.960300,-0.278943,-0.004803,-0.006863,-0.004245,-9.098495,-35.087254,-23.761223,,,,,,,
1558971473.820761,0.012469,1.287413,-0.526774,-0.033661,0.021789,0.004476,0.003486,-0.960115,-0.279584,-0.004280,-0.008635,-0.009463,-9.109280,-35.084152,-23.761663,,,,,,,
1558971473.840748,0.012565,1.286696,-0.526312,-0.007032,0.025872,0.001334,0.003522,-0.959914,-0.280272,-0.000623,-0.003404,-0.003832,-9.107813,-35.051903,-23.809774,,,,,,,
1558971473.860747,0.013058,1.286888,-0.526828,0.025842,-0.015536,-0.006510,0.003658,-0.959968,-0.280086,0.004567,0.000999,-0.001790,-9.099989,-35.051636,-23.813160,,,,,,,
1558971473.880732,0.013269,1.287077,-0.527556,0.000255,-0.027027,-0.005573,0.003714,-0.960021,-0.279904,0.002908,0.001296,-0.003498,-9.101899,-35.058472,-23.802364,,,,,,,
1558971473.900720,0.013346,1.286443,-0.527786,-0.002802,0.009967,-0.016965,0.003744,-0.959843,-0.280512,-0.005697,-0.001613,-0.011175,-9.104225,-35.054375,-23.807507,,,,,,,
1558971473.920705,0.013806,1.286608,-0.527843,0.022802,0.032044,-0.007124,0.003871,-0.959890,-0.280351,-0.012507,-0.005381,-0.003737,-9.101062,-35.048019,-23.818069,,,,,,,
1558971473.940690,0.014318,1.286902,-0.527656,0.003694,0.042696,-0.018781,0.004010,-0.959972,-0.280067,-0.012708,-0.005406,-0.001488,-9.090507,-35.054146,-23.813087,,,,,,,
1558971473.960653,0.015928,1.287050,-0.528469,0.001560,0.040591,-0.019869,0.004459,-0.960013,-0.279919,-0.003986,-0.003182,0.002880,-9.059052,-35.061504,-23.814232,,,,,,,
1558971473.980664,0.017181,1.287353,-0.529233,0.016404,0.023604,-0.017884,0.004805,-0.960098,-0.279622,-0.005201,0.000809,0.003194,-9.040786,-35.066387,-23.813992,,,,,,,
1558971474.000643,0.018579,1.287703,-0.530253,0.025979,0.022498,-0.016819,0.005189,-0.960196,-0.279279,-0.004716,0.008124,-0.007312,-9.027959,-35.075325,-23.805687,,,,,,,
1558971474.020619,0.019305,1.287983,-0.530641,0.058928,0.014947,-0.001918,0.005387,-0.960274,-0.279006,-0.004929,0.004342,-0.007539,-9.003090,-35.090961,-23.792059,,,,,,,
1558971474.040622,0.019424,1.289073,-0.530777,0.066326,-0.006250,-0.013859,0.005400,-0.960578,-0.277959,-0.004637,0.003913,-0.008647,-9.003764,-35.108551,-23.765842,,,,,,,
1558971474.060579,0.020197,1.290301,-0.531978,0.074800,-0.023222,-0.023623,0.005591,-0.960919,-0.276775,-0.003867,0.004894,-0.007359,-9.003555,-35.129513,-23.734930,,,,,,,
1558971474.080579,0.020934,1.291417,-0.533221,0.076931,-0.018995,-0.017175,0.005772,-0.961227,-0.275699,0.003093,0.005142,0.002368,-9.000915,-35.172379,-23.672361,,,,,,,
1558971474.100580,0.023103,1.293144,-0.535607,0.053563,-0.006195,-0.021342,0.006332,-0.961702,-0.274025,0.008759,0.006242,0.019463,-8.996235,-35.196941,-23.637604,,,,,,,
1558971474.120546,0.025619,1.295272,-0.538981,-0.036024,-0.065992,-0.033732,0.006969,-0.962283,-0.271962,-0.004238,0.000018,0.051518,-8.964123,-35.286072,-23.516609,,,,,,,
1558971474.140553,0.027565,1.294092,-0.541284,-0.066678,0.002885,-0.026691,0.007529,-0.961961,-0.273083,-0.005836,0.011445,0.004010,-8.955751,-35.268909,-23.545523,,,,,,,
1558971474.160527,0.028669,1.292897,-0.541543,-0.047361,0.064134,0.002737,0.007864,-0.961634,-0.274223,-0.003851,0.012583,-0.019463,-8.940610,-35.247353,-23.583534,,,,,,,
1558971474.180496,0.030791,1.291482,-0.542539,-0.015418,0.049107,-0.037952,0.008488,-0.961245,-0.275566,-0.014316,-0.003645,-0.026604,-8.912535,-35.206032,-23.655771,,,,,,,
1558971474.200513,0.034288,1.291679,-0.545901,0.030187,-0.005051,-0.044840,0.009445,-0.961299,-0.275345,-0.007537,0.001979,-0.016876,-8.856848,-35.212627,-23.666870,,,,,,,
1558971474.220485,0.036787,1.292056,-0.548106,0.035648,0.046743,-0.025122,0.010120,-0.961403,-0.274959,0.002622,0.005714,-0.006291,-8.849558,-35.218174,-23.661337,,,,,,,
1558971474.240484,0.039434,1.292365,-0.549176,0.008100,0.093421,-0.008682,0.010836,-0.961488,-0.274634,0.005888,0.009858,-0.001962,-8.796421,-35.239712,-23.649084,,,,,,,
1558971474.260471,0.043299,1.292521,-0.551198,0.016570,0.081758,-0.003451,0.011890,-0.961531,-0.274440,0.015865,0.017927,0.003795,-8.736689,-35.246559,-23.661016,,,,,,,
1558971474.280457,0.044686,1.292672,-0.551110,-0.006915,0.066040,0.005989,0.012265,-0.961572,-0.274279,0.013294,0.021707,-0.000532,-8.706671,-35.251923,-23.664089,,,,,,,
1558971474.300442,0.046284,1.291902,-0.551646,-0.015522,0.041783,0.012154,0.012737,-0.961360,-0.274998,0.012287,0.021907,-0.007442,-8.662614,-35.250183,-23.682846,,,,,,,
1558971474.320429,0.045875,1.292005,-0.550664,0.033342,0.016175,0.023691,0.012620,-0.961389,-0.274904,0.004897,0.016702,-0.001097,-8.641733,-35.238239,-23.708237,,,,,,,
1558971474.340390,0.045301,1.293735,-0.549978,0.059887,-0.011468,0.009568,0.012387,-0.961864,-0.273249,0.000003,0.009776,0.019312,-8.637873,-35.238483,-23.709270,,,,,,,
1558971474.360357,0.044879,1.295982,-0.550408,0.022563,-0.050436,-0.027134,0.012175,-0.962476,-0.271095,-0.005400,0.004666,0.028755,-8.654738,-35.305012,-23.603920,,,,,,,
1558971474.380344,0.046362,1.296970,-0.553259,-0.034951,-0.070223,-0.031597,0.012532,-0.962743,-0.270126,0.001918,0.006704,0.025787,-8.668245,-35.348026,-23.534485,,,,,,,
1558971474.400326,0.048140,1.297167,-0.556521,-0.044569,-0.078614,-0.022078,0.013004,-0.962796,-0.269915,0.009686,0.008237,0.025774,-8.669789,-35.366470,-23.506184,,,,,,,
1558971474.420315,0.049212,1.297129,-0.559432,-0.025488,-0.103024,-0.021230,0.013295,-0.962786,-0.269937,0.012355,0.010775,0.029092,-8.681077,-35.366615,-23.501804,,,,,,,
1558971474.440303,0.050638,1.299154,-0.564028,0.034867,-0.204819,-0.025362,0.013581,-0.963332,-0.267970,0.014022,0.002409,0.051799,-8.708323,-35.400383,-23.440813,,,,,,,
1558971474.460288,0.049310,1.302307,-0.568116,0.108056,-0.300382,-0.057180,0.013075,-0.964173,-0.264953,-0.003371,-0.012466,0.069365,-8.777478,-35.506966,-23.253061,,,,,,,
1558971474.480273,0.049375,1.304151,-0.574867,0.081395,-0.328827,-0.087368,0.013005,-0.964660,-0.263175,-0.017399,-0.020630,0.071250,-8.824678,-35.538040,-23.187634,,,,,,,
1558971474.500261,0.049721,1.305348,-0.582215,0.075990,-0.358410,-0.097264,0.013038,-0.964975,-0.262017,-0.026741,-0.026236,0.074685,-8.956252,-35.615055,-23.018398,,,,,,,
1558971474.520247,0.049761,1.310167,-0.590597,0.150398,-0.418074,-0.151155,0.012818,-0.966228,-0.257369,-0.023041,-0.030613,0.083907,-9.074567,-35.734207,-22.786217,,,,,,,
1558971474.540218,0.056489,1.313281,-0.606825,0.178025,-0.469073,-0.229560,0.014379,-0.967026,-0.254272,-0.012075,-0.033142,0.090576,-9.113809,-35.783745,-22.692627,,,,,,,
1558971474.560208,0.068149,1.317474,-0.629729,0.267223,-0.569010,-0.303045,0.017066,-0.968085,-0.250040,0.043313,-0.044061,0.134012,-9.183364,-35.978680,-22.353838,,,,,,,
1558971474.580206,0.085569,1.325095,-0.661076,0.408409,-0.708284,-0.345905,0.020788,-0.969967,-0.242347,0.070276,-0.041294,0.166099,-9.205538,-36.208218,-21.970806,,,,,,,
1558971474.600174,0.103144,1.333150,-0.695331,0.436852,-0.818427,-0.388574,0.024239,-0.971895,-0.234165,0.086082,-0.039412,0.177341,-9.237230,-36.332253,-21.751648,,,,,,,
1558971474.620162,0.124189,1.339292,-0.733924,0.283564,-0.831403,-0.415513,0.028421,-0.973322,-0.227675,0.070059,-0.035802,0.165709,-9.327690,-36.705757,-21.075455,,,,,,,
1558971474.640164,0.143822,1.341389,-0.771363,0.103637,-0.845272,-0.426466,0.032592,-0.973801,-0.225053,0.065399,-0.032729,0.136399,-9.378576,-36.868061,-20.767328,,,,,,,
1558971474.660145,0.172669,1.342364,-0.817657,0.177527,-0.778230,-0.573100,0.038907,-0.974023,-0.223083,0.064181,-0.038184,0.079437,-9.385238,-36.964325,-20.592457,,,,,,,
1558971474.680121,0.221191,1.345105,-0.882165,0.319597,-0.697814,-0.725958,0.049096,-0.974640,-0.218329,0.089592,-0.035996,0.088476,-9.190262,-37.221687,-20.213326,,,,,,,
1558971474.700122,0.274013,1.348015,-0.952055,0.324456,-0.822515,-0.690848,0.059787,-0.975287,-0.212701,0.093229,-0.028482,0.099526,-8.941934,-37.485641,-19.833351,,,,,,,
1558971474.720103,0.313706,1.348851,-1.011508,0.165193,-0.969490,-0.577077,0.067928,-0.975471,-0.209385,0.072331,0.003868,0.083103,-8.855122,-37.606697,-19.642216,,,,,,,
1558971474.740086,0.343450,1.347853,-1.063429,0.158417,-1.082538,-0.565352,0.074453,-0.975251,-0.208189,0.020518,0.014649,-0.011035,-8.772131,-37.858326,-19.190891,,,,,,,
1558971474.760081,0.382017,1.348383,-1.124768,0.331209,-1.018044,-0.654279,0.082232,-0.975368,-0.204684,-0.007968,0.008190,-0.036100,-8.747687,-37.992767,-18.934649,,,,,,,
1558971474.780048,0.430986,1.350447,-1.194108,0.422100,-0.894856,-0.657298,0.091312,-0.975821,-0.198583,-0.036960,-0.003763,-0.044260,-8.662924,-38.170223,-18.613998,,,,,,,
1558971474.800033,0.485517,1.352866,-1.267300,0.490456,-0.824393,-0.655501,0.100897,-0.976347,-0.191223,-0.027640,0.016935,-0.000656,-8.388305,-38.573467,-17.894617,,,,,,,
1558971474.820039,0.538781,1.357275,-1.341533,0.656559,-1.077706,-0.530743,0.108725,-0.977291,-0.181884,-0.025428,0.030208,0.008498,-8.228248,-38.865936,-17.327091,,,,,,,
1558971474.840026,0.585474,1.366300,-1.415395,0.852174,-1.387087,-0.332830,0.112217,-0.979163,-0.169252,-0.083744,0.006950,-0.011900,-8.242240,-39.108288,-16.766052,,,,,,,
1558971474.860012,0.629136,1.376424,-1.488143,0.785292,-1.324347,-0.316268,0.113659,-0.981169,-0.156170,-0.122494,-0.013445,-0.025532,-8.486622,-39.515514,-15.652311,,,,,,,
1558971474.879998,0.680073,1.383200,-1.564791,0.666721,-1.164239,-0.399175,0.117279,-0.982455,-0.145007,-0.100784,-0.029919,-0.028791,-8.592010,-39.801373,-14.849967,,,,,,,
1558971474.899985,0.735553,1.387197,-1.643714,0.618153,-1.058332,-0.432365,0.122504,-0.983193,-0.135368,-0.073813,-0.003547,-0.024834,-8.596729,-39.995140,-14.317067,,,,,,,
1558971474.919939,0.794415,1.390565,-1.725011,0.640426,-1.060490,-0.383256,0.127892,-0.983802,-0.125606,-0.013496,0.007347,-0.012593,-8.537068,-40.303043,-13.463907,,,,,,,
1558971474.939939,0.845321,1.394690,-1.797820,0.597743,-1.021986,-0.230248,0.131080,-0.984533,-0.116242,0.015603,0.017904,-0.007782,-8.535015,-40.472168,-12.947990,,,,,,,
1558971474.959943,0.895372,1.400361,-1.869199,0.706204,-1.028804,-0.167235,0.132372,-0.985511,-0.106046,0.032194,0.024055,-0.020175,-8.613197,-40.663689,-12.278858,,,,,,,
1558971474.979930,0.954868,1.407942,-1.951929,0.773791,-1.143155,-0.058308,0.132341,-0.986769,-0.093668,-0.026017,-0.000033,-0.045233,-8.779333,-40.913330,-11.292296,,,,,,,
1558971474.999890,0.993573,1.414899,-2.012859,0.445284,-0.966862,0.048813,0.130111,-0.987873,-0.084729,-0.091842,-0.033505,-0.073352,-8.951718,-41.034779,-10.700798,,,,,,,
1558971475.019901,0.991385,1.418153,-2.024980,0.029251,-0.561868,0.106806,0.127234,-0.988373,-0.083253,-0.090171,-0.035614,-0.084472,-9.132481,-41.098007,-10.297815,,,,,,,
1558971475.039889,0.964254,1.419807,-2.005375,-0.111576,-0.303117,0.174296,0.123586,-0.988623,-0.085742,-0.121709,-0.027353,-0.110181,-9.442406,-41.072697,-10.117708,,,,,,,
1558971475.059852,0.933203,1.421978,-1.978795,-0.071020,-0.248292,0.223965,0.119139,-0.988947,-0.088259,-0.121642,-0.017813,-0.113340,-9.595745,-41.029152,-10.150062,,,,,,,
1558971475.079860,0.905622,1.425708,-1.957018,0.014944,-0.317419,0.244725,0.113757,-0.989493,-0.089234,-0.133181,-0.017770,-0.115188,-9.837847,-40.972614,-10.146682,,,,,,,
1558971475.099846,0.889603,1.429339,-1.945384,0.057166,-0.140186,0.162111,0.109521,-0.990012,-0.088782,-0.108590,-0.005151,-0.101632,-10.134912,-40.924828,-10.046663,,,,,,,
1558971475.119832,0.881059,1.432387,-1.937895,0.052243,-0.026027,0.146118,0.106430,-0.990437,-0.087793,-0.089599,0.014057,-0.083471,-10.245667,-40.909538,-9.996470,,,,,,,
1558971475.139818,0.872614,1.435085,-1.929447,0.038542,0.011025,0.135785,0.103638,-0.990805,-0.086971,-0.093124,0.020453,-0.084416,-10.339878,-40.894753,-9.959896,,,,,,,
1558971475.159804,0.871066,1.437090,-1.928273,0.079942,-0.062251,0.051840,0.101983,-0.991075,-0.085852,-0.078927,0.028260,-0.062677,-10.448687,-40.874924,-9.927707,,,,,,,
1558971475.179791,0.877326,1.438944,-1.937323,0.120045,-0.175588,0.034773,0.101105,-0.991320,-0.084037,-0.028625,0.062655,-0.039849,-10.534056,-40.883198,-9.802602,,,,,,,
1558971475.199756,0.867687,1.441034,-1.931781,0.146567,-0.180951,0.076381,0.098710,-0.991593,-0.083668,-0.023102,0.066178,-0.033306,-10.587448,-40.895939,-9.691313,,,,,,,
1558971475.219763,0.870885,1.444345,-1.938640,0.139067,-0.189348,0.090174,0.096465,-0.992016,-0.081237,-0.066176,0.049221,-0.045915,-10.761969,-40.877129,-9.577776,,,,,,,
1558971475.239750,0.845343,1.447437,-1.917662,0.148526,-0.235955,0.058780,0.092063,-0.992401,-0.081638,-0.053077,0.044021,-0.051769,-10.976588,-40.831409,-9.529126,,,,,,,
1558971475.259724,0.847862,1.450845,-1.925667,0.141880,-0.286565,0.120214,0.089732,-0.992814,-0.079168,-0.039149,0.037553,-0.045252,-11.026415,-40.838520,-9.440690,,,,,,,
1558971475.279700,0.812901,1.454631,-1.896227,0.109015,-0.231396,0.143142,0.084179,-0.993260,-0.079672,-0.047970,0.020436,-0.050928,-11.351481,-40.787392,-9.275023,,,,,,,
1558971475.299708,0.797932,1.458127,-1.884960,0.053768,-0.178187,0.188448,0.080491,-0.993660,-0.078498,-0.045091,0.015281,-0.045434,-11.518623,-40.767277,-9.156642,,,,,,,
1558971475.319686,0.745903,1.461231,-1.836761,0.001571,-0.194856,0.169035,0.074206,-0.994004,-0.080312,-0.046725,0.013810,-0.038982,-11.612299,-40.749752,-9.116240,,,,,,,
1558971475.339682,0.716832,1.462887,-1.811548,-0.043135,-0.199926,0.156139,0.070759,-0.994183,-0.081195,-0.046650,0.002072,-0.036557,-11.970461,-40.643349,-9.127964,,,,,,,
1558971475.359667,0.657403,1.463724,-1.755895,-0.075976,-0.167047,0.115862,0.065303,-0.994273,-0.084595,-0.046855,-0.005940,-0.041748,-12.226535,-40.551384,-9.197289,,,,,,,
1558971475.379653,0.632431,1.463051,-1.733068,-0.105439,-0.086638,0.063226,0.063566,-0.994201,-0.086739,-0.036268,-0.003922,-0.042336,-12.284081,-40.530724,-9.211667,,,,,,,
1558971475.399639,0.586760,1.461400,-1.688139,-0.048783,-0.012931,0.071495,0.060448,-0.994022,-0.090917,-0.015420,-0.000775,-0.026103,-12.429239,-40.453396,-9.355776,,,,,,,
1558971475.419625,0.558338,1.462222,-1.660841,0.043581,-0.089535,0.063366,0.057407,-0.994112,-0.091905,-0.020114,-0.012617,-0.012237,-12.474209,-40.426754,-9.410905,,,,,,,
1558971475.439586,0.537142,1.463918,-1.642179,0.062704,-0.120359,0.017183,0.054584,-0.994294,-0.091652,-0.021380,-0.017394,-0.014458,-12.677849,-40.364410,-9.406383,,,,,,,
1558971475.459579,0.527613,1.464622,-1.634304,0.015080,-0.046156,-0.007766,0.053355,-0.994369,-0.091564,-0.009380,-0.016358,-0.008137,-12.778120,-40.345863,-9.350093,,,,,,,
1558971475.479564,0.524040,1.463664,-1.631122,-0.024169,-0.005791,-0.012750,0.053504,-0.994267,-0.092578,0.002114,-0.010830,-0.012052,-12.794241,-40.340057,-9.353102,,,,,,,
1558971475.499547,0.523828,1.462905,-1.630388,-0.002722,0.046962,-0.002620,0.053863,-0.994185,-0.093243,0.003816,-0.004014,-0.001483,-12.784107,-40.329460,-9.412481,,,,,,,
1558971475.519554,0.529599,1.463831,-1.635483,0.063144,0.007509,-0.000809,0.053935,-0.994285,-0.092137,0.003728,-0.007043,0.006016,-12.771112,-40.334267,-9.409505,,,,,,,
1558971475.539518,0.544989,1.465113,-1.651689,0.094930,-0.051896,-0.031248,0.054685,-0.994421,-0.090205,0.016863,-0.003290,0.000026,-12.743661,-40.363316,-9.321753,,,,,,,
1558971475.559528,0.559727,1.465812,-1.667134,0.046057,-0.014613,-0.010647,0.055640,-0.994494,-0.088800,0.019556,-0.001661,0.001169,-12.736306,-40.375637,-9.278358,,,,,,,
1558971475.579497,0.567370,1.465462,-1.674341,0.003630,0.035302,-0.002732,0.056503,-0.994457,-0.088666,0.012054,-0.001606,-0.002551,-12.684135,-40.403206,-9.229675,,,,,,,
1558971475.599476,0.571351,1.465438,-1.678134,0.035389,-0.009231,0.016082,0.056869,-0.994455,-0.088460,0.015397,0.005960,-0.010646,-12.647039,-40.413136,-9.237108,,,,,,,
1558971475.619487,0.575209,1.466586,-1.682300,0.105558,-0.019058,0.052342,0.056589,-0.994575,-0.087283,0.016638,0.002952,-0.012037,-12.655962,-40.414600,-9.218458,,,,,,,
1558971475.639474,0.578648,1.468935,-1.686605,0.132066,-0.048789,0.055280,0.055611,-0.994817,-0.085131,0.000633,-0.007182,-0.007367,-12.694659,-40.429340,-9.099861,,,,,,,
1558971475.659460,0.584153,1.471063,-1.692420,0.094051,0.018976,-0.000686,0.054911,-0.995031,-0.083057,-0.008204,-0.005106,-0.004162,-12.739221,-40.436230,-9.006493,,,,,,,
1558971475.679445,0.597456,1.471973,-1.704919,0.067552,0.043393,-0.022895,0.055502,-0.995121,-0.081571,0.005213,-0.002392,-0.001467,-12.728919,-40.449020,-8.963526,,,,,,,
1558971475.699432,0.611210,1.472739,-1.718037,0.083446,0.030657,-0.001653,0.056181,-0.995196,-0.080176,0.006273,0.004657,-0.002618,-12.687034,-40.474697,-8.906836,,,,,,,
1558971475.719418,0.623634,1.474653,-1.730171,0.120668,0.015648,-0.011375,0.056060,-0.995382,-0.077926,-0.007949,0.006414,0.001021,-12.683720,-40.492119,-8.832048,,,,,,,
1558971475.739403,0.640196,1.476656,-1.746507,0.116439,0.023065,-0.014509,0.056152,-0.995572,-0.075387,-0.009063,0.000821,0.002038,-12.676928,-40.504616,-8.784369,,,,,,,
1558971475.759365,0.653067,1.478573,-1.758977,0.058983,0.025462,-0.026274,0.055958,-0.995750,-0.073142,-0.012607,0.004204,0.009314,-12.673274,-40.535492,-8.646120,,,,,,,
1558971475.779376,0.662121,1.478678,-1.767108,-0.000437,0.070124,-0.055786,0.056553,-0.995760,-0.072550,-0.007558,0.012499,0.002314,-12.671968,-40.543335,-8.611187,,,,,,,
1558971475.799335,0.670472,1.478161,-1.773618,0.009172,0.095497,-0.019236,0.057477,-0.995712,-0.072479,0.013522,0.017716,0.005920,-12.636995,-40.551891,-8.622291,,,,,,,
1558971475.819342,0.690645,1.479645,-1.792596,0.095174,0.036941,0.002692,0.057986,-0.995849,-0.070166,0.000058,0.020614,0.026571,-12.579998,-40.573620,-8.603408,,,,,,,
1558971475.839322,0.717531,1.481854,-1.819248,0.069498,-0.000967,0.008714,0.058405,-0.996047,-0.066924,0.012609,0.019469,0.028777,-12.568907,-40.602825,-8.480950,,,,,,,
1558971475.859302,0.726646,1.482724,-1.828610,0.005567,-0.017532,0.015976,0.058437,-0.996124,-0.065741,0.013722,0.021042,0.026343,-12.568907,-40.602825,-8.480950,,,,,,,
1558971475.879279,0.739620,1.483211,-1.841856,-0.014579,-0.011137,-0.019212,0.058958,-0.996167,-0.064619,0.004717,0.019192,0.018293,-12.550609,-40.632416,-8.365554,,,,,,,
1558971475.899289,0.752300,1.482985,-1.854699,0.001338,-0.019651,-0.002201,0.059927,-0.996147,-0.064031,0.017222,0.021751,0.014058,-12.515116,-40.651581,-8.325541,,,,,,,
1558971475.919269,0.755541,1.483375,-1.858827,0.024565,-0.060940,0.035857,0.059867,-0.996181,-0.063553,0.016228,0.021663,0.010544,-12.515116,-40.651581,-8.325541,,,,,,,
1558971475.939266,0.755761,1.484289,-1.860271,0.036230,-0.057776,0.072193,0.059257,-0.996261,-0.062878,-0.000343,0.016982,0.001125,-12.497013,-40.668613,-8.269336,,,,,,,
1558971475.959253,0.741926,1.485792,-1.847164,-0.008339,-0.023745,0.054335,0.057369,-0.996389,-0.062587,-0.015423,0.007696,0.003307,-12.570037,-40.656475,-8.218181,,,,,,,
1558971475.979238,0.732789,1.486290,-1.838058,-0.015682,-0.002604,0.028909,0.056463,-0.996431,-0.062740,-0.001303,0.002565,0.004833,-12.640930,-40.635639,-8.212505,,,,,,,
1558971475.999226,0.730762,1.487106,-1.836733,0.033120,-0.056782,0.019890,0.055793,-0.996500,-0.062249,-0.006919,0.001963,0.005715,-12.673446,-40.627934,-8.200492,,,,,,,
1558971476.019210,0.733060,1.488374,-1.840331,0.041642,-0.058953,0.011336,0.055090,-0.996605,-0.061181,-0.007330,0.003777,0.002892,-12.686007,-40.627132,-8.185022,,,,,,,
1558971476.039197,0.731153,1.488649,-1.839440,-0.019005,-0.050179,0.011371,0.054791,-0.996628,-0.061083,0.000522,0.001083,-0.000639,-12.731578,-40.629101,-8.104094,,,,,,,
1558971476.059184,0.716068,1.488193,-1.825016,-0.059350,-0.019318,0.008433,0.054161,-0.996590,-0.062245,-0.012016,0.002175,-0.003002,-12.756553,-40.616859,-8.126163,,,,,,,
1558971476.079160,0.705145,1.487720,-1.814244,-0.025244,-0.008937,0.002155,0.053783,-0.996551,-0.063191,-0.003215,-0.000122,-0.001827,-12.781529,-40.601913,-8.161520,,,,,,,
1558971476.099155,0.705966,1.488000,-1.815793,0.029964,-0.051502,0.006062,0.053655,-0.996574,-0.062935,0.000606,-0.002068,0.002586,-12.789546,-40.597111,-8.172856,,,,,,,
1558971476.119143,0.709943,1.488906,-1.821007,0.030987,-0.061010,0.013446,0.053316,-0.996649,-0.062036,-0.001299,0.000616,0.007273,-12.809517,-40.602257,-8.115803,,,,,,,
1558971476.139127,0.706039,1.489252,-1.818072,-0.020040,-0.040660,0.012533,0.052849,-0.996677,-0.061981,-0.007668,-0.000576,0.005310,-12.836127,-40.600811,-8.080890,,,,,,,
1558971476.159113,0.697807,1.488856,-1.810350,-0.049760,-0.022560,-0.004399,0.052591,-0.996645,-0.062717,-0.008737,-0.001158,0.006885,-12.843341,-40.597343,-8.086864,,,,,,,
1558971476.179101,0.692967,1.488357,-1.805945,-0.027431,-0.026894,0.003051,0.052604,-0.996604,-0.063353,0.003090,0.010764,0.002806,-12.857372,-40.586025,-8.121328,,,,,,,
1558971476.199087,0.691112,1.488227,-1.804785,0.000202,-0.039722,0.004017,0.052570,-0.996593,-0.063551,0.005048,0.009609,0.001570,-12.858599,-40.585178,-8.123616,,,,,,,
1558971476.219061,0.689288,1.488185,-1.803858,-0.006231,-0.050248,0.011384,0.052480,-0.996590,-0.063678,0.004466,0.011269,-0.000805,-12.863573,-40.584724,-8.118013,,,,,,,
1558971476.239041,0.681476,1.488132,-1.797204,0.006484,-0.055560,0.038034,0.052014,-0.996585,-0.064128,0.001102,0.011386,-0.007299,-12.886471,-40.578892,-8.110867,,,,,,,
1558971476.259046,0.673844,1.489237,-1.790146,0.050209,-0.016636,0.068335,0.050837,-0.996676,-0.063663,0.001318,0.010653,-0.007642,-12.931822,-40.567299,-8.096647,,,,,,,
1558971476.279009,0.671184,1.490802,-1.787746,0.057655,-0.025153,0.053312,0.049697,-0.996802,-0.062576,0.002442,0.009757,-0.001679,-12.960327,-40.562794,-8.073603,,,,,,,
1558971476.299017,0.671896,1.492628,-1.789499,0.054333,-0.065305,0.051857,0.048608,-0.996946,-0.061116,0.000327,0.002913,0.010136,-13.031344,-40.557209,-7.986877,,,,,,,
1558971476.319004,0.667134,1.493927,-1.786190,0.017058,-0.078876,0.034616,0.047515,-0.997047,-0.060329,-0.005858,0.002235,0.006923,-13.086509,-40.553188,-7.916807,,,,,,,
1558971476.338978,0.661221,1.493734,-1.781650,-0.043495,-0.059590,-0.004751,0.047276,-0.997032,-0.060761,-0.000416,-0.000481,0.002396,-13.104422,-40.550186,-7.902525,,,,,,,
1558971476.358954,0.645605,1.492169,-1.766908,-0.072187,-0.039342,0.005028,0.047260,-0.996910,-0.062738,0.000729,0.014138,-0.012717,-13.118168,-40.537212,-7.946165,,,,,,,
1558971476.378963,0.630796,1.490496,-1.752879,-0.034945,-0.040589,0.009315,0.047309,-0.996778,-0.064777,0.008874,0.025464,-0.020154,-13.128016,-40.520142,-8.016651,,,,,,,
1558971476.398938,0.625534,1.489712,-1.748084,0.003459,-0.014365,0.009595,0.047426,-0.996714,-0.065660,0.019087,0.031733,-0.026458,-13.115496,-40.513153,-8.072294,,,,,,,
1558971476.418921,0.624500,1.488698,-1.747131,0.037528,-0.001805,0.043947,0.047949,-0.996632,-0.066529,0.022867,0.037663,-0.023727,-13.115097,-40.510349,-8.086977,,,,,,,
1558971476.438921,0.625120,1.489344,-1.748148,0.076807,-0.032662,0.045815,0.047613,-0.996685,-0.065977,0.025248,0.042034,-0.026431,-13.104239,-40.512463,-8.093996,,,,,,,
1558971476.458881,0.628309,1.491348,-1.752448,0.094784,-0.067634,0.048698,0.046649,-0.996846,-0.064208,0.059979,0.046635,-0.044205,-13.135946,-40.513954,-8.034902,,,,,,,
1558971476.478869,0.622900,1.493347,-1.748534,0.052109,-0.078980,0.086990,0.045138,-0.997002,-0.062841,0.066739,0.049157,-0.083750,-13.208676,-40.511875,-7.925413,,,,,,,
1558971476.498880,0.605051,1.491940,-1.732746,0.049805,-0.125464,0.095076,0.044807,-0.996892,-0.064790,0.067406,0.045827,-0.102142,-13.229909,-40.495136,-7.975390,,,,,,,
1558971476.518866,0.601361,1.494505,-1.732796,0.152737,-0.239156,0.060973,0.043121,-0.997091,-0.062846,0.104203,0.028372,-0.205205,-13.299182,-40.486141,-7.905538,,,,,,,
1558971476.538852,0.623132,1.498562,-1.762171,0.263839,-0.469199,0.002275,0.042118,-0.997392,-0.058607,0.119656,0.024660,-0.336641,-13.404137,-40.506142,-7.620683,,,,,,,
1558971476.558838,0.675913,1.502582,-1.825667,0.292576,-0.511767,-0.088859,0.042643,-0.997674,-0.053175,0.111059,0.007303,-0.468187,-13.454212,-40.557789,-7.248668,,,,,,,
1558971476.578824,0.733528,1.504108,-1.890742,0.116741,-0.265675,-0.128283,0.044614,-0.997777,-0.049501,0.101229,-0.000712,-0.577391,-13.441025,-40.606663,-6.995077,,,,,,,
1558971476.598811,0.752604,1.501519,-1.912270,-0.127313,-0.042463,-0.157304,0.047315,-0.997601,-0.050525,0.088198,0.013974,-0.678082,-13.342584,-40.659382,-6.876309,,,,,,,
1558971476.618766,0.757617,1.496004,-1.915808,-0.217089,0.145011,-0.216437,0.051349,-0.997204,-0.054284,0.066571,0.011838,-0.750602,-13.235260,-40.677891,-6.973583,,,,,,,
1558971476.638782,0.761368,1.489691,-1.913646,-0.231081,0.426264,-0.207351,0.055894,-0.996713,-0.058647,0.052398,0.006143,-0.775048,-13.089695,-40.697155,-7.134063,,,,,,,
1558971476.658770,0.782551,1.484240,-1.920507,-0.147620,0.881399,-0.206130,0.060954,-0.996256,-0.061302,0.018346,-0.004064,-0.768151,-12.722076,-40.732430,-7.583609,,,,,,,
1558971476.678742,0.814224,1.479763,-1.929586,-0.132507,1.280908,-0.179874,0.066107,-0.995859,-0.062402,-0.052481,0.020106,-0.686301,-12.486992,-40.754475,-7.851198,,,,,,,
1558971476.698741,0.844812,1.475217,-1.930756,-0.135856,1.565288,-0.162208,0.071370,-0.995436,-0.063356,-0.083684,0.021925,-0.619277,-12.223493,-40.771694,-8.169981,,,,,,,
1558971476.718729,0.886795,1.471323,-1.939307,-0.084141,1.741497,-0.189306,0.076970,-0.995057,-0.062754,-0.136052,0.017991,-0.412573,-11.611033,-40.800949,-8.885931,,,,,,,
1558971476.738706,0.925552,1.467158,-1.940904,-0.152768,1.933243,-0.144820,0.082654,-0.994634,-0.062216,-0.127286,0.011816,-0.272196,-11.254819,-40.819740,-9.250464,,,,,,,
1558971476.758699,0.950485,1.464066,-1.925095,-0.144913,2.110958,-0.024604,0.086681,-0.994310,-0.061923,-0.165218,0.008500,-0.209912,-10.893306,-40.822216,-9.663133,,,,,,,
1558971476.778687,0.958268,1.463301,-1.889351,-0.220527,2.169718,0.127504,0.087784,-0.994228,-0.061685,-0.245407,0.006603,-0.009925,-10.446518,-40.800385,-10.231916,,,,,,,
1558971476.798672,0.931929,1.461259,-1.819996,-0.476228,2.102359,0.129857,0.087757,-0.994007,-0.065185,-0.295170,0.006275,0.065994,-9.990358,-40.709530,-11.019090,,,,,,,
1558971476.818658,0.878167,1.456262,-1.722420,-0.605794,2.207728,0.159588,0.087949,-0.993448,-0.072977,-0.312299,0.001383,0.139094,-9.613309,-40.569439,-11.840544,,,,,,,
1558971476.838645,0.822091,1.452361,-1.619927,-0.546957,2.367260,0.315971,0.086560,-0.992995,-0.080430,-0.327664,0.013564,0.211808,-9.117294,-40.340157,-12.963031,,,,,,,
1558971476.858632,0.758114,1.450690,-1.505919,-0.572361,2.474358,0.454702,0.082381,-0.992796,-0.087004,-0.352919,0.030302,0.276060,-8.854961,-40.184982,-13.610669,,,,,,,
1558971476.878616,0.685588,1.447307,-1.383857,-0.614096,2.399503,0.436870,0.077986,-0.992385,-0.095344,-0.356459,0.021438,0.324668,-8.608870,-40.006264,-14.278641,,,,,,,
1558971476.898581,0.625052,1.443956,-1.275595,-0.465339,2.316272,0.435125,0.074021,-0.991967,-0.102584,-0.318314,0.015358,0.465560,-8.060851,-39.630085,-15.587572,,,,,,,
1558971476.918590,0.596076,1.446778,-1.201552,0.103584,2.161137,0.478937,0.069445,-0.992320,-0.102368,-0.322055,-0.014608,0.584668,-7.697762,-39.466408,-16.175301,,,,,,,
1558971476.938557,0.632366,1.462355,-1.198259,0.934024,1.867107,0.449028,0.063969,-0.994126,-0.087301,-0.323064,-0.031494,0.634283,-7.542441,-39.463345,-16.255747,,,,,,,
1558971476.958533,0.780958,1.487480,-1.314172,1.487563,1.503621,0.357378,0.058583,-0.996531,-0.059106,-0.333073,-0.061940,0.877419,-7.183116,-39.841656,-15.477033,,,,,,,
1558971476.978549,1.120427,1.511578,-1.631305,1.639036,0.928789,0.305020,0.053283,-0.998247,-0.025763,-0.324889,-0.081892,0.988486,-7.057584,-40.263767,-14.405316,,,,,,,
1558971476.998509,1.703546,1.522840,-2.203188,1.508683,0.449565,0.287517,0.047517,-0.998850,0.006345,-0.336961,-0.089559,1.011477,-7.059658,-40.472752,-13.806190,,,,,,,
1558971477.018519,2.210308,1.518018,-2.704078,1.055766,0.267939,0.229898,0.042329,-0.998608,0.031484,-0.392671,-0.061894,1.055812,-7.225507,-40.971725,-12.149201,,,,,,,
1558971477.038508,2.448085,1.510609,-2.939343,0.562299,0.052690,0.164452,0.038450,-0.998189,0.046256,-0.408293,-0.021449,0.996835,-7.347142,-41.144352,-11.474119,,,,,,,
1558971477.058491,2.545771,1.505765,-3.040745,0.314173,-0.344641,0.069700,0.036469,-0.997886,0.053788,-0.410935,-0.001854,0.953292,-7.409139,-41.191750,-11.262225,,,,,,,
1558971477.078479,2.578462,1.501445,-3.087109,0.233786,-0.873907,-0.014437,0.036993,-0.997596,0.058596,-0.378088,0.047691,0.808775,-7.619679,-41.283039,-10.777031,,,,,,,
1558971477.098466,2.577609,1.498818,-3.108921,0.096236,-1.256844,0.009547,0.038443,-0.997411,0.060778,-0.376226,0.054891,0.683317,-7.830389,-41.324352,-10.463087,,,,,,,
1558971477.118438,2.553768,1.499067,-3.113223,-0.057799,-1.477985,0.024389,0.039744,-0.997429,0.059639,-0.385905,0.053199,0.617516,-7.969876,-41.331276,-10.329571,,,,,,,
1558971477.138425,2.501734,1.501827,-3.091405,-0.231416,-1.515142,0.013218,0.041147,-0.997623,0.055281,-0.375208,0.027820,0.446412,-8.444425,-41.303040,-10.061983,,,,,,,
1558971477.158423,2.393498,1.508241,-3.012971,-0.516636,-1.500975,0.002448,0.042524,-0.998044,0.045822,-0.360212,0.018674,0.347321,-8.754962,-41.232914,-10.084203,,,,,,,
1558971477.178394,2.212049,1.515757,-2.863505,-0.568403,-1.719551,-0.028512,0.044082,-0.998486,0.032907,-0.359405,0.012844,0.305151,-8.907800,-41.178391,-10.172748,,,,,,,
1558971477.198370,2.016871,1.519377,-2.707391,-0.373750,-2.111747,-0.081222,0.046368,-0.998678,0.022174,-0.316982,-0.007059,0.161084,-9.412127,-41.025635,-10.334528,,,,,,,
1558971477.218381,1.849475,1.519779,-2.584759,-0.275341,-2.296202,-0.093585,0.049028,-0.998699,0.014028,-0.266511,-0.019688,0.068522,-9.790361,-40.976082,-10.178556,,,,,,,
1558971477.238368,1.686184,1.519525,-2.467093,-0.315763,-2.268446,-0.051713,0.050908,-0.998686,0.005900,-0.241063,-0.015032,0.032247,-9.985937,-40.957272,-10.063612,,,,,,,
1558971477.258357,1.500507,1.519358,-2.326077,-0.390254,-2.237323,0.000839,0.051290,-0.998677,-0.003611,-0.197271,-0.024638,-0.105154,-10.605092,-40.874157,-9.763646,,,,,,,
1558971477.278318,1.300813,1.517975,-2.170792,-0.415810,-2.246724,-0.014218,0.050884,-0.998605,-0.014082,-0.173733,-0.044379,-0.170717,-11.040414,-40.794998,-9.610968,,,,,,,
1558971477.298328,1.116280,1.514177,-2.033346,-0.421776,-2.462389,-0.057926,0.050843,-0.998398,-0.024844,-0.163224,-0.044174,-0.212827,-11.248364,-40.757450,-9.528804,,,,,,,
1558971477.318315,0.944918,1.508456,-1.912932,-0.484938,-2.570929,-0.057947,0.050491,-0.998057,-0.036496,-0.097061,-0.037923,-0.346805,-11.875542,-40.655663,-9.196818,,,,,,,
1558971477.338301,0.776245,1.501012,-1.793442,-0.571764,-2.403377,0.001240,0.048852,-0.997566,-0.049754,-0.076607,-0.018822,-0.429036,-12.301287,-40.570621,-9.010899,,,,,,,
1558971477.358286,0.624651,1.492852,-1.686746,-0.547629,-2.165611,0.045173,0.045537,-0.996964,-0.063162,-0.072880,-0.021148,-0.460077,-12.519045,-40.517715,-8.948856,,,,,,,
1558971477.378273,0.525828,1.484897,-1.627026,-0.405915,-1.849413,-0.062723,0.043063,-0.996313,-0.074204,-0.080416,0.010168,-0.521469,-13.112246,-40.368790,-8.770605,,,,,,,
1558971477.398259,0.485782,1.478522,-1.621827,-0.221174,-1.715229,-0.158446,0.043022,-0.995746,-0.081483,-0.014030,0.011111,-0.534163,-13.331392,-40.339676,-8.571935,,,,,,,
1558971477.418245,0.463288,1.474338,-1.633833,-0.142448,-1.713478,-0.124202,0.043040,-0.995351,-0.086157,0.015355,0.023397,-0.554834,-13.412488,-40.343788,-8.424818,,,,,,,
1558971477.438219,0.429858,1.471392,-1.631432,-0.144837,-1.424734,-0.014631,0.041358,-0.995063,-0.090212,0.003183,0.035118,-0.550062,-13.694702,-40.350449,-7.924018,,,,,,,
1558971477.458196,0.396713,1.468381,-1.621059,-0.171003,-0.973278,-0.031684,0.039503,-0.994760,-0.094296,0.005037,0.034814,-0.545978,-13.844886,-40.334202,-7.743698,,,,,,,
1558971477.478177,0.381670,1.463799,-1.621453,-0.222107,-0.691974,-0.118715,0.039778,-0.994281,-0.099109,0.044359,0.039630,-0.467465,-13.937362,-40.321041,-7.645720,,,,,,,
1558971477.498175,0.385174,1.460486,-1.637349,-0.028981,-0.570429,-0.154765,0.041362,-0.993922,-0.102021,0.072988,0.041652,-0.382644,-13.949757,-40.328529,-7.583369,,,,,,,
1558971477.518163,0.413577,1.462323,-1.676282,0.282145,-0.482225,-0.159010,0.043508,-0.994123,-0.099133,0.074869,0.038083,-0.340671,-13.915571,-40.367188,-7.439122,,,,,,,
1558971477.538135,0.460367,1.467563,-1.731887,0.367584,-0.394936,-0.154903,0.045782,-0.994676,-0.092321,0.083063,0.046144,-0.258098,-13.872090,-40.430508,-7.171658,,,,,,,
1558971477.558142,0.503423,1.471108,-1.782446,0.202711,-0.347527,-0.132161,0.048013,-0.995035,-0.087176,0.076484,0.072992,-0.195142,-13.768173,-40.562782,-6.602376,,,,,,,
1558971477.578122,0.526733,1.471412,-1.812568,0.030335,-0.323359,-0.126729,0.049880,-0.995065,-0.085772,0.064149,0.062265,-0.161863,-13.711524,-40.613796,-6.403673,,,,,,,
1558971477.598104,0.544282,1.470151,-1.835497,0.004033,-0.231268,-0.131207,0.052027,-0.994940,-0.085957,0.061804,0.050543,-0.142986,-13.711524,-40.613796,-6.403673,,,,,,,
1558971477.618107,0.560749,1.469062,-1.856324,0.014741,-0.200634,-0.106350,0.054011,-0.994830,-0.086006,0.070012,0.048281,-0.109444,-13.604168,-40.668591,-6.283760,,,,,,,
1558971477.638094,0.576958,1.468900,-1.876342,0.075444,-0.180833,-0.081556,0.055486,-0.994813,-0.085254,0.039500,0.041963,-0.084210,-13.514535,-40.715355,-6.173381,,,,,,,
1558971477.658079,0.596304,1.469761,-1.899189,0.101072,-0.150295,-0.068431,0.056644,-0.994900,-0.083457,0.031765,0.042477,-0.075189,-13.514535,-40.715355,-6.173381,,,,,,,
1558971477.678067,0.606750,1.469897,-1.911873,-0.010537,-0.086240,-0.035878,0.057435,-0.994914,-0.082749,0.025222,0.026256,-0.033935,-13.442908,-40.770947,-5.959165,,,,,,,
1558971477.698053,0.596756,1.467926,-1.903288,-0.154225,-0.068533,-0.009133,0.057708,-0.994713,-0.084941,0.018129,0.026879,-0.020955,-13.430522,-40.769688,-5.995582,,,,,,,
1558971477.718038,0.573572,1.465108,-1.881101,-0.182994,-0.057748,0.033654,0.057244,-0.994420,-0.088610,0.017555,0.025716,-0.024687,-13.433508,-40.760151,-6.053462,,,,,,,
1558971477.738006,0.550686,1.463165,-1.859822,-0.111823,-0.102516,0.034350,0.056212,-0.994213,-0.091543,-0.002104,0.020001,-0.035762,-13.488985,-40.714893,-6.232049,,,,,,,
1558971477.757984,0.544561,1.462472,-1.855598,0.005401,-0.086296,-0.016648,0.056007,-0.994139,-0.092475,-0.021888,0.013426,-0.039392,-13.513017,-40.702240,-6.262558,,,,,,,
1558971477.777996,0.552660,1.463151,-1.864848,0.075821,-0.036989,-0.018255,0.056400,-0.994212,-0.091443,-0.016437,0.020549,-0.031329,-13.509355,-40.706295,-6.244063,,,,,,,
1558971477.797983,0.559493,1.465186,-1.872040,0.119487,-0.003306,0.040822,0.055949,-0.994428,-0.089341,-0.010631,0.019132,-0.005446,-13.509766,-40.723572,-6.129465,,,,,,,
1558971477.817960,0.564071,1.467599,-1.876635,0.106714,-0.004301,0.037600,0.055074,-0.994680,-0.087056,-0.015707,0.009222,0.010762,-13.546195,-40.725800,-6.033482,,,,,,,
