timestamp(unix),attitude_roll(radians),attitude_pitch(radians),attitude_yaw(radians),rotation_rate_x(radians/s),rotation_rate_y(radians/s),rotation_rate_z(radians/s),gravity_x(G),gravity_y(G),gravity_z(G),user_acc_x(G),user_acc_y(G),user_acc_z(G),magnetic_field_x(microteslas),magnetic_field_y(microteslas),magnetic_field_z(microteslas),latitude(degree),longitude(degree),altitude(meter),speed(m/s),course(degree),timestamp(unix),User Mark
1558971823.731271,-2.259467,1.520692,1.100535,0.092316,-0.013832,-0.045143,-0.038668,-0.998745,0.031828,0.001315,0.006817,-0.007200,-17.111437,-40.755116,5.858203,,,,,,,
1558971823.751247,-2.271531,1.520279,1.113566,0.008424,0.075488,0.015433,-0.038597,-0.998724,0.032559,0.008690,0.004462,0.006748,-17.067188,-40.758827,5.960562,,,,,,,
1558971823.771227,-2.256932,1.520126,1.100310,-0.025729,0.054548,0.029084,-0.039187,-0.998717,0.032089,-0.002103,0.005354,0.002915,-17.087328,-40.753914,5.936423,,,,,,,
1558971823.791238,-2.254819,1.519911,1.098309,0.021933,-0.033484,-0.003750,-0.039421,-0.998706,0.032142,-0.001609,-0.000364,0.001153,-17.108999,-40.748890,5.908428,,,,,,,
1558971823.811213,-2.278406,1.519784,1.120465,0.055909,-0.079177,-0.045798,-0.038748,-0.998699,0.033145,0.011176,0.000286,0.004545,-17.090500,-40.748940,5.961389,,,,,,,
1558971823.831213,-2.299130,1.520191,1.140164,-0.009922,-0.027034,-0.043217,-0.037750,-0.998720,0.033670,0.019242,0.006776,0.009008,-17.054176,-40.757076,6.009578,,,,,,,
1558971823.851199,-2.298151,1.521511,1.139411,-0.058744,0.039890,0.007562,-0.036798,-0.998786,0.032757,0.021402,0.014426,-0.005535,-16.993910,-40.783039,6.004174,,,,,,,
1558971823.871186,-2.259362,1.522094,1.102388,-0.103289,0.107832,0.047679,-0.037591,-0.998814,0.030935,0.009271,0.014332,-0.011068,-17.023273,-40.785389,5.904215,,,,,,,
1558971823.891171,-2.213076,1.523128,1.057663,-0.073634,0.044315,0.026773,-0.038156,-0.998864,0.028544,0.006860,0.008355,-0.013636,-17.059246,-40.783108,5.815434,,,,,,,
1558971823.911158,-2.197556,1.523683,1.041595,0.004862,-0.053390,-0.005061,-0.038143,-0.998890,0.027622,0.004635,-0.001857,-0.014606,-17.067818,-40.793697,5.715203,,,,,,,
1558971823.931145,-2.189230,1.523360,1.032075,0.048478,-0.053596,0.010988,-0.038637,-0.998875,0.027492,-0.013273,-0.008846,-0.007152,-17.064178,-40.792542,5.734233,,,,,,,
1558971823.951130,-2.190618,1.522472,1.033208,0.022052,0.006805,0.019020,-0.039321,-0.998833,0.028061,-0.011064,-0.010094,-0.004913,-17.082872,-40.781338,5.758260,,,,,,,
1558971823.971101,-2.186013,1.521922,1.029210,-0.008679,0.037582,-0.006332,-0.039898,-0.998806,0.028196,-0.013386,-0.001637,0.002352,-17.129799,-40.760609,5.765602,,,,,,,
1558971823.991104,-2.181015,1.522048,1.024380,0.015674,-0.010140,-0.024918,-0.039934,-0.998812,0.027924,-0.001768,-0.002393,-0.006302,-17.137100,-40.759941,5.748586,,,,,,,
1558971824.011065,-2.184576,1.522444,1.027677,0.012479,-0.014366,-0.034569,-0.039511,-0.998831,0.027838,-0.009073,-0.003015,-0.013845,-17.119791,-40.766331,5.754868,,,,,,,
1558971824.031076,-2.190530,1.523178,1.033769,0.015783,0.023683,-0.025662,-0.038748,-0.998866,0.027647,0.004355,0.003185,-0.017454,-17.094910,-40.780128,5.731004,,,,,,,
1558971824.051063,-2.197099,1.524274,1.040859,0.045570,0.023634,-0.013915,-0.037679,-0.998918,0.027260,0.014013,0.017122,-0.017174,-17.068678,-40.793247,5.715863,,,,,,,
1558971824.071032,-2.222380,1.525348,1.066732,0.048793,0.037371,-0.005245,-0.036124,-0.998967,0.027552,0.022300,0.019384,-0.004786,-17.014593,-40.815952,5.714982,,,,,,,
1558971824.091008,-2.238211,1.525527,1.083403,0.020007,0.033325,0.014976,-0.035543,-0.998976,0.028010,0.009497,0.011869,-0.003093,-16.965330,-40.835709,5.720305,,,,,,,
1558971824.111018,-2.226315,1.525502,1.071878,0.027419,0.017414,0.004153,-0.035894,-0.998974,0.027601,-0.008219,0.002637,-0.023786,-16.961348,-40.838314,5.713508,,,,,,,
1558971824.131008,-2.240423,1.524882,1.086178,0.145531,-0.008619,-0.024826,-0.035987,-0.998946,0.028489,-0.004007,-0.007447,0.000701,-16.984713,-40.830517,5.699794,,,,,,,
1558971824.150979,-2.317249,1.522358,1.162162,0.201778,-0.063887,-0.030648,-0.035544,-0.998827,0.032878,-0.004663,-0.010099,0.020070,-16.971775,-40.820335,5.810198,,,,,,,
1558971824.170982,-2.379888,1.520043,1.223566,0.115567,-0.054959,-0.017820,-0.035013,-0.998712,0.036713,-0.001654,-0.008337,0.033630,-16.953934,-40.800526,5.998408,,,,,,,
1558971824.190968,-2.395570,1.519045,1.239099,-0.003453,0.019700,0.011626,-0.035109,-0.998661,0.037989,-0.001985,-0.000454,0.017584,-16.931358,-40.788754,6.140513,,,,,,,
1558971824.210953,-2.380984,1.519880,1.225131,-0.073645,0.029664,-0.020367,-0.035084,-0.998704,0.036868,-0.007991,0.005952,0.013471,-16.941319,-40.785465,6.134919,,,,,,,
1558971824.230940,-2.377400,1.521610,1.221634,-0.055625,-0.013834,-0.064543,-0.034021,-0.998791,0.035495,0.001871,0.018764,-0.005359,-16.931259,-40.797302,6.083715,,,,,,,
1558971824.250927,-2.390780,1.522970,1.234638,0.000750,-0.022574,-0.056041,-0.032616,-0.998857,0.034954,0.017586,0.017823,-0.009441,-16.848095,-40.840332,6.025648,,,,,,,
1558971824.270882,-2.401553,1.523385,1.245169,-0.000317,-0.005599,-0.017444,-0.031959,-0.998876,0.034998,0.021461,0.015249,-0.013331,-16.825712,-40.848930,6.029916,,,,,,,
1558971824.290889,-2.398243,1.524063,1.242303,0.007204,0.033527,0.020302,-0.031615,-0.998908,0.034392,0.015929,0.016425,-0.019393,-16.790768,-40.867260,6.003051,,,,,,,
1558971824.310887,-2.405745,1.523087,1.249846,0.067685,-0.029167,0.012277,-0.032010,-0.998862,0.035351,0.015348,0.016074,-0.011852,-16.810619,-40.855995,6.024169,,,,,,,
1558971824.330861,-2.432586,1.522110,1.275573,0.061278,-0.054564,-0.029610,-0.031687,-0.998815,0.036939,-0.003744,-0.000330,0.012606,-16.807499,-40.848434,6.083818,,,,,,,
1558971824.350855,-2.448417,1.521820,1.291615,-0.058653,0.053886,-0.026532,-0.031283,-0.998801,0.037659,-0.001646,-0.000299,0.016800,-16.780237,-40.850269,6.146415,,,,,,,
1558971824.370845,-2.427134,1.522943,1.271484,-0.087482,0.051072,0.011863,-0.031342,-0.998855,0.036137,-0.002655,0.002685,0.010326,-16.778679,-40.860970,6.079212,,,,,,,
1558971824.390801,-2.404090,1.523513,1.249080,-0.030083,0.024340,0.008451,-0.031783,-0.998882,0.034983,-0.006898,0.003307,-0.009806,-16.800814,-40.858841,6.032210,,,,,,,
1558971824.410819,-2.425691,1.523684,1.270510,0.042050,-0.064870,-0.019039,-0.030909,-0.998890,0.035534,0.017619,0.008427,-0.009320,-16.802711,-40.858109,6.031836,,,,,,,
1558971824.430745,-2.443324,1.523484,1.286387,0.050542,-0.060651,0.004495,-0.030405,-0.998881,0.036225,0.014475,0.016596,-0.016389,-16.761259,-40.868580,6.076102,,,,,,,
1558971824.450705,-2.434595,1.523770,1.278101,-0.016103,0.060176,-0.010417,-0.030534,-0.998895,0.035741,-0.004698,0.017205,0.001048,-16.748381,-40.873497,6.078531,,,,,,,
1558971824.470720,-2.409417,1.524472,1.253808,-0.022581,0.032725,-0.011750,-0.030956,-0.998927,0.034439,-0.010808,0.009761,-0.015793,-16.763153,-40.875755,6.022377,,,,,,,
1558971824.490691,-2.414051,1.524667,1.258829,0.058212,-0.002591,-0.018429,-0.030667,-0.998936,0.034438,-0.002658,0.004124,-0.018432,-16.764597,-40.879208,5.994829,,,,,,,
1558971824.510691,-2.445553,1.523782,1.289643,0.099583,-0.048267,-0.023104,-0.030134,-0.998895,0.036066,0.013136,0.008096,-0.000452,-16.747231,-40.882343,6.021921,,,,,,,
1558971824.530679,-2.483560,1.522678,1.326980,0.037890,-0.013935,0.003881,-0.029415,-0.998843,0.038056,0.004803,0.008013,0.013382,-16.707445,-40.881329,6.138226,,,,,,,
1558971824.550649,-2.493766,1.522229,1.337079,0.006003,-0.001089,0.000775,-0.029297,-0.998821,0.038712,0.002106,0.004222,0.011367,-16.703934,-40.877670,6.172061,,,,,,,
1558971824.570651,-2.490198,1.522382,1.333709,-0.012064,0.010643,0.007278,-0.029342,-0.998828,0.038486,0.004149,0.001407,0.001294,-16.695702,-40.878696,6.187478,,,,,,,
1558971824.590638,-2.492302,1.522412,1.335744,0.038971,-0.008657,0.003930,-0.029243,-0.998830,0.038524,0.004783,0.011647,-0.009548,-16.699898,-40.877617,6.183318,,,,,,,
1558971824.610616,-2.502915,1.521527,1.346146,0.066634,-0.013032,0.002843,-0.029359,-0.998787,0.039541,-0.001815,0.006569,0.002604,-16.696480,-40.877224,6.195119,,,,,,,
1558971824.630610,-2.520790,1.520056,1.363650,0.043210,-0.021384,-0.010067,-0.029503,-0.998713,0.041256,-0.001991,0.001170,0.011097,-16.705341,-40.862606,6.267276,,,,,,,
1558971824.650597,-2.537666,1.519823,1.380249,-0.019490,-0.001008,-0.034478,-0.028934,-0.998701,0.041939,0.001270,0.000319,0.009697,-16.687284,-40.860336,6.329832,,,,,,,
1558971824.670581,-2.540965,1.521740,1.384158,-0.051295,0.043568,-0.024471,-0.027714,-0.998797,0.040455,0.011143,0.013888,-0.009769,-16.645823,-40.883537,6.289103,,,,,,,
1558971824.690569,-2.545399,1.522931,1.389377,-0.023680,0.028637,-0.016052,-0.026867,-0.998855,0.039593,0.020870,0.012969,-0.004986,-16.625734,-40.899258,6.239780,,,,,,,
1558971824.710557,-2.567908,1.523710,1.411783,0.002717,-0.021053,-0.002603,-0.025546,-0.998892,0.039534,0.022616,0.010961,0.000719,-16.572140,-40.924988,6.213626,,,,,,,
1558971824.730542,-2.581069,1.523966,1.424601,-0.014265,0.001257,0.013609,-0.024887,-0.998904,0.039650,0.003617,0.010256,0.000725,-16.517345,-40.944611,6.230253,,,,,,,
1558971824.750529,-2.561598,1.524328,1.405686,-0.040770,0.039467,0.025698,-0.025456,-0.998921,0.038855,-0.003353,0.010044,-0.003363,-16.526762,-40.943432,6.212969,,,,,,,
1558971824.770516,-2.537584,1.524586,1.381757,0.005888,-0.019990,0.013423,-0.026235,-0.998932,0.038020,-0.008707,0.010224,-0.014613,-16.555336,-40.938660,6.168180,,,,,,,
1558971824.790502,-2.527748,1.524593,1.371390,0.027216,-0.019083,-0.012173,-0.026605,-0.998933,0.037756,-0.002784,0.012773,-0.012289,-16.588490,-40.927746,6.151509,,,,,,,
1558971824.810486,-2.533420,1.524527,1.377109,0.010316,0.023293,-0.007510,-0.026428,-0.998930,0.037960,-0.001236,0.014021,-0.006405,-16.582348,-40.929180,6.158525,,,,,,,
1558971824.830474,-2.542326,1.523836,1.386580,0.014547,0.017996,-0.000084,-0.026478,-0.998898,0.038764,0.000507,0.015652,0.010782,-16.585388,-40.926437,6.168553,,,,,,,
1558971824.850461,-2.552781,1.523310,1.396577,0.023873,-0.042153,-0.001688,-0.026363,-0.998873,0.039475,0.004436,0.015734,0.012115,-16.585340,-40.923405,6.188757,,,,,,,
1558971824.870441,-2.563054,1.523117,1.406013,0.011123,-0.034685,-0.000559,-0.026062,-0.998864,0.039906,0.011520,0.008004,0.003261,-16.576719,-40.921471,6.224538,,,,,,,
1558971824.890424,-2.578924,1.522607,1.421499,0.028190,-0.018902,0.011347,-0.025696,-0.998839,0.040744,-0.001541,-0.000077,0.025510,-16.548777,-40.925838,6.270040,,,,,,,
1558971824.910420,-2.588921,1.521833,1.431065,-0.012214,-0.017673,-0.015364,-0.025695,-0.998802,0.041659,-0.005098,-0.002389,0.030821,-16.546228,-40.921993,6.301769,,,,,,,
1558971824.930401,-2.577654,1.523096,1.420359,-0.149317,0.051769,-0.005200,-0.025487,-0.998863,0.040299,-0.001856,0.004829,0.009963,-16.540226,-40.921200,6.322649,,,,,,,
1558971824.950376,-2.518176,1.526020,1.362209,-0.132295,0.066531,0.031255,-0.026133,-0.998998,0.036342,-0.017050,0.000417,-0.033901,-16.556610,-40.942234,6.140963,,,,,,,
1558971824.970379,-2.480240,1.526115,1.324337,0.060014,-0.044413,0.028214,-0.027434,-0.999002,0.035250,-0.027208,0.002023,-0.029939,-16.587727,-40.943558,6.047472,,,,,,,
1558971824.990361,-2.501098,1.524020,1.343503,0.129097,-0.105117,-0.033165,-0.027944,-0.998906,0.037493,-0.015086,0.005513,0.008131,-16.653461,-40.911190,6.085769,,,,,,,
1558971825.010344,-2.540063,1.523722,1.380929,-0.001623,-0.035638,-0.073131,-0.026630,-0.998892,0.038797,0.020023,0.010962,0.003119,-16.592438,-40.914082,6.231262,,,,,,,
1558971825.030339,-2.545795,1.526363,1.387158,-0.118527,0.043264,-0.026563,-0.024927,-0.999013,0.036766,0.029550,0.017766,-0.014290,-16.512959,-40.955364,6.170874,,,,,,,
1558971825.050305,-2.515265,1.527456,1.357081,-0.050597,0.016590,0.045836,-0.025396,-0.999061,0.035102,0.028235,0.018653,-0.020133,-16.508911,-40.965038,6.117262,,,,,,,
1558971825.070312,-2.487840,1.527470,1.329631,0.014225,-0.012277,0.055220,-0.026342,-0.999062,0.034382,-0.008265,0.009483,-0.021305,-16.558176,-40.957512,6.033918,,,,,,,
1558971825.090297,-2.486762,1.526550,1.328272,0.041961,-0.015664,0.008233,-0.026939,-0.999021,0.035083,-0.014443,0.005323,-0.020496,-16.586922,-40.943169,6.052296,,,,,,,
1558971825.110283,-2.500879,1.526470,1.341745,0.049373,-0.042178,-0.025112,-0.026489,-0.999018,0.035524,0.001861,0.004999,-0.019502,-16.585464,-40.937729,6.092958,,,,,,,
1558971825.130272,-2.517720,1.525956,1.358246,0.031417,0.010801,-0.002199,-0.026187,-0.998995,0.036382,-0.007291,0.002855,-0.014562,-16.556883,-40.943123,6.134301,,,,,,,
1558971825.150228,-2.516990,1.525488,1.358521,0.004954,0.064875,0.016447,-0.026486,-0.998974,0.036741,0.000301,0.008160,0.006381,-16.563129,-40.939079,6.144413,,,,,,,
1558971825.170243,-2.514354,1.525093,1.357130,-0.027067,0.059886,-0.000650,-0.026815,-0.998956,0.036991,0.001760,0.011193,0.010509,-16.589664,-40.929253,6.138268,,,,,,,
1558971825.190230,-2.524558,1.526018,1.367934,-0.014451,0.005892,-0.013971,-0.025901,-0.998998,0.036508,0.018393,0.015233,-0.001139,-16.580296,-40.938049,6.104869,,,,,,,
1558971825.210197,-2.559073,1.526659,1.401990,0.036518,-0.031369,-0.012157,-0.024274,-0.999026,0.036846,0.027142,0.011370,0.000812,-16.524612,-40.960976,6.102082,,,,,,,
1558971825.230202,-2.594347,1.525920,1.436435,0.048145,-0.040891,0.022990,-0.023343,-0.998993,0.038310,0.017759,0.012833,0.009831,-16.460009,-40.978775,6.156916,,,,,,,
1558971825.250190,-2.592869,1.525001,1.434507,-0.004979,0.000649,0.047899,-0.023879,-0.998952,0.039060,0.002486,0.009739,0.004016,-16.459169,-40.968033,6.230212,,,,,,,
1558971825.270171,-2.558150,1.525393,1.400164,-0.045342,0.021982,0.035260,-0.025004,-0.998969,0.037879,-0.007818,-0.002328,-0.004127,-16.499611,-40.957214,6.194261,,,,,,,
1558971825.290161,-2.544302,1.525775,1.386267,-0.017764,-0.024726,-0.001464,-0.025312,-0.998987,0.037214,-0.003436,-0.009802,-0.001219,-16.524282,-40.952389,6.160311,,,,,,,
1558971825.310148,-2.544518,1.525652,1.385615,0.001336,-0.049157,-0.014493,-0.025372,-0.998981,0.037320,-0.007404,0.001072,0.001406,-16.533167,-40.949120,6.158212,,,,,,,
1558971825.330129,-2.543156,1.526454,1.383846,-0.035895,0.001947,0.003114,-0.024972,-0.999017,0.036624,0.009484,0.014123,-0.011447,-16.515179,-40.955326,6.165198,,,,,,,
1558971825.350120,-2.528198,1.527284,1.369255,-0.025218,0.020945,0.022521,-0.025040,-0.999053,0.035568,0.014068,0.018051,-0.017456,-16.514524,-40.960964,6.129382,,,,,,,
1558971825.370106,-2.522664,1.527527,1.363622,0.036351,-0.022691,0.039232,-0.025095,-0.999064,0.035232,0.012843,0.008936,-0.010848,-16.502754,-40.973286,6.078522,,,,,,,
1558971825.390093,-2.509839,1.525982,1.349791,0.051166,-0.054497,0.027198,-0.026457,-0.998996,0.036153,-0.016435,0.000873,-0.000081,-16.546938,-40.948635,6.124297,,,,,,,
1558971825.410064,-2.502324,1.525331,1.341879,-0.010354,0.006056,0.013850,-0.027115,-0.998967,0.036474,-0.014526,0.002263,0.002100,-16.568501,-40.935936,6.150877,,,,,,,
1558971825.430052,-2.493667,1.525504,1.333303,-0.013586,-0.005555,0.013736,-0.027326,-0.998974,0.036101,0.008589,-0.002399,-0.002715,-16.599648,-40.924282,6.144429,,,,,,,
1558971825.450052,-2.493694,1.525203,1.333047,0.019377,-0.013116,0.021163,-0.027506,-0.998961,0.036341,0.007273,-0.000246,0.000265,-16.604591,-40.922123,6.145462,,,,,,,
1558971825.470013,-2.491222,1.524565,1.330249,0.022565,-0.011008,0.028659,-0.027983,-0.998932,0.036781,-0.000490,-0.000855,0.002037,-16.609924,-40.917572,6.161327,,,,,,,
1558971825.490020,-2.485754,1.523807,1.324469,0.016148,-0.031093,0.004974,-0.028644,-0.998896,0.037226,-0.001538,0.000407,0.011907,-16.643166,-40.899879,6.189046,,,,,,,
1558971825.510012,-2.503488,1.523614,1.341025,0.022434,-0.073444,-0.019983,-0.028095,-0.998887,0.037884,0.012150,0.006013,0.002674,-16.638306,-40.895065,6.233767,,,,,,,
1558971825.529981,-2.516572,1.523678,1.352959,0.018244,-0.042737,0.001660,-0.027560,-0.998890,0.038197,0.012774,0.004719,-0.007313,-16.614962,-40.900803,6.258305,,,,,,,
1558971825.549986,-2.519487,1.524145,1.355474,0.003422,-0.006685,0.025478,-0.027176,-0.998912,0.037897,0.017136,0.006084,-0.017252,-16.588846,-40.907932,6.280962,,,,,,,
1558971825.569971,-2.515935,1.524385,1.351821,0.020463,-0.005726,0.020161,-0.027171,-0.998923,0.037607,0.020548,0.005439,-0.019754,-16.585184,-40.910755,6.272266,,,,,,,
1558971825.589947,-2.521591,1.524241,1.357052,0.026756,-0.034300,0.018823,-0.027041,-0.998917,0.037878,0.012622,0.013672,-0.009878,-16.562353,-40.921310,6.263715,,,,,,,
1558971825.609932,-2.526856,1.525391,1.361423,0.002241,-0.044749,0.014428,-0.026177,-0.998969,0.037079,0.023583,0.019981,-0.025131,-16.547691,-40.924969,6.278567,,,,,,,
1558971825.629930,-2.516841,1.526147,1.350487,-0.011629,-0.045708,0.031487,-0.026106,-0.999003,0.036203,0.024535,0.021937,-0.032343,-16.533855,-40.932655,6.264873,,,,,,,
1558971825.649897,-2.487210,1.526946,1.320420,-0.026473,-0.004334,0.079913,-0.026682,-0.999039,0.034781,0.016886,0.009064,-0.075247,-16.513235,-40.951248,6.197381,,,,,,,
1558971825.669899,-2.451763,1.525652,1.284691,0.012790,-0.027749,0.110682,-0.028720,-0.998981,0.034810,0.000904,0.008259,-0.105154,-16.603369,-40.916378,6.186906,,,,,,,
1558971825.689867,-2.421534,1.524161,1.253437,0.005266,-0.056270,0.096523,-0.030742,-0.998913,0.035046,-0.004048,-0.012043,-0.157880,-16.666473,-40.888100,6.204152,,,,,,,
1558971825.709859,-2.378553,1.523636,1.209652,-0.091435,-0.008206,0.090500,-0.032581,-0.998888,0.034072,-0.033306,-0.021269,-0.214980,-16.738028,-40.856895,6.217087,,,,,,,
1558971825.729863,-2.317214,1.524449,1.149560,-0.134631,0.114590,0.060679,-0.034012,-0.998926,0.031459,-0.059112,-0.035925,-0.290858,-16.823679,-40.839569,6.098600,,,,,,,
1558971825.749837,-2.256095,1.525139,1.092069,-0.107680,0.216976,0.059545,-0.035337,-0.998958,0.028887,-0.065524,-0.042027,-0.358080,-16.839544,-40.838551,6.061492,,,,,,,
1558971825.769835,-2.204627,1.525207,1.046323,-0.086017,0.332082,0.062799,-0.036722,-0.998961,0.026991,-0.047674,-0.045274,-0.413251,-16.951065,-40.827560,5.819875,,,,,,,
1558971825.789822,-2.125624,1.525501,0.975315,-0.183550,0.465817,0.089625,-0.038487,-0.998974,0.023853,-0.076274,-0.035190,-0.483570,-17.072647,-40.813614,5.556366,,,,,,,
1558971825.809798,-2.010121,1.526210,0.871011,-0.213949,0.598067,0.065243,-0.040339,-0.999006,0.018958,-0.103292,-0.011080,-0.576376,-17.103764,-40.811024,5.479168,,,,,,,
1558971825.829794,-1.950860,1.526681,0.824572,-0.030470,0.682612,-0.007469,-0.040953,-0.999027,0.016360,-0.139390,-0.003323,-0.655780,-17.275621,-40.808170,4.934126,,,,,,,
1558971825.849781,-1.990601,1.527063,0.881314,0.190958,0.970939,-0.095282,-0.039923,-0.999044,0.017819,-0.181482,0.019567,-0.647473,-17.331520,-40.819473,4.635580,,,,,,,
1558971825.869768,-2.095357,1.526780,1.009284,0.293975,1.269721,-0.108256,-0.038087,-0.999031,0.022038,-0.169952,0.044792,-0.630757,-17.335709,-40.833008,4.498651,,,,,,,
1558971825.889753,-2.228362,1.524118,1.170116,0.425463,1.446633,-0.091511,-0.036932,-0.998911,0.028519,-0.200678,0.045923,-0.608765,-17.363998,-40.841671,4.306846,,,,,,,
1558971825.909740,-2.386630,1.518342,1.360406,0.614731,1.698237,-0.109236,-0.035929,-0.998625,0.038185,-0.246710,0.045469,-0.521111,-17.423407,-40.833858,4.137685,,,,,,,
1558971825.929726,-2.524091,1.510121,1.535180,0.617691,1.946606,-0.118601,-0.035109,-0.998160,0.049440,-0.275071,0.041556,-0.416017,-17.459549,-40.826107,4.061081,,,,,,,
1558971825.949697,-2.581797,1.503302,1.635553,0.347078,2.229292,-0.052053,-0.035813,-0.997723,0.057149,-0.253524,0.020718,-0.410527,-17.527380,-40.818218,3.842311,,,,,,,
1558971825.969690,-2.562964,1.499747,1.665297,0.164952,2.568642,0.048205,-0.038823,-0.997477,0.059434,-0.309017,0.068369,-0.436982,-17.701216,-40.804882,3.118964,,,,,,,
1558971825.989675,-2.530691,1.493620,1.687484,0.435867,2.767109,0.126124,-0.044225,-0.997023,0.063155,-0.311671,0.064421,-0.352080,-17.858673,-40.776657,2.536005,,,,,,,
1558971826.009655,-2.558024,1.481368,1.769188,0.807032,2.610661,0.009618,-0.049210,-0.996004,0.074528,-0.324768,0.026186,-0.092167,-18.026808,-40.729382,2.061859,,,,,,,
1558971826.029631,-2.601609,1.470039,1.862967,0.573448,2.449061,-0.104167,-0.051714,-0.994928,0.086275,-0.292143,0.046717,0.059935,-18.155449,-40.693993,1.574291,,,,,,,
1558971826.049639,-2.584363,1.466976,1.894810,0.029462,2.481656,-0.010338,-0.054805,-0.994616,0.087956,-0.307148,0.077471,0.033321,-18.148283,-40.710819,1.169826,,,,,,,
1558971826.069605,-2.500407,1.467722,1.864529,-0.180415,2.839255,0.179755,-0.061544,-0.994693,0.082456,-0.372858,0.132708,0.014986,-18.195963,-40.705540,0.255571,,,,,,,
1558971826.089598,-2.404522,1.464998,1.827589,0.126367,2.931810,0.242810,-0.070976,-0.994409,0.078191,-0.329017,0.171014,0.149959,-18.368505,-40.611736,-1.176505,,,,,,,
1558971826.109579,-2.370945,1.456323,1.848988,0.560730,2.600719,0.190877,-0.079568,-0.993455,0.081951,-0.309805,0.180131,0.217701,-18.445316,-40.552876,-1.825965,,,,,,,
1558971826.129589,-2.383371,1.444914,1.911529,0.693710,2.531168,0.092094,-0.086333,-0.992087,0.091157,-0.309099,0.192817,0.339400,-18.478638,-40.513435,-2.302415,,,,,,,
1558971826.149565,-2.392545,1.433128,1.973035,0.746784,2.517250,0.161400,-0.093448,-0.990539,0.100501,-0.198056,0.136871,0.708993,-18.411968,-40.513451,-2.785585,,,,,,,
1558971826.169563,-2.402078,1.418019,2.023165,0.809989,1.716919,0.268028,-0.102561,-0.988352,0.112433,-0.197564,0.085368,0.796686,-18.436655,-40.490337,-2.953262,,,,,,,
1558971826.189526,-2.401569,1.404850,2.055442,0.542406,1.575561,0.222687,-0.111386,-0.986263,0.121982,-0.202228,0.009593,0.904187,-18.551785,-40.437107,-2.961590,,,,,,,
1558971826.209536,-2.405267,1.395844,2.085724,0.533677,1.106027,0.044160,-0.116894,-0.984735,0.128969,-0.197529,-0.086447,1.086470,-18.619375,-40.395149,-3.106481,,,,,,,
1558971826.229523,-2.439631,1.389298,2.134064,0.514819,0.438786,-0.201395,-0.116554,-0.983574,0.137828,-0.175591,-0.107917,1.135899,-18.570227,-40.422985,-3.037789,,,,,,,
1558971826.249493,-2.482870,1.387253,2.185935,0.264857,0.430369,-0.347944,-0.111718,-0.983203,0.144328,-0.175498,-0.107510,1.206518,-18.365864,-40.532967,-2.805940,,,,,,,
1558971826.269496,-2.515926,1.389642,2.227348,0.075908,0.257980,-0.368963,-0.105512,-0.983636,0.146037,-0.036838,-0.059699,1.168523,-17.973034,-40.710247,-2.783107,,,,,,,
1558971826.289482,-2.547854,1.392510,2.257933,0.001548,-0.301714,-0.280427,-0.099217,-0.984149,0.146992,-0.027416,-0.031186,1.149242,-17.760284,-40.803982,-2.776070,,,,,,,
1558971826.309467,-2.572323,1.397954,2.272155,-0.271090,-0.641620,-0.229448,-0.092702,-0.985100,0.144861,-0.039943,0.014717,1.104025,-17.552368,-40.900005,-2.683946,,,,,,,
1558971826.329454,-2.580043,1.408138,2.262393,-0.578847,-0.981352,-0.184903,-0.086234,-0.986800,0.137072,-0.051553,0.095275,0.955533,-17.375034,-40.972912,-2.725444,,,,,,,
1558971826.349415,-2.573549,1.421232,2.233002,-0.718064,-1.217334,-0.146702,-0.080163,-0.988836,0.125606,-0.047812,0.106253,0.892247,-17.312956,-40.991566,-2.837670,,,,,,,
1558971826.369426,-2.558821,1.434779,2.190903,-0.727288,-1.405344,-0.086586,-0.074625,-0.990764,0.113216,-0.046179,0.126445,0.668263,-17.269026,-40.998726,-2.997392,,,,,,,
1558971826.389413,-2.520850,1.446353,2.123941,-0.720201,-1.426230,0.109667,-0.072194,-0.992267,0.100967,-0.056056,0.121600,0.569993,-17.338840,-40.959171,-3.132184,,,,,,,
1558971826.409383,-2.455280,1.454400,2.027649,-0.625174,-1.592452,0.262961,-0.073593,-0.993234,0.089840,-0.166092,0.137551,0.509418,-17.383678,-40.938347,-3.155816,,,,,,,
1558971826.429360,-2.398560,1.459067,1.934162,-0.482558,-1.954802,0.194480,-0.075430,-0.993765,0.082108,-0.173258,0.100286,0.425628,-17.820595,-40.754173,-3.102084,,,,,,,
1558971826.449353,-2.382433,1.465095,1.873563,-0.400564,-2.373091,-0.032596,-0.072620,-0.994419,0.076534,-0.156079,0.068012,0.301105,-18.093472,-40.665054,-2.660641,,,,,,,
1558971826.469350,-2.400318,1.469304,1.838443,-0.200774,-2.766188,0.037469,-0.068413,-0.994854,0.074734,-0.174049,0.069561,0.205509,-18.117603,-40.662815,-2.527356,,,,,,,
1558971826.489340,-2.412038,1.469110,1.793420,-0.166093,-2.795620,0.269962,-0.067661,-0.994834,0.075673,-0.277661,0.056022,0.161967,-18.313627,-40.631676,-1.333128,,,,,,,
1558971826.509323,-2.363196,1.468590,1.693068,-0.424791,-2.402913,0.440066,-0.071638,-0.994781,0.072648,-0.381716,0.065643,0.090301,-18.692541,-40.479343,-0.333405,,,,,,,
1558971826.529318,-2.289799,1.469475,1.572541,-0.440438,-2.362852,0.314455,-0.076110,-0.994871,0.066620,-0.359406,0.074324,-0.012115,-18.960197,-40.356018,0.045951,,,,,,,
1558971826.549297,-2.298905,1.469225,1.529228,0.044968,-2.799146,0.067244,-0.075686,-0.994846,0.067475,-0.330762,0.096485,-0.073731,-19.168695,-40.251980,0.662308,,,,,,,
1558971826.569292,-2.390226,1.464582,1.561411,0.343576,-2.951859,0.073495,-0.072370,-0.994365,0.077471,-0.308733,0.090571,-0.069308,-19.130606,-40.216091,2.187599,,,,,,,
1558971826.589278,-2.448969,1.458955,1.567205,0.125720,-2.452649,0.215825,-0.071268,-0.993752,0.085891,-0.284048,0.080758,-0.089934,-19.110519,-40.205013,2.538608,,,,,,,
1558971826.609262,-2.458125,1.455207,1.530545,0.000609,-2.254177,0.319051,-0.072830,-0.993327,0.089427,-0.235641,0.064143,-0.163127,-19.084705,-40.079063,4.188320,,,,,,,
1558971826.629241,-2.462455,1.450819,1.488069,0.021423,-2.394857,0.327329,-0.075180,-0.992811,0.093132,-0.233002,0.035231,-0.218972,-19.137400,-39.924126,5.284249,,,,,,,
1558971826.649236,-2.470479,1.447473,1.447244,-0.081707,-2.379592,0.277213,-0.076495,-0.992405,0.096334,-0.318646,0.025181,-0.246511,-19.121313,-39.832230,5.988997,,,,,,,
1558971826.669201,-2.464329,1.448827,1.397700,-0.347501,-2.017954,0.142735,-0.076244,-0.992571,0.094814,-0.290043,0.019243,-0.351757,-19.029350,-39.748550,6.784998,,,,,,,
1558971826.689208,-2.439850,1.453854,1.336033,-0.440300,-1.752158,0.142002,-0.075320,-0.993170,0.089107,-0.141629,0.030203,-0.614864,-18.819099,-39.752190,7.328322,,,,,,,
1558971826.709196,-2.400822,1.456504,1.263075,-0.328341,-1.625679,0.293841,-0.076963,-0.993476,0.084158,-0.132708,0.036841,-0.642508,-18.729794,-39.750267,7.563766,,,,,,,
1558971826.729168,-2.350902,1.454327,1.181586,-0.228044,-1.473735,0.469402,-0.082604,-0.993225,0.081734,-0.208534,0.004898,-0.639397,-18.734396,-39.677570,7.925412,,,,,,,
1558971826.749144,-2.283224,1.452644,1.089725,-0.415705,-0.972951,0.356603,-0.089207,-0.993028,0.077053,-0.282772,-0.019225,-0.587200,-18.907513,-39.521446,8.286183,,,,,,,
1558971826.769154,-2.217925,1.456256,1.009952,-0.455539,-0.613853,0.023700,-0.091183,-0.993447,0.068905,-0.226505,0.000909,-0.576184,-18.967159,-39.499546,8.254226,,,,,,,
1558971826.789141,-2.210993,1.460748,0.987297,-0.076293,-0.923679,-0.139109,-0.088078,-0.993951,0.065605,-0.088710,0.022164,-0.550194,-18.857143,-39.567692,8.179584,,,,,,,
1558971826.809129,-2.253831,1.461203,1.010431,0.118265,-0.957339,-0.051729,-0.084837,-0.994001,0.069031,-0.071962,0.014203,-0.411332,-18.538473,-39.625202,8.617863,,,,,,,
1558971826.829095,-2.256393,1.461133,0.999471,-0.186846,-0.446036,0.095985,-0.084714,-0.993993,0.069293,-0.078005,-0.012584,-0.350222,-18.415705,-39.620358,8.898774,,,,,,,
1558971826.849083,-2.184431,1.464259,0.924605,-0.501509,0.014385,0.112952,-0.086936,-0.994330,0.061233,-0.079217,-0.012246,-0.324523,-18.428278,-39.626286,8.846214,,,,,,,
1558971826.869087,-2.104028,1.468356,0.845130,-0.377750,0.050572,0.006633,-0.088064,-0.994758,0.051981,-0.042764,0.029364,-0.303049,-18.523365,-39.689831,8.348782,,,,,,,
1558971826.889048,-2.092809,1.471201,0.831028,0.031167,-0.291090,-0.136172,-0.086188,-0.995044,0.049579,-0.031197,0.031849,-0.268283,-18.502384,-39.734577,8.180748,,,,,,,
1558971826.909059,-2.145165,1.472465,0.875611,0.156530,-0.382708,-0.173249,-0.082419,-0.995169,0.053338,0.000922,0.018882,-0.147927,-18.336006,-39.777504,8.345084,,,,,,,
1558971826.929046,-2.173899,1.474156,0.900584,-0.012876,-0.074124,-0.104237,-0.079467,-0.995334,0.054729,0.031859,0.021655,-0.126964,-18.114475,-39.825832,8.594670,,,,,,,
1558971826.949013,-2.160057,1.475999,0.887975,-0.137979,0.122218,-0.011708,-0.078692,-0.995510,0.052605,0.037982,0.025814,-0.118416,-18.090549,-39.835808,8.598808,,,,,,,
1558971826.969018,-2.139223,1.476657,0.869953,-0.049633,0.140847,0.033383,-0.079219,-0.995572,0.050601,0.029506,0.026181,-0.063022,-18.083527,-39.876762,8.421959,,,,,,,
1558971826.989006,-2.133461,1.475847,0.865482,0.031902,0.017830,0.050420,-0.080190,-0.995496,0.050573,0.007742,0.003110,-0.012610,-18.143738,-39.865448,8.345669,,,,,,,
1558971827.008962,-2.131374,1.474598,0.863128,-0.001180,-0.002062,0.061947,-0.081350,-0.995376,0.051068,-0.008967,-0.017670,-0.009869,-18.175518,-39.846245,8.368209,,,,,,,
1558971827.028976,-2.117563,1.474088,0.850399,-0.057258,0.096518,0.051102,-0.082480,-0.995327,0.050203,-0.015252,-0.028049,-0.009996,-18.224321,-39.826176,8.357588,,,,,,,
1558971827.048964,-2.098618,1.474051,0.833466,-0.061643,0.096698,0.036207,-0.083449,-0.995324,0.048650,-0.013689,-0.002525,-0.003804,-18.292490,-39.817348,8.250050,,,,,,,
1558971827.068929,-2.086410,1.473877,0.822472,-0.028852,0.035225,0.039915,-0.084186,-0.995307,0.047713,-0.015911,-0.002557,-0.014067,-18.322826,-39.814819,8.194731,,,,,,,
1558971827.088937,-2.082214,1.472851,0.818349,0.017834,-0.004109,0.054523,-0.085277,-0.995207,0.047859,-0.023000,-0.013536,-0.012093,-18.363073,-39.801422,8.169653,,,,,,,
1558971827.108924,-2.076796,1.472162,0.813594,-0.026622,0.061624,0.030560,-0.086136,-0.995140,0.047729,-0.027130,-0.022881,-0.011215,-18.415344,-39.776688,8.172479,,,,,,,
1558971827.128890,-2.063224,1.472374,0.801482,-0.068050,0.079784,0.012551,-0.086589,-0.995160,0.046456,-0.012410,-0.002246,-0.025338,-18.438856,-39.774780,8.128656,,,,,,,
1558971827.148896,-2.059860,1.472223,0.799252,0.043568,0.034807,0.015413,-0.086877,-0.995146,0.046235,0.012155,0.001646,-0.044999,-18.461004,-39.778538,8.059689,,,,,,,
1558971827.168882,-2.037127,1.474010,0.775979,0.172996,-0.077866,0.049660,-0.086317,-0.995320,0.043449,0.004606,0.005665,-0.030890,-18.447872,-39.795624,8.005248,,,,,,,
1558971827.188868,-2.043826,1.470990,0.782366,0.120186,0.038646,0.025114,-0.088699,-0.995023,0.045395,-0.022461,0.000135,-0.019791,-18.459925,-39.782757,8.041319,,,,,,,
1558971827.208829,-2.030264,1.469111,0.771293,0.056654,0.121355,-0.023251,-0.090982,-0.994834,0.045017,-0.011984,0.012184,-0.011264,-18.610239,-39.718044,8.014692,,,,,,,
1558971827.228820,-2.055035,1.468497,0.796695,0.115813,-0.025911,-0.043830,-0.090380,-0.994772,0.047541,-0.001722,0.014181,0.025244,-18.640295,-39.701668,8.025981,,,,,,,
1558971827.248828,-2.077852,1.468548,0.818269,0.068832,-0.078545,-0.063589,-0.089227,-0.994777,0.049566,-0.008444,0.011028,0.040370,-18.599693,-39.698624,8.134503,,,,,,,
1558971827.268810,-2.084262,1.469748,0.823684,-0.045973,-0.027195,-0.056784,-0.087868,-0.994899,0.049550,-0.003013,0.015208,0.042430,-18.553280,-39.707817,8.195396,,,,,,,
1558971827.288787,-2.089397,1.470611,0.829331,-0.085078,0.061816,-0.045286,-0.086867,-0.994986,0.049575,0.008757,0.006994,0.027039,-18.484858,-39.750099,8.144869,,,,,,,
1558971827.308788,-2.083168,1.471784,0.824352,-0.017048,0.039283,-0.030500,-0.086157,-0.995102,0.048461,0.011862,0.006668,0.029588,-18.461119,-39.760628,8.147331,,,,,,,
1558971827.328747,-2.092745,1.471212,0.832445,0.081280,-0.140850,0.020169,-0.086182,-0.995046,0.049568,0.008026,0.003819,0.020150,-18.448540,-39.770432,8.127969,,,,,,,
1558971827.348754,-2.112209,1.468406,0.849688,0.047477,-0.064573,0.016606,-0.087593,-0.994763,0.052674,-0.021812,-0.006366,0.026626,-18.439566,-39.743546,8.278440,,,,,,,
1558971827.368746,-2.104226,1.468943,0.842244,-0.093591,0.074586,-0.017407,-0.087550,-0.994817,0.051701,-0.011632,-0.000010,0.030360,-18.487366,-39.706753,8.348072,,,,,,,
1558971827.388714,-2.099604,1.470997,0.838797,-0.047954,0.037366,-0.007055,-0.086025,-0.995024,0.050266,0.019527,0.018004,-0.002017,-18.487183,-39.721855,8.276342,,,,,,,
1558971827.408720,-2.106390,1.471843,0.845111,0.064536,-0.056206,0.017759,-0.084958,-0.995108,0.050419,0.024106,0.012320,-0.005237,-18.433001,-39.756180,8.232272,,,,,,,
1558971827.428682,-2.137790,1.470356,0.874532,0.124941,-0.117758,0.066326,-0.084581,-0.994960,0.053856,0.008653,0.013133,0.010994,-18.365261,-39.762547,8.352058,,,,,,,
1558971827.448692,-2.157755,1.467093,0.892286,0.078207,-0.084737,0.071945,-0.086191,-0.994628,0.057331,-0.000677,0.014174,0.008999,-18.384508,-39.719868,8.511263,,,,,,,
1558971827.468679,-2.145249,1.466484,0.879400,-0.033233,0.015202,0.068541,-0.087410,-0.994564,0.056578,0.003273,0.000454,-0.013029,-18.446056,-39.674549,8.589091,,,,,,,
1558971827.488645,-2.125649,1.466833,0.860397,-0.027879,0.017260,0.049344,-0.088208,-0.994601,0.054671,0.002850,-0.012159,-0.013503,-18.486845,-39.674343,8.501934,,,,,,,
1558971827.508651,-2.115002,1.465873,0.848787,0.026079,-0.080262,0.053793,-0.089601,-0.994501,0.054223,-0.010145,-0.009390,-0.010949,-18.513681,-39.670040,8.463504,,,,,,,
1558971827.528639,-2.098598,1.464678,0.830940,0.048452,-0.074043,0.050670,-0.091506,-0.994375,0.053345,-0.013581,-0.009455,-0.034256,-18.584377,-39.632298,8.485344,,,,,,,
1558971827.548604,-2.102458,1.463101,0.833533,0.093273,-0.056366,0.012441,-0.092651,-0.994206,0.054493,-0.019394,-0.008266,-0.017658,-18.619926,-39.613411,8.495621,,,,,,,
1558971827.568609,-2.112995,1.461928,0.843693,0.070005,-0.022459,-0.013942,-0.093069,-0.994080,0.056067,-0.022455,-0.009338,0.000314,-18.668369,-39.577595,8.556008,,,,,,,
1558971827.588598,-2.126133,1.461476,0.856028,0.057166,-0.045657,-0.021648,-0.092707,-0.994030,0.057522,-0.013250,-0.005298,-0.008450,-18.647291,-39.568569,8.643300,,,,,,,
1558971827.608570,-2.122113,1.462006,0.852093,-0.023511,0.027714,-0.012469,-0.092488,-0.994088,0.056873,0.005071,0.001611,-0.039813,-18.634295,-39.575706,8.638612,,,,,,,
1558971827.628569,-2.108843,1.462962,0.840298,0.003249,0.086809,0.015874,-0.092419,-0.994192,0.055154,0.010830,0.006704,-0.038018,-18.634512,-39.579422,8.621128,,,,,,,
1558971827.648557,-2.107603,1.462813,0.839924,0.062635,0.012482,0.000262,-0.092615,-0.994175,0.055115,-0.001394,0.009999,-0.008072,-18.649576,-39.593414,8.523747,,,,,,,
1558971827.668543,-2.106065,1.463189,0.838178,0.012556,-0.020084,-0.041727,-0.092378,-0.994216,0.054782,-0.001128,0.012984,-0.021151,-18.656784,-39.588898,8.528971,,,,,,,
1558971827.688528,-2.092752,1.465253,0.825652,-0.107408,0.087331,-0.023715,-0.091320,-0.994435,0.052524,0.011913,0.018315,-0.032230,-18.632839,-39.603512,8.513424,,,,,,,
1558971827.708516,-2.071450,1.466039,0.807012,-0.084932,0.148598,0.029204,-0.091732,-0.994518,0.050191,0.028713,0.030971,-0.105810,-18.627869,-39.649353,8.308457,,,,,,,
1558971827.728490,-2.064275,1.465210,0.801873,0.052114,0.083458,0.068193,-0.092816,-0.994431,0.049923,0.039868,0.029206,-0.164074,-18.664845,-39.646431,8.239147,,,,,,,
1558971827.748486,-2.074306,1.462115,0.813033,0.173293,0.055418,0.121404,-0.095006,-0.994100,0.052336,0.038274,0.024953,-0.203840,-18.715685,-39.621105,8.245641,,,,,,,
1558971827.768455,-2.094235,1.458374,0.835359,0.185251,0.119796,0.096406,-0.097164,-0.993687,0.056077,-0.018451,0.015980,-0.248109,-18.816151,-39.552071,8.347780,,,,,,,
1558971827.788442,-2.106296,1.455721,0.851941,0.110351,0.305097,0.050076,-0.098748,-0.993386,0.058590,-0.022010,0.004525,-0.271130,-18.957096,-39.458298,8.471758,,,,,,,
1558971827.808422,-2.095884,1.454554,0.850243,-0.020964,0.519327,0.065901,-0.100356,-0.993251,0.058140,-0.016877,0.006466,-0.289967,-18.957096,-39.458298,8.471758,,,,,,,
1558971827.828417,-2.064280,1.453593,0.831441,-0.095955,0.715325,0.104016,-0.102984,-0.993140,0.055392,-0.036619,-0.001962,-0.356555,-19.136499,-39.418392,8.251312,,,,,,,
1558971827.848420,-2.022219,1.452854,0.805548,-0.123102,0.874012,0.099108,-0.105881,-0.993053,0.051332,-0.053802,-0.000340,-0.392214,-19.432390,-39.383369,7.709195,,,,,,,
1558971827.868404,-1.986911,1.452108,0.788866,-0.026970,0.954834,0.057252,-0.108305,-0.992965,0.047862,-0.042436,0.000518,-0.396342,-19.432390,-39.383369,7.709195,,,,,,,
1558971827.888392,-1.975432,1.450706,0.795568,0.100566,0.876948,0.021376,-0.110128,-0.992798,0.047164,-0.071727,0.000656,-0.353454,-19.729277,-39.352921,7.085355,,,,,,,
1558971827.908376,-1.966914,1.450571,0.806611,0.003340,1.064460,-0.038830,-0.110648,-0.992782,0.046276,-0.075173,-0.000215,-0.373989,-19.936108,-39.327194,6.634968,,,,,,,
1558971827.928365,-1.924995,1.451090,0.789663,-0.158648,1.375158,0.056899,-0.112008,-0.992844,0.041420,-0.065513,0.006882,-0.381950,-19.994673,-39.335171,6.407576,,,,,,,
1558971827.948352,-1.876496,1.449762,0.768839,0.060363,1.311707,0.099173,-0.115141,-0.992684,0.036338,-0.108904,0.027886,-0.441703,-20.313416,-39.319420,5.426606,,,,,,,
1558971827.968338,-1.911047,1.447094,0.826849,0.500617,1.123183,-0.018653,-0.116314,-0.992359,0.041177,-0.148243,-0.000760,-0.435876,-20.445946,-39.284779,5.173867,,,,,,,
1558971827.988323,-1.943584,1.444662,0.886884,0.263494,1.535641,0.004323,-0.117159,-0.992056,0.045818,-0.160108,-0.005900,-0.427227,-20.551140,-39.244221,5.063756,,,,,,,
1558971828.008312,-1.905186,1.442799,0.885575,-0.085336,2.023919,0.151782,-0.120578,-0.991820,0.041893,-0.199246,0.030974,-0.506157,-20.787067,-39.204304,4.361178,,,,,,,
1558971828.028298,-1.849210,1.438736,0.872839,0.098292,2.227087,0.239285,-0.126606,-0.991293,0.036189,-0.259502,0.045645,-0.533824,-20.859741,-39.190323,4.133910,,,,,,,
1558971828.048284,-1.850044,1.432732,0.919139,0.550926,2.264771,0.169543,-0.132295,-0.990484,0.037934,-0.360686,0.042044,-0.431367,-21.346039,-39.043648,2.835422,,,,,,,
1558971828.068271,-1.887816,1.427496,1.004349,0.654676,2.386773,0.012821,-0.135695,-0.989750,0.044519,-0.424761,0.050068,-0.310419,-21.615578,-38.937489,2.176731,,,,,,,
1558971828.088247,-1.915667,1.424914,1.081754,0.512515,2.483547,-0.095267,-0.136807,-0.989378,0.049145,-0.422077,0.071455,-0.236385,-21.643251,-38.929199,2.046156,,,,,,,
1558971828.108241,-1.930453,1.424183,1.149916,0.533689,2.743367,-0.157889,-0.136741,-0.989272,0.051416,-0.421120,0.067564,-0.120722,-21.666302,-38.955780,1.057384,,,,,,,
1558971828.128221,-1.980056,1.421886,1.254014,0.854534,2.545053,-0.173410,-0.136109,-0.988933,0.059037,-0.399170,0.067104,0.099868,-21.541527,-39.038677,0.209540,,,,,,,
1558971828.148214,-2.040230,1.418205,1.362203,0.718484,2.277267,-0.186759,-0.135558,-0.988380,0.068762,-0.412355,0.062874,0.230264,-21.404776,-39.114048,-0.161916,,,,,,,
1558971828.168194,-2.042696,1.417395,1.414691,0.142596,2.633443,-0.114414,-0.136100,-0.988257,0.069460,-0.420022,0.081351,0.228316,-21.327860,-39.154388,-0.394510,,,,,,,
1558971828.188190,-1.983396,1.418617,1.412731,-0.052555,2.893576,-0.020263,-0.138871,-0.988443,0.060787,-0.335403,0.100610,0.301456,-21.121883,-39.219280,-1.952872,,,,,,,
1558971828.208175,-1.953858,1.418166,1.434585,0.315137,2.355654,-0.077432,-0.141020,-0.988375,0.056827,-0.327059,0.103319,0.349164,-20.965002,-39.234959,-3.030843,,,,,,,
1558971828.228160,-1.970525,1.417324,1.495928,0.477490,2.164423,-0.154935,-0.140819,-0.988246,0.059492,-0.310688,0.096660,0.354143,-20.853956,-39.266109,-3.374110,,,,,,,
1558971828.248149,-1.979145,1.416393,1.549335,0.346709,2.239195,-0.091333,-0.141146,-0.988103,0.061069,-0.253279,0.120702,0.396831,-20.442690,-39.401230,-4.211778,,,,,,,
1558971828.268135,-1.994413,1.413733,1.609601,0.598484,2.100512,-0.057227,-0.142592,-0.987691,0.064297,-0.234010,0.124562,0.513126,-20.180704,-39.469551,-4.795153,,,,,,,
1558971828.288120,-2.060433,1.407928,1.711130,1.007525,1.502089,-0.136295,-0.143097,-0.986766,0.076260,-0.238403,0.110759,0.552097,-20.058575,-39.513039,-4.947024,,,,,,,
1558971828.308108,-2.158802,1.400338,1.838091,1.103006,1.338594,-0.279780,-0.141144,-0.985507,0.094097,-0.201202,0.068530,0.719380,-19.663857,-39.747593,-4.643387,,,,,,,
1558971828.328094,-2.256932,1.393903,1.963569,1.016356,1.135865,-0.439802,-0.136150,-0.984395,0.111488,-0.137852,0.058843,0.971886,-19.378647,-39.916702,-4.384527,,,,,,,
1558971828.348065,-2.345804,1.389449,2.070922,0.755200,0.693258,-0.462398,-0.128849,-0.983602,0.126199,-0.034557,0.052342,1.090659,-19.043520,-40.107407,-4.103630,,,,,,,
1558971828.368041,-2.406085,1.386993,2.143865,0.444635,0.511169,-0.328798,-0.122632,-0.983156,0.135522,0.052808,0.033388,1.159552,-18.427181,-40.438705,-3.640011,,,,,,,
1558971828.388053,-2.437708,1.384768,2.182529,0.214355,0.175500,-0.121869,-0.119701,-0.982747,0.140999,0.043011,0.026570,1.180763,-18.238213,-40.535141,-3.516975,,,,,,,
1558971828.408032,-2.443452,1.385910,2.186681,-0.182982,-0.199652,-0.045705,-0.118168,-0.982957,0.140825,-0.008098,0.015443,1.181242,-18.152119,-40.580849,-3.434359,,,,,,,
1558971828.428008,-2.424426,1.393193,2.160560,-0.545619,-0.431396,-0.079175,-0.116117,-0.984270,0.133152,-0.048876,-0.030668,1.001141,-18.108856,-40.586029,-3.597657,,,,,,,
1558971828.448012,-2.400610,1.403745,2.122865,-0.613899,-0.821139,-0.122463,-0.112238,-0.986079,0.122679,-0.064413,-0.029683,0.941942,-18.080267,-40.579330,-3.810703,,,,,,,
1558971828.467968,-2.386249,1.413920,2.087106,-0.537321,-1.174617,-0.145003,-0.107104,-0.987720,0.113744,-0.137494,-0.021771,0.848399,-18.047096,-40.577038,-3.988195,,,,,,,
1558971828.487978,-2.389090,1.423409,2.061415,-0.435321,-1.582188,-0.202205,-0.100370,-0.989158,0.107201,-0.161364,-0.020638,0.749763,-18.008312,-40.598904,-3.940701,,,,,,,
1558971828.507959,-2.409682,1.432016,2.044472,-0.409051,-2.008297,-0.198789,-0.092448,-0.990385,0.102907,-0.174168,-0.035265,0.715559,-17.983019,-40.630001,-3.730093,,,,,,,
1558971828.527957,-2.422198,1.441472,2.014515,-0.529963,-2.169290,-0.135301,-0.084979,-0.991649,0.097008,-0.216138,-0.010823,0.643227,-17.970463,-40.668549,-3.351270,,,,,,,
1558971828.547945,-2.422462,1.451644,1.968842,-0.582693,-2.339182,-0.128428,-0.078304,-0.992910,0.089436,-0.331471,0.029668,0.530865,-18.011101,-40.684521,-2.910164,,,,,,,
1558971828.567931,-2.430672,1.462964,1.928185,-0.563923,-2.513870,-0.250729,-0.070228,-0.994192,0.081553,-0.308572,0.050161,0.406514,-18.018469,-40.687748,-2.818069,,,,,,,
1558971828.587916,-2.474990,1.474015,1.917463,-0.391567,-2.900701,-0.329029,-0.059748,-0.995320,0.075944,-0.241780,0.049794,0.261092,-17.925501,-40.769726,-2.145950,,,,,,,
1558971828.607904,-2.544177,1.481742,1.926293,-0.232615,-3.057773,-0.193746,-0.050028,-0.996037,0.073532,-0.266791,0.076970,0.169464,-17.742229,-40.888866,-1.188807,,,,,,,
1558971828.627889,-2.591689,1.485467,1.912393,-0.179835,-3.091545,0.028043,-0.044539,-0.996362,0.072661,-0.330979,0.088296,0.113023,-17.698853,-40.921806,-0.505581,,,,,,,
1558971828.647876,-2.604261,1.489073,1.864245,-0.325320,-2.958566,0.086852,-0.041783,-0.996662,0.070129,-0.375789,0.072834,0.071778,-17.732029,-40.908401,0.420785,,,,,,,
1558971828.667863,-2.592961,1.496543,1.795508,-0.489825,-2.848959,0.000222,-0.038689,-0.997245,0.063297,-0.358910,0.087393,-0.113178,-17.732573,-40.889114,1.317464,,,,,,,
1558971828.687826,-2.613580,1.503412,1.757592,-0.250585,-2.976149,-0.099027,-0.033923,-0.997730,0.058163,-0.295514,0.076817,-0.246075,-17.607037,-40.916027,1.992675,,,,,,,
1558971828.707834,-2.696951,1.505113,1.779903,0.067342,-3.078218,-0.086938,-0.028232,-0.997844,0.059254,-0.288555,0.081691,-0.289982,-17.497292,-40.939213,2.434174,,,,,,,
1558971828.727823,-2.772872,1.502419,1.797443,0.165970,-2.800526,0.057796,-0.024626,-0.997663,0.063733,-0.277819,0.063917,-0.394986,-17.127926,-40.963768,4.086964,,,,,,,
1558971828.747793,-2.817619,1.500774,1.790044,-0.020268,-2.480388,0.019073,-0.022272,-0.997549,0.066325,-0.296819,0.018378,-0.484279,-16.986204,-40.937225,4.869511,,,,,,,
1558971828.767795,-2.867013,1.503819,1.793469,-0.180004,-2.220727,-0.078929,-0.018147,-0.997758,0.064420,-0.232128,0.011140,-0.616940,-16.728870,-40.942677,5.651706,,,,,,,
1558971828.787777,-2.887406,1.507827,1.772096,-0.192345,-2.017483,0.077816,-0.015824,-0.998018,0.060907,-0.221252,0.018831,-0.707864,-16.491314,-40.975979,6.091402,,,,,,,
1558971828.807767,-2.883907,1.508754,1.729982,-0.015189,-1.861916,0.117882,-0.015801,-0.998076,0.059954,-0.283256,-0.020326,-0.744723,-16.234718,-40.977501,6.736345,,,,,,,
1558971828.827754,-2.900726,1.507963,1.713156,0.021107,-1.556793,0.008728,-0.014979,-0.998027,0.060979,-0.306890,-0.052053,-0.740484,-16.065712,-40.943810,7.320976,,,,,,,
1558971828.847726,-2.949311,1.509781,1.736105,-0.134799,-1.121748,-0.129230,-0.011653,-0.998139,0.059853,-0.250570,-0.042922,-0.719979,-15.896046,-40.940022,7.702594,,,,,,,
1558971828.867727,-2.993865,1.514178,1.762627,-0.237012,-0.786076,-0.087663,-0.008329,-0.998398,0.055972,-0.178042,-0.021958,-0.666461,-15.554640,-41.011082,8.015238,,,,,,,
1558971828.887694,-3.005270,1.519349,1.762647,-0.274279,-0.431672,-0.013836,-0.006989,-0.998677,0.050949,-0.142746,-0.012844,-0.584747,-15.406795,-41.059311,8.053766,,,,,,,
1558971828.907693,-2.994579,1.525365,1.748326,-0.297502,-0.049973,-0.016608,-0.006653,-0.998968,0.044925,-0.084015,0.048346,-0.481815,-15.296391,-41.134575,7.878242,,,,,,,
1558971828.927686,-3.013425,1.529068,1.767730,-0.074658,0.016356,-0.116153,-0.005332,-0.999129,0.041375,-0.049294,0.077926,-0.373345,-15.263087,-41.183826,7.683100,,,,,,,
1558971828.947663,-3.121126,1.527487,1.874081,0.180551,-0.133189,-0.265783,-0.000886,-0.999062,0.043285,-0.037398,0.092217,-0.324352,-15.205882,-41.207806,7.667934,,,,,,,
1558971828.967649,3.046959,1.522928,1.986771,0.207342,-0.069880,-0.245938,0.004521,-0.998855,0.047635,0.028468,0.085021,-0.204160,-14.862700,-41.282059,7.936707,,,,,,,
1558971828.987646,2.988041,1.519410,2.047030,0.130056,0.116750,-0.118232,0.007856,-0.998680,0.050759,0.078982,0.080940,-0.090584,-14.698588,-41.313683,8.076541,,,,,,,
1558971829.007615,2.979174,1.517535,2.057565,0.060493,0.058100,0.000728,0.008609,-0.998582,0.052535,0.083051,0.075685,-0.045654,-14.665878,-41.318733,8.110097,,,,,,,
1558971829.027617,3.000913,1.518117,2.038344,-0.081800,0.201667,0.083129,0.007383,-0.998613,0.052135,0.051089,0.050996,-0.011700,-14.698167,-41.305229,8.120440,,,,,,,
1558971829.047604,3.035298,1.521444,2.009891,-0.179348,0.320571,0.087392,0.005234,-0.998782,0.049054,0.027908,0.051654,0.016681,-14.816835,-41.299408,7.932223,,,,,,,
1558971829.067566,3.065210,1.523715,1.984976,-0.045620,0.186641,0.058458,0.003591,-0.998892,0.046926,0.011347,0.026831,0.021692,-14.902804,-41.299847,7.767135,,,,,,,
1558971829.087577,3.092835,1.523023,1.959259,0.062435,0.067836,0.059566,0.002328,-0.998859,0.047699,0.007499,0.012714,0.041840,-14.993093,-41.279243,7.702622,,,,,,,
1558971829.107565,3.120383,1.522503,1.933443,-0.005550,0.113653,0.065288,0.001024,-0.998834,0.048264,0.003752,0.006738,0.047378,-15.054091,-41.254379,7.716853,,,,,,,
1558971829.127549,-3.127821,1.523615,1.901646,-0.080937,0.179609,0.081874,-0.000649,-0.998887,0.047158,0.016030,0.008500,0.032478,-15.112592,-41.241737,7.669941,,,,,,,
1558971829.147538,-3.088640,1.524786,1.865527,-0.037458,0.129701,0.082498,-0.002434,-0.998942,0.045929,0.024270,0.004603,0.028244,-15.228647,-41.224342,7.532675,,,,,,,
1558971829.167523,-3.051165,1.524616,1.829742,0.028311,0.059590,0.080812,-0.004169,-0.998934,0.045975,0.021854,-0.003431,0.037277,-15.312881,-41.200989,7.489545,,,,,,,
1558971829.187509,-3.020175,1.523296,1.798364,0.062009,-0.053694,0.076552,-0.005751,-0.998872,0.047132,-0.004411,-0.023024,0.050905,-15.365986,-41.177311,7.510967,,,,,,,
1558971829.207496,-2.998734,1.518654,1.776233,-0.008034,-0.010046,0.038484,-0.007420,-0.998641,0.051587,-0.008235,-0.038133,0.050036,-15.424634,-41.143635,7.575064,,,,,,,
1558971829.227468,-2.983509,1.519403,1.761146,-0.048407,0.010239,0.031172,-0.008087,-0.998680,0.050731,-0.005661,-0.030480,0.034138,-15.474277,-41.097786,7.721302,,,,,,,
1558971829.247468,-2.972751,1.519845,1.750454,-0.001589,-0.001654,0.018284,-0.008558,-0.998702,0.050205,-0.016436,-0.023209,0.025143,-15.494441,-41.096096,7.689764,,,,,,,
1558971829.267456,-2.954472,1.517754,1.731956,0.014376,-0.011276,0.001127,-0.009863,-0.998594,0.052092,-0.003107,-0.004306,0.013643,-15.560959,-41.058956,7.753609,,,,,,,
1558971829.287435,-2.957377,1.517587,1.734756,0.011221,-0.004935,-0.010559,-0.009742,-0.998585,0.052285,-0.001290,0.000523,0.011802,-15.558978,-41.058128,7.761948,,,,,,,
1558971829.307427,-2.966384,1.517442,1.743228,0.013222,-0.052541,-0.030230,-0.009296,-0.998577,0.052513,0.006244,0.004787,0.010124,-15.551953,-41.059204,7.770328,,,,,,,
1558971829.327415,-3.016194,1.515962,1.790709,0.056630,-0.139490,-0.060926,-0.006855,-0.998497,0.054376,0.030765,0.015633,0.002799,-15.437801,-41.082283,7.875261,,,,,,,
1558971829.347399,-3.038694,1.515004,1.810902,0.048218,-0.097130,-0.037039,-0.005728,-0.998444,0.055469,0.049276,0.015717,-0.002048,-15.385769,-41.089096,7.941280,,,,,,,
1558971829.367363,-3.085594,1.514222,1.856792,0.027068,-0.023984,0.031965,-0.003165,-0.998400,0.056456,0.035132,0.017855,0.003053,-15.349983,-41.090473,8.003160,,,,,,,
1558971829.387374,-3.064533,1.513380,1.835104,0.046088,-0.047275,0.074463,-0.004418,-0.998352,0.057215,0.014733,0.009705,0.015692,-15.283287,-41.103813,8.062100,,,,,,,
1558971829.407360,-3.037807,1.511179,1.807085,0.000365,-0.052382,0.032743,-0.006173,-0.998223,0.059261,-0.010673,0.000863,0.020268,-15.318250,-41.082283,8.105356,,,,,,,
1558971829.427285,-3.037696,1.511992,1.805728,-0.047550,-0.078627,-0.015591,-0.006095,-0.998272,0.058453,0.003654,0.005748,0.013904,-15.361916,-41.052692,8.172391,,,,,,,
1558971829.447255,-3.055257,1.513093,1.821079,0.027866,-0.121286,-0.003130,-0.004973,-0.998336,0.057456,0.010497,0.012511,-0.013892,-15.327551,-41.064529,8.177438,,,,,,,
1558971829.467259,-3.076023,1.511936,1.839900,0.043935,-0.072689,0.036846,-0.003854,-0.998268,0.058700,0.009058,0.006874,0.005890,-15.252491,-41.086720,8.206270,,,,,,,
1558971829.487243,-3.059854,1.511349,1.822703,-0.039038,-0.038371,0.075543,-0.004851,-0.998233,0.059214,0.004790,0.006321,0.008687,-15.242511,-41.081909,8.248751,,,,,,,
1558971829.507202,-3.030349,1.514396,1.792469,-0.096500,-0.040215,0.054125,-0.006258,-0.998410,0.056023,-0.001509,0.009411,-0.042977,-15.314445,-41.071014,8.169387,,,,,,,
1558971829.527219,-3.015062,1.515627,1.775773,-0.043382,-0.083869,0.029194,-0.006958,-0.998479,0.054700,-0.000351,0.012425,-0.047849,-15.337595,-41.070702,8.127430,,,,,,,
1558971829.547193,-3.012176,1.515639,1.771458,0.019570,-0.051474,0.001796,-0.007115,-0.998479,0.054669,0.008824,0.002721,-0.038632,-15.345846,-41.068127,8.124865,,,,,,,
1558971829.567169,-3.019763,1.516203,1.777295,0.042758,-0.106515,0.032245,-0.006631,-0.998510,0.054161,0.022424,0.000707,-0.019966,-15.310128,-41.080872,8.127812,,,,,,,
1558971829.587178,-3.003394,1.516470,1.759813,-0.061298,-0.019270,0.047944,-0.007480,-0.998525,0.053782,0.013828,0.007207,-0.016184,-15.323615,-41.069305,8.160780,,,,,,,
1558971829.607160,-2.984012,1.519285,1.740231,-0.114483,-0.012669,0.034084,-0.008080,-0.998674,0.050851,0.004586,0.005525,-0.017648,-15.350476,-41.076881,8.071682,,,,,,,
1558971829.627136,-2.961245,1.522656,1.716998,-0.064503,-0.033038,0.018981,-0.008632,-0.998841,0.047341,-0.006612,0.005738,-0.015740,-15.368663,-41.097385,7.931499,,,,,,,
1558971829.647137,-2.900590,1.524591,1.655474,-0.043276,-0.036276,0.048865,-0.011025,-0.998933,0.044855,-0.023537,0.002198,-0.020411,-15.394355,-41.097954,7.878540,,,,,,,
1558971829.667107,-2.833193,1.527277,1.588680,-0.067414,0.068485,0.042377,-0.013205,-0.999053,0.041453,-0.011926,0.005294,-0.024226,-15.527489,-41.076454,7.727956,,,,,,,
1558971829.687092,-2.806645,1.527798,1.562918,0.031373,-0.000760,0.028982,-0.014130,-0.999076,0.040596,-0.002029,0.007544,0.000588,-15.605199,-41.071995,7.593986,,,,,,,
1558971829.707096,-2.804223,1.525655,1.559472,0.073801,-0.067641,-0.015395,-0.014937,-0.998981,0.042581,-0.009538,-0.006176,0.010962,-15.633604,-41.048489,7.662363,,,,,,,
1558971829.727062,-2.830258,1.525094,1.584830,0.021876,-0.001852,-0.027619,-0.013995,-0.998956,0.043490,0.010943,-0.010093,-0.000369,-15.628611,-41.036842,7.734565,,,,,,,
1558971829.747048,-2.856033,1.524988,1.611501,0.024159,0.055249,-0.004654,-0.012900,-0.998951,0.043938,0.013479,0.001545,0.003242,-15.576435,-41.054386,7.746712,,,,,,,
1558971829.767049,-2.896029,1.523606,1.651706,0.058005,-0.016821,-0.014929,-0.011468,-0.998887,0.045758,0.018731,0.010529,0.009341,-15.532826,-41.063538,7.785667,,,,,,,
1558971829.787017,-2.923219,1.522912,1.677982,0.063222,-0.049620,-0.017377,-0.010370,-0.998854,0.046729,0.023859,-0.001451,-0.009147,-15.497359,-41.066868,7.838615,,,,,,,
1558971829.807029,-2.939082,1.524672,1.693790,0.021873,0.019356,0.018476,-0.009273,-0.998936,0.045164,0.015362,-0.002925,-0.054869,-15.419356,-41.088196,7.880552,,,,,,,
1558971829.826987,-2.925551,1.524210,1.680994,0.004922,0.056481,0.045509,-0.009983,-0.998915,0.045488,0.016834,-0.001070,-0.095949,-15.427090,-41.096691,7.820878,,,,,,,
1558971829.847001,-2.889780,1.524085,1.646983,-0.031195,0.104318,0.100388,-0.011635,-0.998909,0.045223,0.022590,-0.005241,-0.120662,-15.452941,-41.088665,7.812040,,,,,,,
1558971829.866988,-2.841667,1.525220,1.601539,-0.106531,0.162799,0.066723,-0.013461,-0.998962,0.043527,-0.026960,-0.010789,-0.222818,-15.588391,-41.057968,7.703544,,,,,,,
1558971829.886975,-2.814126,1.526938,1.577885,-0.083936,0.206980,0.003105,-0.014102,-0.999038,0.041514,-0.039410,-0.013184,-0.332865,-15.649128,-41.061409,7.560750,,,,,,,
1558971829.906960,-2.799974,1.527924,1.568037,-0.042319,0.241654,0.010944,-0.014359,-0.999081,0.040383,-0.043457,-0.005207,-0.390816,-15.665448,-41.066887,7.496937,,,,,,,
1558971829.926947,-2.761037,1.528642,1.537353,-0.071244,0.539982,0.077835,-0.015653,-0.999112,0.039127,-0.089770,0.009381,-0.543720,-15.757843,-41.067711,7.296072,,,,,,,
1558971829.946921,-2.678509,1.529135,1.469049,-0.061869,0.831768,0.144694,-0.018605,-0.999132,0.037263,-0.103633,0.027529,-0.610719,-15.934914,-41.046761,7.024361,,,,,,,
1558971829.966919,-2.589082,1.528353,1.400220,-0.019326,1.146541,0.149876,-0.022268,-0.999099,0.036117,-0.119455,0.032776,-0.654739,-16.055338,-41.027325,6.861801,,,,,,,
1558971829.986906,-2.512635,1.525462,1.350448,0.112541,1.443968,0.178452,-0.026660,-0.998973,0.036645,-0.164700,0.052150,-0.765283,-16.482014,-40.949917,6.288661,,,,,,,
1558971830.006888,-2.517983,1.517612,1.387139,0.577168,1.578870,0.133138,-0.031043,-0.998586,0.043152,-0.205285,0.017980,-0.832932,-16.807842,-40.862534,5.987454,,,,,,,
1558971830.026878,-2.626337,1.501170,1.527926,1.052371,1.683031,0.066186,-0.034281,-0.997577,0.060538,-0.226919,-0.012311,-0.798194,-16.950640,-40.802841,5.991946,,,,,,,
1558971830.046866,-2.688703,1.483930,1.629206,0.795127,2.106097,0.043338,-0.037962,-0.996230,0.078011,-0.300463,-0.096285,-0.422936,-17.348333,-40.588516,6.301336,,,,,,,
1558971830.066851,-2.690507,1.475819,1.680065,0.277448,2.596983,-0.073022,-0.041342,-0.995493,0.085349,-0.272775,-0.101782,-0.162558,-17.631950,-40.515991,5.972298,,,,,,,
1558971830.086837,-2.659478,1.475779,1.701494,-0.085500,2.599915,-0.094637,-0.043989,-0.995489,0.084060,-0.187136,-0.059717,-0.066924,-17.805609,-40.521973,5.387914,,,,,,,
1558971830.106826,-2.596964,1.480723,1.690598,-0.300718,2.589586,-0.074612,-0.046604,-0.995946,0.076937,-0.188213,0.012227,-0.127414,-18.026825,-40.577316,4.076095,,,,,,,
1558971830.126791,-2.514012,1.486928,1.659103,-0.318987,2.553799,-0.037602,-0.049189,-0.996485,0.067808,-0.211934,0.119593,-0.251814,-18.152569,-40.624325,2.871944,,,,,,,
1558971830.146796,-2.446441,1.489707,1.641021,-0.024470,2.453966,-0.026577,-0.051881,-0.996714,0.062204,-0.232070,0.121729,-0.241800,-18.152569,-40.624325,2.871944,,,,,,,
1558971830.166774,-2.451733,1.486439,1.693457,0.427427,2.273930,-0.082389,-0.053624,-0.996444,0.064991,-0.296886,0.160674,-0.134510,-18.269661,-40.651146,1.342826,,,,,,,
1558971830.186758,-2.496572,1.479706,1.783219,0.498699,2.250272,-0.101776,-0.054690,-0.995854,0.072689,-0.332227,0.188710,-0.034878,-18.230928,-40.686180,0.606071,,,,,,,
1558971830.206739,-2.516121,1.473311,1.851477,0.428219,2.538255,-0.030746,-0.056985,-0.995252,0.078905,-0.304190,0.184415,0.066008,-18.230928,-40.686180,0.606071,,,,,,,
1558971830.226715,-2.491250,1.466650,1.877112,0.275495,2.474871,0.164972,-0.062943,-0.994582,0.082738,-0.260620,0.161314,0.277583,-18.174538,-40.715580,-0.164793,,,,,,,
1558971830.246730,-2.413088,1.463243,1.848106,-0.101466,2.471688,0.246848,-0.071466,-0.994222,0.080099,-0.281759,0.179692,0.264124,-18.330297,-40.625927,-1.278229,,,,,,,
1558971830.266706,-2.321019,1.462285,1.802470,-0.080892,2.222020,0.176145,-0.079224,-0.994118,0.073838,-0.288131,0.189431,0.255874,-18.330297,-40.625927,-1.278229,,,,,,,
1558971830.286693,-2.273703,1.459725,1.795696,0.117338,1.938654,0.107397,-0.084570,-0.993838,0.071654,-0.238825,0.166293,0.301744,-18.440456,-40.506538,-2.696190,,,,,,,
1558971830.306690,-2.238746,1.455223,1.799114,0.168247,1.939631,0.233430,-0.090534,-0.993329,0.071424,-0.182354,0.153882,0.243059,-18.406981,-40.448532,-3.632991,,,,,,,
1558971830.326675,-2.179340,1.446084,1.779482,0.169040,2.004585,0.556482,-0.102059,-0.992234,0.071110,-0.169776,0.146729,0.205410,-18.443449,-40.404842,-3.922716,,,,,,,
1558971830.346662,-2.130113,1.431113,1.771419,0.570308,2.049171,0.682144,-0.118013,-0.990260,0.073876,-0.225141,0.069896,0.345557,-18.856276,-40.121914,-4.772045,,,,,,,
1558971830.366649,-2.155574,1.411945,1.831184,1.032853,1.465036,0.448447,-0.131899,-0.987410,0.087320,-0.320859,-0.001390,0.559455,-18.943663,-40.071213,-4.851292,,,,,,,
1558971830.386634,-2.229036,1.396724,1.931156,1.127321,1.156211,-0.047686,-0.137009,-0.984888,0.105948,-0.311492,-0.077734,0.739603,-19.276623,-39.942463,-4.594656,,,,,,,
1558971830.406622,-2.313172,1.385803,2.038320,1.063227,1.000883,-0.238198,-0.135539,-0.982937,0.124351,-0.190297,-0.080493,0.913887,-19.046938,-40.113411,-4.028366,,,,,,,
1558971830.426592,-2.382196,1.374367,2.125740,0.915289,0.738638,-0.121250,-0.134370,-0.980770,0.141546,-0.094680,-0.079365,1.082758,-18.979328,-40.157124,-3.910248,,,,,,,
1558971830.446594,-2.419795,1.364851,2.175956,0.539732,0.527257,-0.012539,-0.135115,-0.978868,0.153496,-0.046083,-0.063551,1.163383,-18.727158,-40.335594,-3.229998,,,,,,,
1558971830.466580,-2.430222,1.359788,2.195319,0.226013,0.312270,0.022519,-0.136742,-0.977820,0.158649,-0.032616,-0.057748,1.174985,-18.700485,-40.358807,-3.091554,,,,,,,
1558971830.486563,-2.438683,1.359112,2.202906,-0.024902,-0.296483,-0.095611,-0.135822,-0.977678,0.160304,0.007678,-0.011473,1.172978,-18.673767,-40.383156,-2.931028,,,,,,,
1558971830.506541,-2.452486,1.363183,2.204947,-0.198616,-0.706830,-0.150925,-0.131065,-0.978526,0.159091,0.006919,-0.009679,1.112622,-18.639210,-40.402534,-2.883444,,,,,,,
1558971830.526528,-2.457445,1.368126,2.192473,-0.295477,-0.953418,0.013190,-0.127215,-0.979533,0.155988,0.002826,0.020014,0.950762,-18.558287,-40.450191,-2.733387,,,,,,,
1558971830.546500,-2.447875,1.371910,2.161274,-0.379304,-1.122919,0.172715,-0.126331,-0.980287,0.151913,-0.092571,0.026506,0.908924,-18.676956,-40.403099,-2.619208,,,,,,,
1558971830.566497,-2.434772,1.375660,2.120540,-0.400698,-1.486446,0.154271,-0.125923,-0.981021,0.147448,-0.158684,0.028293,0.894666,-18.781292,-40.358597,-2.558516,,,,,,,
1558971830.586487,-2.438241,1.381530,2.089568,-0.442967,-1.805736,-0.043131,-0.121684,-0.982142,0.143490,-0.260075,0.004451,0.795109,-19.035976,-40.261276,-2.181914,,,,,,,
1558971830.606478,-2.453893,1.390507,2.064914,-0.523725,-2.131019,-0.142397,-0.113822,-0.983792,0.138558,-0.269845,0.008664,0.701149,-19.041109,-40.276314,-1.831527,,,,,,,
1558971830.626471,-2.472659,1.400709,2.037594,-0.564899,-2.341116,-0.120953,-0.104972,-0.985570,0.132788,-0.301767,0.019582,0.657953,-19.020359,-40.294701,-1.631688,,,,,,,
1558971830.646459,-2.484249,1.411256,2.001350,-0.605640,-2.405301,-0.068218,-0.097069,-0.987300,0.125760,-0.309624,0.018047,0.478656,-18.973888,-40.337303,-0.996534,,,,,,,
1558971830.666445,-2.496976,1.420867,1.962146,-0.546980,-2.688871,-0.055938,-0.089754,-0.988782,0.119395,-0.316267,0.022855,0.391455,-18.968216,-40.348988,-0.515094,,,,,,,
1558971830.686431,-2.517124,1.430300,1.925207,-0.534846,-2.887667,-0.065305,-0.081874,-0.990147,0.113607,-0.348805,0.034046,0.336314,-18.954241,-40.358250,-0.218474,,,,,,,
1558971830.706403,-2.539900,1.440330,1.889234,-0.549889,-2.948956,-0.106474,-0.073640,-0.991501,0.107249,-0.400268,0.093766,0.173757,-18.840216,-40.405048,0.760171,,,,,,,
