timestamp(unix),attitude_roll(radians),attitude_pitch(radians),attitude_yaw(radians),rotation_rate_x(radians/s),rotation_rate_y(radians/s),rotation_rate_z(radians/s),gravity_x(G),gravity_y(G),gravity_z(G),user_acc_x(G),user_acc_y(G),user_acc_z(G),magnetic_field_x(microteslas),magnetic_field_y(microteslas),magnetic_field_z(microteslas),latitude(degree),longitude(degree),altitude(meter),speed(m/s),course(degree),timestamp(unix),User Mark
1558975073.305920,-1.079777,1.322718,-0.708465,0.036886,-0.141600,0.019871,-0.216531,-0.969386,-0.115779,0.001153,-0.003011,0.005229,-12.984421,-37.829262,13.404131,,,,,,,
1558975073.325933,-1.092863,1.322880,-0.697373,0.064792,-0.069863,0.025920,-0.217889,-0.969426,-0.112864,-0.017722,-0.006175,0.020762,-12.947370,-37.791294,13.546320,,,,,,,
1558975073.345893,-1.104268,1.323123,-0.686225,0.093780,-0.000271,0.014866,-0.218951,-0.969485,-0.110265,-0.020383,-0.001996,0.029531,-12.966054,-37.762924,13.607442,,,,,,,
1558975073.365910,-1.131286,1.324717,-0.660720,0.217841,-0.155271,0.001741,-0.220451,-0.969875,-0.103652,-0.006585,0.002712,0.010726,-13.015701,-37.640045,13.897393,,,,,,,
1558975073.385901,-1.158542,1.326806,-0.639575,0.316041,-0.411630,-0.029459,-0.221338,-0.970382,-0.096794,-0.013983,-0.001313,-0.006462,-12.946035,-37.560055,14.176090,,,,,,,
1558975073.405867,-1.184722,1.329188,-0.619325,0.249545,-0.234746,-0.020345,-0.221653,-0.970955,-0.090096,-0.008663,-0.001839,-0.017585,-12.890278,-37.515900,14.342850,,,,,,,
1558975073.425858,-1.191936,1.329525,-0.612439,0.115238,0.057772,0.030392,-0.221994,-0.971035,-0.088374,0.009927,0.021923,-0.008260,-12.816942,-37.439327,14.606231,,,,,,,
1558975073.445868,-1.196018,1.328985,-0.605543,0.071735,0.136336,0.107978,-0.222841,-0.970906,-0.087659,0.025346,0.033543,-0.008105,-12.861759,-37.413780,14.632281,,,,,,,
1558975073.465838,-1.202983,1.326780,-0.595968,0.058784,0.104766,0.156777,-0.225443,-0.970376,-0.086874,0.024179,0.033410,-0.013986,-12.935991,-37.387199,14.634784,,,,,,,
1558975073.485821,-1.204494,1.323272,-0.591591,0.022800,0.165192,0.147719,-0.228750,-0.969522,-0.087752,-0.017313,0.000131,-0.025941,-13.163813,-37.309986,14.628671,,,,,,,
1558975073.505836,-1.203042,1.320673,-0.588144,-0.003435,0.265699,0.116631,-0.230974,-0.968882,-0.088990,-0.008894,0.041498,0.010758,-13.351998,-37.272541,14.553383,,,,,,,
1558975073.525815,-1.201797,1.319089,-0.583167,0.049852,0.257933,0.057879,-0.232293,-0.968489,-0.089831,0.037164,0.050657,-0.003019,-13.435898,-37.256325,14.517638,,,,,,,
1558975073.545815,-1.206840,1.322329,-0.578106,0.182886,-0.155266,-0.121068,-0.229810,-0.969290,-0.087541,0.059659,0.093970,-0.038573,-13.488491,-37.236740,14.519138,,,,,,,
1558975073.565804,-1.219658,1.325071,-0.568209,0.144511,-0.129560,-0.029035,-0.228416,-0.969961,-0.083673,0.037483,-0.008371,-0.054861,-13.358336,-37.216087,14.691394,,,,,,,
1558975073.585792,-1.223008,1.324786,-0.567163,0.021068,-0.095013,0.019241,-0.228955,-0.969892,-0.083002,0.002820,0.012876,-0.043875,-13.334158,-37.198006,14.758987,,,,,,,
1558975073.605784,-1.221184,1.324087,-0.569437,-0.070243,-0.020532,0.026286,-0.229441,-0.969721,-0.083651,0.016809,0.011942,-0.021131,-13.330572,-37.202141,14.751806,,,,,,,
1558975073.625746,-1.217427,1.322341,-0.574345,-0.061958,-0.062766,0.086744,-0.230713,-0.969293,-0.085099,0.006607,0.015253,-0.007888,-13.344904,-37.210938,14.716634,,,,,,,
1558975073.645759,-1.214400,1.320358,-0.578179,-0.096921,-0.025630,0.058245,-0.232255,-0.968804,-0.086467,0.005098,-0.018531,-0.020451,-13.391089,-37.212757,14.669991,,,,,,,
1558975073.665752,-1.208918,1.319854,-0.584507,-0.087171,-0.019487,-0.040980,-0.232235,-0.968679,-0.087912,0.007671,0.025426,0.015128,-13.411564,-37.238132,14.586654,,,,,,,
1558975073.685736,-1.201048,1.320829,-0.592098,-0.043376,0.007703,-0.082323,-0.230655,-0.968920,-0.089396,0.009097,-0.001615,0.033228,-13.376850,-37.264240,14.551835,,,,,,,
1558975073.705728,-1.202450,1.322988,-0.591853,0.069022,-0.115468,-0.059925,-0.228828,-0.969452,-0.088319,0.022620,0.020127,0.009950,-13.315826,-37.294144,14.531166,,,,,,,
1558975073.725720,-1.213773,1.324180,-0.583980,0.118712,-0.194927,-0.007264,-0.228730,-0.969744,-0.085318,0.020188,0.006777,-0.007867,-13.202096,-37.279823,14.671021,,,,,,,
1558975073.745695,-1.222712,1.325025,-0.576983,0.080914,-0.035117,-0.005765,-0.228713,-0.969950,-0.082991,0.002486,0.003199,-0.003435,-13.161018,-37.256405,14.767094,,,,,,,
1558975073.765695,-1.222557,1.325622,-0.575756,0.020678,0.094140,-0.016321,-0.228156,-0.970095,-0.082829,0.011893,0.003298,-0.010433,-13.152508,-37.238323,14.820194,,,,,,,
1558975073.785688,-1.218810,1.327168,-0.576707,0.012405,0.156510,-0.041357,-0.226435,-0.970469,-0.083165,0.022441,0.019679,-0.002650,-13.149668,-37.249886,14.793635,,,,,,,
1558975073.805661,-1.207846,1.328846,-0.585753,0.026879,0.013693,-0.072611,-0.223987,-0.970873,-0.085065,0.010059,0.015215,-0.022311,-13.096960,-37.297894,14.719238,,,,,,,
1558975073.825663,-1.203436,1.331022,-0.590982,-0.029562,-0.015680,-0.122050,-0.221638,-0.971392,-0.085293,0.007832,0.014513,-0.017292,-13.032618,-37.323048,14.712593,,,,,,,
1558975073.845626,-1.188254,1.331604,-0.604567,-0.117597,0.117025,-0.045048,-0.219793,-0.971530,-0.088437,0.010076,0.019931,-0.017886,-12.957049,-37.369152,14.662214,,,,,,,
1558975073.865643,-1.167361,1.332704,-0.622670,-0.148316,0.177483,-0.014606,-0.216915,-0.971790,-0.092590,0.026928,0.013660,-0.005707,-12.901781,-37.476803,14.434420,,,,,,,
1558975073.885631,-1.152300,1.331283,-0.634532,-0.172831,0.199915,0.056052,-0.216757,-0.971453,-0.096407,0.030890,0.039981,0.016115,-12.922115,-37.520485,14.302139,,,,,,,
1558975073.905593,-1.135272,1.329282,-0.647626,-0.194267,0.155648,0.080162,-0.216846,-0.970977,-0.100904,0.020527,0.020034,-0.022143,-12.954422,-37.545475,14.207029,,,,,,,
1558975073.925612,-1.119031,1.325030,-0.661822,-0.219917,0.118765,0.064843,-0.218891,-0.969951,-0.106214,-0.019115,0.016017,-0.003192,-13.111793,-37.618153,13.866305,,,,,,,
1558975073.945584,-1.103798,1.321685,-0.675311,-0.219960,0.100779,0.053996,-0.220144,-0.969132,-0.110996,-0.013208,0.017472,0.007450,-13.170885,-37.635857,13.761875,,,,,,,
1558975073.965591,-1.090836,1.319348,-0.687804,-0.171233,0.014862,0.025454,-0.220695,-0.968553,-0.114885,-0.003227,-0.003615,0.018846,-13.270455,-37.697758,13.494207,,,,,,,
1558975073.985579,-1.082571,1.317784,-0.695279,-0.132645,0.093930,0.021971,-0.221076,-0.968163,-0.117416,0.000159,0.008751,0.025787,-13.289829,-37.725231,13.397998,,,,,,,
1558975074.005551,-1.076781,1.316368,-0.700045,-0.058420,0.016412,0.044777,-0.221599,-0.967807,-0.119344,-0.002370,0.007328,-0.003917,-13.331064,-37.743073,13.306498,,,,,,,
1558975074.025550,-1.077627,1.315142,-0.700363,-0.023720,-0.110603,0.051062,-0.222744,-0.967498,-0.119718,0.005429,0.009323,-0.021548,-13.372660,-37.743023,13.264807,,,,,,,
1558975074.045547,-1.078822,1.313852,-0.702461,-0.035606,-0.170813,0.035529,-0.223988,-0.967171,-0.120041,-0.010128,-0.002525,-0.015869,-13.370226,-37.743675,13.265415,,,,,,,
1558975074.065511,-1.077665,1.312760,-0.706257,-0.088609,-0.112429,0.015760,-0.224778,-0.966893,-0.120800,-0.008620,-0.010463,-0.009663,-13.362160,-37.744549,13.271059,,,,,,,
1558975074.085526,-1.072999,1.310822,-0.712824,-0.131014,-0.061477,0.010878,-0.225859,-0.966397,-0.122742,-0.015276,-0.002308,-0.015472,-13.340034,-37.774918,13.206753,,,,,,,
1558975074.105515,-1.060229,1.308676,-0.726268,-0.215919,0.018253,0.015843,-0.226082,-0.965843,-0.126629,0.006325,-0.005501,-0.008319,-13.370203,-37.806877,13.084232,,,,,,,
1558975074.125491,-1.044389,1.306240,-0.741771,-0.244586,0.049084,0.034264,-0.226081,-0.965209,-0.131376,0.018027,0.015929,0.008909,-13.373182,-37.839405,12.986772,,,,,,,
1558975074.145475,-1.031255,1.302911,-0.754085,-0.216919,0.071217,0.088947,-0.227092,-0.964333,-0.135984,0.005504,0.008171,0.010007,-13.426019,-37.918457,12.698511,,,,,,,
1558975074.165482,-1.027848,1.300412,-0.757945,-0.115145,-0.075247,0.048125,-0.228690,-0.963668,-0.138002,-0.005487,0.019134,0.025071,-13.491106,-37.937618,12.571657,,,,,,,
1558975074.185452,-1.032604,1.299422,-0.757571,0.007709,-0.282065,0.012080,-0.230162,-0.963403,-0.137401,-0.008958,-0.002981,-0.001286,-13.502324,-37.928467,12.587210,,,,,,,
1558975074.205459,-1.041126,1.299225,-0.754931,0.015286,-0.252537,-0.006847,-0.231488,-0.963351,-0.135531,-0.008761,0.010882,0.007235,-13.434265,-37.916779,12.694784,,,,,,,
1558975074.225439,-1.042025,1.298556,-0.755862,-0.042453,0.001476,0.011554,-0.232167,-0.963171,-0.135648,-0.007808,0.010565,-0.002795,-13.412101,-37.909946,12.738558,,,,,,,
1558975074.245439,-1.038670,1.297271,-0.757558,-0.063325,0.129487,0.013832,-0.232777,-0.962825,-0.137054,-0.007763,0.007243,0.006148,-13.447050,-37.911598,12.696726,,,,,,,
1558975074.265431,-1.035881,1.296841,-0.758138,-0.015564,0.086958,0.015599,-0.232750,-0.962708,-0.137913,0.009697,0.018052,0.014363,-13.511639,-37.915562,12.616054,,,,,,,
1558975074.285406,-1.037462,1.297354,-0.756441,0.069175,-0.045631,0.003720,-0.232542,-0.962847,-0.137294,0.008833,0.008898,-0.007954,-13.514908,-37.913795,12.617872,,,,,,,
1558975074.305407,-1.041647,1.297732,-0.752410,0.056598,0.019988,0.016082,-0.232801,-0.962949,-0.136136,0.006361,0.012891,-0.004107,-13.507996,-37.898373,12.671486,,,,,,,
1558975074.325399,-1.040394,1.297294,-0.751372,0.011269,0.157644,0.020566,-0.232994,-0.962831,-0.136641,0.000755,0.012681,-0.014757,-13.543842,-37.881905,12.682467,,,,,,,
1558975074.345387,-1.036119,1.296399,-0.750892,-0.018147,0.280425,0.029192,-0.233149,-0.962589,-0.138075,-0.016484,0.001682,0.010756,-13.628968,-37.877460,12.604307,,,,,,,
1558975074.365375,-1.031215,1.295886,-0.749519,0.003193,0.291929,0.021846,-0.232893,-0.962450,-0.139470,-0.005678,0.000642,0.017522,-13.677253,-37.876133,12.555883,,,,,,,
1558975074.385367,-1.032039,1.296566,-0.745449,0.103615,0.069400,0.002714,-0.232445,-0.962634,-0.138942,0.013894,0.011157,-0.000752,-13.796098,-37.853962,12.492565,,,,,,,
1558975074.405355,-1.036016,1.297811,-0.740576,0.113053,0.032374,0.015177,-0.231965,-0.962970,-0.137406,0.012559,0.014209,-0.013854,-13.787320,-37.835758,12.557253,,,,,,,
1558975074.425343,-1.040783,1.297885,-0.733496,0.062318,0.165902,0.067661,-0.232556,-0.962990,-0.136263,0.008389,0.015328,0.002031,-13.787320,-37.835758,12.557253,,,,,,,
1558975074.445334,-1.043632,1.298667,-0.724746,0.026764,0.360586,0.072695,-0.232292,-0.963201,-0.135221,0.046104,0.033468,0.067594,-13.866360,-37.790737,12.605684,,,,,,,
1558975074.465304,-1.047222,1.297579,-0.718878,0.055293,-0.019004,0.091505,-0.233683,-0.962908,-0.134910,-0.021596,0.003939,-0.037744,-14.011143,-37.738483,12.602136,,,,,,,
1558975074.485297,-1.051729,1.296049,-0.715506,-0.008609,-0.051511,0.040965,-0.235568,-0.962494,-0.134586,-0.022885,-0.002945,-0.022992,-14.039907,-37.719234,12.627747,,,,,,,
1558975074.505294,-1.046934,1.294972,-0.719960,-0.111407,0.069470,0.001470,-0.235817,-0.962201,-0.136232,0.001885,0.021237,-0.000349,-14.092699,-37.711624,12.591599,,,,,,,
1558975074.525274,-1.038369,1.293747,-0.726777,-0.098591,0.092690,0.024123,-0.235657,-0.961867,-0.138845,0.009217,0.014616,0.016164,-14.108267,-37.733917,12.507116,,,,,,,
1558975074.545254,-1.035905,1.291756,-0.728277,-0.078613,0.048292,0.092044,-0.236962,-0.961320,-0.140401,-0.006615,0.018190,0.004369,-14.139909,-37.746990,12.431690,,,,,,,
1558975074.565261,-1.033857,1.289582,-0.730246,-0.077763,-0.028914,0.065682,-0.238469,-0.960719,-0.141955,-0.007686,0.019206,-0.006925,-14.247858,-37.737064,12.338217,,,,,,,
1558975074.585241,-1.031125,1.287823,-0.734873,-0.079054,-0.120945,0.013554,-0.239530,-0.960229,-0.143474,-0.006503,0.004297,-0.017720,-14.265940,-37.742908,12.299404,,,,,,,
1558975074.605221,-1.027616,1.286918,-0.740845,-0.108710,-0.085942,-0.009623,-0.239769,-0.959976,-0.144763,-0.007103,0.002823,-0.008252,-14.262208,-37.754654,12.267624,,,,,,,
1558975074.625239,-1.019027,1.285947,-0.750518,-0.162674,-0.000083,-0.037671,-0.239310,-0.959704,-0.147305,0.005637,0.007586,-0.005023,-14.215579,-37.804363,12.168262,,,,,,,
1558975074.645227,-1.007428,1.284802,-0.761425,-0.164619,0.070796,-0.004966,-0.238515,-0.959382,-0.150658,0.014104,0.013169,0.010933,-14.203640,-37.841381,12.066713,,,,,,,
1558975074.665199,-1.000431,1.284522,-0.768004,-0.077535,-0.005813,-0.035525,-0.237681,-0.959302,-0.152468,0.012125,0.016859,0.014727,-14.186580,-37.881199,11.961399,,,,,,,
1558975074.685207,-0.999783,1.285646,-0.771136,0.024134,-0.180808,-0.071284,-0.236674,-0.959619,-0.152039,0.010890,0.012781,-0.003585,-14.124686,-37.911819,11.937594,,,,,,,
1558975074.705195,-1.004331,1.287461,-0.770777,0.053854,-0.199968,-0.056497,-0.235893,-0.960128,-0.150027,-0.000084,0.015640,0.004870,-14.007786,-37.927540,12.025105,,,,,,,
1558975074.725183,-1.007622,1.288027,-0.769617,0.015952,-0.051720,-0.011334,-0.235926,-0.960286,-0.148959,-0.005804,0.012197,0.000186,-13.969976,-37.926407,12.072550,,,,,,,
1558975074.745175,-1.007989,1.288114,-0.769116,0.012991,0.018054,-0.013871,-0.235910,-0.960311,-0.148828,-0.003607,0.001510,-0.005301,-13.949500,-37.920776,12.113855,,,,,,,
1558975074.765148,-1.007869,1.288655,-0.769288,0.031020,-0.010607,-0.032281,-0.235453,-0.960461,-0.148579,0.004694,0.007413,0.001148,-13.942791,-37.922684,12.115593,,,,,,,
1558975074.785151,-1.009702,1.290239,-0.767749,0.081019,-0.030989,-0.055925,-0.234436,-0.960901,-0.147337,0.010392,0.018686,0.000975,-13.909735,-37.927643,12.138064,,,,,,,
1558975074.805143,-1.012436,1.292171,-0.765271,0.081108,0.001796,-0.043868,-0.233263,-0.961435,-0.145712,0.003389,0.005075,-0.003489,-13.843976,-37.923809,12.224910,,,,,,,
1558975074.825109,-1.013228,1.293275,-0.763420,0.047226,0.069664,-0.016555,-0.232478,-0.961737,-0.144966,0.011302,0.002158,-0.006615,-13.824329,-37.919975,12.258965,,,,,,,
1558975074.845095,-1.008842,1.293243,-0.765422,-0.005839,0.130230,0.008537,-0.231866,-0.961729,-0.146000,0.008584,0.006452,-0.015026,-13.827009,-37.923851,12.243935,,,,,,,
1558975074.865093,-1.005293,1.292890,-0.766477,0.016448,0.107908,0.003003,-0.231633,-0.961632,-0.147004,0.003651,0.020455,-0.003524,-13.868426,-37.933144,12.168095,,,,,,,
1558975074.885076,-1.005749,1.293707,-0.764683,0.068365,0.027279,-0.012676,-0.231036,-0.961856,-0.146478,0.010516,0.003909,-0.006888,-13.877104,-37.933521,12.157027,,,,,,,
1558975074.905063,-1.007435,1.294378,-0.763235,0.068152,-0.034018,-0.006857,-0.230737,-0.962039,-0.145743,-0.000830,0.012744,-0.010309,-13.863148,-37.930664,12.181831,,,,,,,
1558975074.925060,-1.016492,1.295550,-0.753765,0.077013,0.069533,0.013358,-0.231089,-0.962358,-0.143054,0.002513,0.027345,0.044574,-13.866758,-37.904633,12.258513,,,,,,,
1558975074.945067,-1.019286,1.295880,-0.748118,0.071650,0.070662,0.043258,-0.231217,-0.962448,-0.142241,0.018479,-0.005722,-0.037919,-13.874153,-37.885948,12.307786,,,,,,,
1558975074.965056,-1.028626,1.295259,-0.739953,0.121070,-0.114575,0.042595,-0.233047,-0.962279,-0.140384,-0.025101,0.012450,-0.025174,-13.934860,-37.851448,12.345303,,,,,,,
1558975074.985048,-1.035038,1.295789,-0.734743,0.038374,-0.031755,0.001683,-0.233504,-0.962423,-0.138627,-0.013490,0.010900,-0.009170,-13.970469,-37.808849,12.435276,,,,,,,
1558975075.005035,-1.037208,1.295860,-0.732896,0.035114,-0.039096,0.029368,-0.233746,-0.962442,-0.138085,-0.004200,0.007471,0.019417,-13.964180,-37.790878,12.496816,,,,,,,
1558975075.025021,-1.041855,1.294933,-0.728652,-0.002106,-0.001820,0.086281,-0.235155,-0.962191,-0.137447,-0.013151,0.000582,0.000866,-13.964180,-37.790878,12.496816,,,,,,,
1558975075.044990,-1.042112,1.293172,-0.727853,-0.030738,0.021551,0.064061,-0.236653,-0.961709,-0.138241,-0.001491,0.013101,-0.004398,-14.067044,-37.749138,12.507591,,,,,,,
1558975075.065003,-1.038188,1.291682,-0.731092,-0.105074,0.064184,0.038786,-0.237343,-0.961300,-0.139896,-0.006019,0.012279,-0.002621,-14.110781,-37.749954,12.455761,,,,,,,
1558975075.084988,-1.030240,1.289738,-0.737712,-0.135943,0.060104,0.029113,-0.237826,-0.960762,-0.142740,0.001803,0.011513,-0.021079,-14.135070,-37.758160,12.403249,,,,,,,
1558975075.104954,-1.022002,1.288162,-0.746637,-0.110805,-0.077484,-0.001011,-0.237933,-0.960324,-0.145484,-0.001523,0.008984,-0.004205,-14.172606,-37.803436,12.221148,,,,,,,
1558975075.124971,-1.018582,1.287474,-0.753123,-0.091885,-0.157940,-0.016713,-0.237997,-0.960132,-0.146643,0.006307,0.010242,0.002646,-14.136227,-37.830669,12.178947,,,,,,,
1558975075.144955,-1.015719,1.286416,-0.758572,-0.104506,-0.092276,0.025543,-0.238439,-0.959836,-0.147859,0.005910,0.009000,0.009279,-14.109396,-37.845058,12.165348,,,,,,,
1558975075.164952,-1.014649,1.285388,-0.761048,-0.094749,-0.032054,0.042141,-0.239119,-0.959547,-0.148635,0.004774,0.007124,0.016494,-14.097745,-37.866104,12.113256,,,,,,,
1558975075.184940,-1.011746,1.283987,-0.763984,-0.082790,0.036566,0.026793,-0.239826,-0.959151,-0.150041,-0.001583,0.005141,0.010469,-14.110945,-37.871201,12.081907,,,,,,,
1558975075.204927,-1.007739,1.283210,-0.767491,-0.043482,-0.000681,-0.003426,-0.239852,-0.958931,-0.151399,0.013839,0.019936,-0.003234,-14.138144,-37.880424,12.021042,,,,,,,
1558975075.224920,-1.007280,1.283616,-0.769650,0.040244,-0.116350,-0.013009,-0.239454,-0.959046,-0.151301,0.004637,0.009492,-0.009191,-14.109615,-37.897896,11.999476,,,,,,,
1558975075.244883,-1.012398,1.284323,-0.767312,0.074148,-0.158789,-0.000577,-0.239650,-0.959246,-0.149714,0.006465,0.012042,-0.003759,-14.063781,-37.893425,12.067228,,,,,,,
1558975075.264896,-1.015433,1.284557,-0.766334,0.010538,-0.072815,0.014074,-0.239912,-0.959312,-0.148868,0.010481,0.010216,-0.017621,-14.043182,-37.887501,12.109724,,,,,,,
1558975075.284888,-1.009613,1.283220,-0.771858,-0.094577,0.040939,0.081269,-0.240127,-0.958934,-0.150944,0.024002,-0.007313,-0.019039,-14.045140,-37.894249,12.086315,,,,,,,
1558975075.304846,-1.003156,1.280615,-0.778989,-0.160950,-0.078172,0.069398,-0.241253,-0.958192,-0.153834,0.015927,-0.015578,-0.013112,-14.074724,-37.911953,11.996056,,,,,,,
1558975075.324865,-0.997078,1.277842,-0.787513,-0.196075,-0.085412,0.052217,-0.242545,-0.957395,-0.156739,0.001639,-0.029101,0.005967,-14.083194,-37.943069,11.887246,,,,,,,
1558975075.344856,-0.987308,1.277528,-0.796545,-0.086301,0.172635,-0.177971,-0.241252,-0.957304,-0.159267,-0.070668,0.005354,0.039714,-14.085850,-37.984680,11.750422,,,,,,,
1558975075.364837,-0.973143,1.282370,-0.806803,0.055449,0.164291,-0.312461,-0.235138,-0.958693,-0.160058,-0.036346,-0.027758,0.057915,-13.992076,-38.040901,11.680374,,,,,,,
1558975075.384833,-0.967952,1.288310,-0.812875,0.016109,-0.148386,-0.316551,-0.229609,-0.960365,-0.158044,-0.010656,-0.008507,0.052209,-13.799728,-38.096004,11.729492,,,,,,,
1558975075.404823,-0.958349,1.293483,-0.827904,-0.052344,-0.255868,-0.334717,-0.224013,-0.961794,-0.157384,-0.007555,0.011355,0.042119,-13.435890,-38.205799,11.794615,,,,,,,
1558975075.424810,-0.948271,1.298378,-0.843181,-0.075658,-0.214489,-0.311919,-0.218588,-0.963123,-0.156887,0.000753,0.010410,0.057781,-13.203671,-38.271992,11.842165,,,,,,,
1558975075.444801,-0.934404,1.301517,-0.862195,-0.153596,-0.258389,-0.254749,-0.213959,-0.963963,-0.158105,0.010346,0.014546,0.053705,-12.921110,-38.370537,11.834948,,,,,,,
1558975075.464767,-0.923237,1.303130,-0.881960,-0.202288,-0.462015,-0.172394,-0.210940,-0.964391,-0.159546,0.002993,0.003728,0.009842,-12.714394,-38.442295,11.825962,,,,,,,
1558975075.484750,-0.919496,1.303890,-0.895523,-0.014944,-0.450273,-0.144372,-0.209759,-0.964591,-0.159890,-0.008701,0.012672,-0.011237,-12.355427,-38.567207,11.799721,,,,,,,
1558975075.504769,-0.928583,1.306964,-0.894459,0.158689,-0.392984,-0.099911,-0.208827,-0.965398,-0.156201,-0.001256,0.017690,-0.016391,-17.799065,-42.041142,13.574099,,,,,,,
1558975075.524760,-0.943994,1.309655,-0.888560,0.106121,-0.491986,-0.045383,-0.209105,-0.966096,-0.151440,0.032057,0.013749,0.062817,-17.655659,-42.035816,13.776375,,,,,,,
1558975075.544749,-0.951732,1.311082,-0.886475,0.004738,-0.238802,-0.028095,-0.209147,-0.966463,-0.149017,0.034449,0.014101,-0.015824,-17.421246,-42.017921,14.124973,,,,,,,
1558975075.564736,-0.949184,1.310806,-0.893047,-0.113254,-0.196987,-0.047007,-0.208983,-0.966392,-0.149705,0.023437,0.020760,-0.019226,-17.358057,-42.032566,14.159164,,,,,,,
1558975075.584701,-0.942302,1.310097,-0.904545,-0.089949,-0.229873,-0.045169,-0.208503,-0.966210,-0.151542,-0.001107,0.013970,-0.016976,-17.279331,-42.081001,14.111512,,,,,,,
1558975075.604717,-0.937732,1.310583,-0.913320,-0.011980,-0.171161,-0.092590,-0.207429,-0.966335,-0.152216,0.012025,0.018200,-0.022238,-17.115807,-42.142639,14.126848,,,,,,,
1558975075.624691,-0.937156,1.312099,-0.917194,0.007202,-0.158558,-0.079642,-0.206161,-0.966724,-0.151467,0.026107,0.017048,-0.027244,-17.044832,-42.174210,14.118437,,,,,,,
1558975075.644668,-0.935874,1.313188,-0.921357,0.057222,-0.141846,-0.037806,-0.205119,-0.967002,-0.151107,0.021510,0.022056,-0.026429,-16.888517,-42.203709,14.217779,,,,,,,
1558975075.664685,-0.943690,1.314765,-0.917094,0.109122,-0.216094,-0.027799,-0.205058,-0.967403,-0.148604,0.015513,0.018535,-0.017991,-16.815590,-42.218533,14.260158,,,,,,,
1558975075.684659,-0.955677,1.316789,-0.910012,0.140898,-0.267007,-0.033599,-0.205226,-0.967913,-0.145006,0.011302,0.037371,0.000200,-16.750856,-42.202442,14.383452,,,,,,,
1558975075.704646,-0.965203,1.319040,-0.905243,0.124998,-0.235177,-0.009822,-0.204806,-0.968476,-0.141803,0.041445,0.030152,-0.012845,-16.602415,-42.157005,14.685623,,,,,,,
1558975075.724653,-0.969966,1.320685,-0.903213,0.085981,-0.102780,0.033046,-0.204164,-0.968885,-0.139925,0.049654,0.027173,-0.019452,-16.525932,-42.150097,14.791319,,,,,,,
1558975075.744626,-0.970201,1.320700,-0.903164,0.028676,-0.011456,0.112874,-0.204185,-0.968889,-0.139869,0.017586,0.011811,-0.009545,-16.437643,-42.175167,14.818218,,,,,,,
1558975075.764632,-0.975508,1.318071,-0.898888,0.069780,-0.136405,0.108508,-0.207033,-0.968235,-0.140212,-0.010450,0.007083,-0.030717,-16.533104,-42.134499,14.827723,,,,,,,
1558975075.784622,-0.991573,1.318212,-0.887714,0.128901,-0.309086,0.056723,-0.209144,-0.968270,-0.136793,-0.010979,0.000481,-0.028445,-16.556454,-42.082481,14.948881,,,,,,,
1558975075.804609,-1.006195,1.319708,-0.877758,0.132623,-0.184496,-0.022155,-0.209898,-0.968643,-0.132945,-0.016543,0.007156,-0.019033,-16.530575,-42.054398,15.056160,,,,,,,
1558975075.824602,-1.008436,1.320247,-0.877450,-0.023435,-0.067443,-0.047850,-0.209754,-0.968776,-0.132196,-0.003274,0.012539,0.005944,-16.441755,-42.018757,15.251666,,,,,,,
1558975075.844588,-1.002698,1.319786,-0.884599,-0.112908,-0.065856,-0.007336,-0.209368,-0.968662,-0.133637,0.008394,0.027073,0.000123,-16.391445,-42.051067,15.216732,,,,,,,
1558975075.864577,-0.998615,1.318308,-0.891227,-0.092035,-0.171598,0.038645,-0.210024,-0.968294,-0.135266,0.007952,0.028551,0.001004,-16.372387,-42.078991,15.159943,,,,,,,
1558975075.884569,-1.001346,1.316981,-0.893648,-0.032759,-0.271263,0.043076,-0.211475,-0.967961,-0.135385,-0.000058,0.027455,-0.002844,-16.332096,-42.094395,15.160643,,,,,,,
1558975075.904547,-1.011425,1.316027,-0.888239,0.060024,-0.208295,0.066175,-0.213611,-0.967722,-0.133736,-0.010861,0.022333,0.015191,-16.318268,-42.077187,15.223184,,,,,,,
1558975075.924545,-1.019254,1.314911,-0.883790,-0.022835,-0.149703,0.080549,-0.215571,-0.967440,-0.132626,-0.014593,0.007540,0.065808,-16.314800,-42.039406,15.330894,,,,,,,
1558975075.944537,-1.024504,1.313062,-0.882424,-0.128471,-0.257052,0.033532,-0.217792,-0.966970,-0.132421,-0.031002,-0.004877,0.028387,-16.348377,-42.002270,15.396759,,,,,,,
1558975075.964514,-1.021687,1.310699,-0.892505,-0.178917,-0.384690,0.030134,-0.219368,-0.966365,-0.134227,-0.043404,-0.008534,0.029277,-16.302490,-42.028774,15.373070,,,,,,,
1558975075.984513,-1.022690,1.307910,-0.897627,-0.120883,-0.223294,0.016783,-0.221801,-0.965644,-0.135410,-0.048646,-0.014123,0.003132,-16.266300,-42.046818,15.362056,,,,,,,
1558975076.004505,-1.019464,1.306755,-0.903432,-0.085196,-0.055424,0.012012,-0.222314,-0.965343,-0.136709,-0.027290,-0.012989,-0.006952,-16.210583,-42.083771,15.319719,,,,,,,
1558975076.024481,-1.016020,1.305059,-0.906820,-0.041324,0.027894,0.041673,-0.223232,-0.964899,-0.138336,0.001446,-0.004461,-0.018616,-16.233944,-42.097363,15.257509,,,,,,,
1558975076.044481,-1.018179,1.304194,-0.904491,0.025554,-0.019997,0.059418,-0.224241,-0.964672,-0.138292,0.013273,0.003734,0.000475,-16.264574,-42.096451,15.227375,,,,,,,
1558975076.064473,-1.024633,1.303180,-0.899198,0.016695,-0.107628,0.095939,-0.225965,-0.964404,-0.137350,0.006864,0.000888,0.009024,-16.307146,-42.071663,15.250330,,,,,,,
1558975076.084448,-1.028304,1.302443,-0.898223,-0.023762,-0.149827,0.007956,-0.227076,-0.964209,-0.136887,-0.014089,-0.017099,-0.012039,-16.351368,-42.033909,15.306981,,,,,,,
1558975076.104444,-1.028075,1.301908,-0.900794,0.000975,-0.086585,-0.024515,-0.227486,-0.964067,-0.137205,-0.009468,-0.004820,-0.027300,-16.323566,-42.036572,15.329329,,,,,,,
1558975076.124437,-1.027217,1.302168,-0.902411,0.039459,-0.030747,-0.012206,-0.227154,-0.964136,-0.137270,0.003506,0.002191,-0.023054,-16.281969,-42.045773,15.348320,,,,,,,
1558975076.144421,-1.029832,1.302524,-0.900833,0.005214,-0.079168,0.002250,-0.227218,-0.964230,-0.136499,0.004226,0.002499,-0.027838,-16.266575,-42.051662,15.348513,,,,,,,
1558975076.164393,-1.030968,1.302087,-0.901424,-0.022490,-0.081116,0.016088,-0.227735,-0.964114,-0.136458,-0.000674,0.006808,-0.041307,-16.247137,-42.049675,15.374512,,,,,,,
1558975076.184402,-1.020310,1.299688,-0.913625,-0.021525,-0.110726,0.008331,-0.228238,-0.963475,-0.140087,-0.004550,0.009281,-0.072255,-16.240734,-42.075581,15.310272,,,,,,,
1558975076.204383,-1.019844,1.299476,-0.916065,-0.041559,-0.063090,-0.014717,-0.228346,-0.963418,-0.140300,-0.008348,0.011773,-0.096791,-16.221581,-42.110764,15.233664,,,,,,,
1558975076.224362,-1.015239,1.299159,-0.920042,-0.056984,0.105066,-0.007782,-0.227957,-0.963333,-0.141511,0.016531,0.009674,-0.146209,-16.198717,-42.123886,15.221688,,,,,,,
1558975076.244369,-1.010119,1.298265,-0.921446,-0.022637,0.218073,0.050980,-0.227959,-0.963093,-0.143134,0.049645,0.021763,-0.222604,-16.257351,-42.145226,15.099628,,,,,,,
1558975076.264365,-1.008155,1.296899,-0.918632,0.006136,0.246522,0.091846,-0.228790,-0.962724,-0.144283,0.058960,0.029130,-0.271839,-16.382742,-42.126534,15.016035,,,,,,,
1558975076.284350,-1.009450,1.295692,-0.911273,0.084057,0.316951,0.104326,-0.229960,-0.962397,-0.144605,0.067134,0.026697,-0.306612,-16.461124,-42.108719,14.980242,,,,,,,
1558975076.304345,-1.014261,1.295785,-0.897631,0.213491,0.500162,0.084831,-0.230577,-0.962422,-0.143450,0.072862,0.008595,-0.323042,-16.743336,-42.012379,14.937901,,,,,,,
1558975076.324333,-1.020375,1.297304,-0.877782,0.285607,0.739716,0.079708,-0.230203,-0.962834,-0.141272,0.079889,0.002278,-0.320871,-16.918530,-41.938396,14.948408,,,,,,,
1558975076.344322,-1.021250,1.298385,-0.858420,0.211813,0.965270,0.094619,-0.229439,-0.963125,-0.140527,0.087243,-0.009058,-0.319113,-17.218224,-41.827106,14.917977,,,,,,,
1558975076.364313,-1.011963,1.298264,-0.845539,0.111363,1.170857,0.094371,-0.228223,-0.963092,-0.142714,0.077390,-0.006344,-0.328950,-17.691830,-41.717407,14.668926,,,,,,,
1558975076.384302,-0.993741,1.297809,-0.837889,0.061917,1.333848,0.061727,-0.225953,-0.962970,-0.147088,0.079789,0.012225,-0.371085,-18.119701,-41.662560,14.297836,,,,,,,
1558975076.404289,-0.975170,1.298081,-0.827017,0.207373,1.552977,0.085294,-0.222965,-0.963043,-0.151111,0.071110,0.011749,-0.355221,-18.336586,-41.642166,14.079063,,,,,,,
1558975076.424281,-0.968101,1.300514,-0.798524,0.471062,1.805341,0.130626,-0.219961,-0.963695,-0.151355,0.049322,0.007366,-0.205258,-19.107693,-41.486706,13.500740,,,,,,,
1558975076.444250,-0.964624,1.304076,-0.765427,0.410171,1.713616,0.073114,-0.216610,-0.964641,-0.150162,0.029964,0.023082,-0.172363,-19.683256,-41.313713,13.201030,,,,,,,
1558975076.464234,-0.948076,1.306386,-0.748172,0.174883,1.672474,0.007405,-0.212285,-0.965247,-0.152426,0.015935,0.068106,-0.200800,-19.932564,-41.251163,13.021328,,,,,,,
1558975076.484224,-0.920817,1.308127,-0.739558,0.162765,1.876556,0.017890,-0.206714,-0.965700,-0.157138,0.027545,0.060640,-0.203732,-20.588123,-41.178165,12.206885,,,,,,,
1558975076.504217,-0.902081,1.310297,-0.716111,0.397665,2.157753,0.158496,-0.202089,-0.966262,-0.159683,0.021150,0.047927,-0.108947,-20.705498,-41.166462,12.046801,,,,,,,
1558975076.524196,-0.897532,1.312496,-0.677134,0.462016,2.020132,0.244777,-0.199698,-0.966826,-0.159276,-0.035272,0.064757,-0.038783,-21.603029,-40.956947,11.151594,,,,,,,
1558975076.544199,-0.892953,1.313661,-0.644147,0.290874,1.748252,0.198264,-0.198090,-0.967122,-0.159482,-0.071975,0.100789,-0.054385,-22.362801,-40.716084,10.517906,,,,,,,
1558975076.564184,-0.877244,1.312970,-0.622932,0.134796,1.878053,0.215396,-0.196074,-0.966947,-0.163001,-0.050844,0.114789,-0.102151,-22.494381,-40.678677,10.381151,,,,,,,
1558975076.584194,-0.864600,1.310228,-0.593123,0.295209,2.214761,0.460036,-0.196014,-0.966244,-0.167188,-0.029648,0.072048,-0.037112,-23.321365,-40.471851,9.309326,,,,,,,
1558975076.604185,-0.868296,1.306463,-0.541302,0.402822,2.311656,0.605182,-0.199405,-0.965267,-0.168811,-0.115170,0.005077,0.034488,-24.332310,-40.093933,8.302752,,,,,,,
1558975076.624174,-0.868376,1.303020,-0.496628,0.292518,2.029751,0.428368,-0.201954,-0.964362,-0.170941,-0.137859,0.018790,-0.003680,-25.126583,-39.761768,7.495148,,,,,,,
1558975076.644162,-0.859857,1.301448,-0.468490,0.218172,1.674716,0.247681,-0.201640,-0.963944,-0.173645,-0.135259,0.050141,-0.034684,-25.126583,-39.761768,7.495148,,,,,,,
1558975076.664153,-0.854336,1.302029,-0.439981,0.369299,1.661223,0.238064,-0.200255,-0.964099,-0.174387,-0.091859,0.072177,-0.061468,-25.871742,-39.473080,6.406954,,,,,,,
1558975076.684142,-0.861484,1.303276,-0.397212,0.521524,1.725105,0.375456,-0.200584,-0.964429,-0.172168,-0.134666,0.081785,-0.026684,-26.485409,-39.194721,5.551346,,,,,,,
1558975076.704102,-0.875860,1.303212,-0.347292,0.464815,1.669489,0.447478,-0.203086,-0.964412,-0.169307,-0.159997,0.083950,-0.033941,-26.485409,-39.194721,5.551346,,,,,,,
1558975076.724105,-0.887323,1.301136,-0.302249,0.395338,1.578938,0.439084,-0.206565,-0.963862,-0.168231,-0.183480,0.081888,-0.037930,-27.499535,-38.629211,4.481066,,,,,,,
1558975076.744110,-0.904325,1.300613,-0.251863,0.590111,1.580059,0.459536,-0.209792,-0.963722,-0.165007,-0.168047,0.063942,0.001921,-27.967693,-38.349064,3.959512,,,,,,,
1558975076.764096,-0.931932,1.299980,-0.191828,0.565232,1.471356,0.486235,-0.214756,-0.963553,-0.159517,-0.166225,0.048071,0.077531,-28.207245,-38.194221,3.751418,,,,,,,
1558975076.784072,-0.946053,1.297847,-0.147755,0.330902,1.386836,0.396624,-0.218654,-0.962980,-0.157670,-0.182606,0.085752,0.040071,-28.912201,-37.722542,3.100808,,,,,,,
1558975076.804077,-0.947936,1.295241,-0.117555,0.241494,1.358666,0.329021,-0.220988,-0.962274,-0.158722,-0.166463,0.095377,0.027633,-29.260983,-37.496525,2.515081,,,,,,,
1558975076.824042,-0.952434,1.292387,-0.083392,0.327846,1.437617,0.416325,-0.223936,-0.961494,-0.159317,-0.143572,0.086875,0.066773,-29.508293,-37.330540,2.052289,,,,,,,
1558975076.844042,-0.961338,1.288618,-0.045076,0.313673,1.363792,0.477531,-0.228316,-0.960451,-0.159391,-0.160249,0.101503,0.084622,-29.971268,-36.993996,1.299139,,,,,,,
1558975076.864027,-0.971549,1.284281,-0.007518,0.322968,1.276007,0.474563,-0.233369,-0.959235,-0.159399,-0.162414,0.104773,0.088186,-30.257839,-36.772636,0.869880,,,,,,,
1558975076.884033,-0.983802,1.281212,0.033294,0.438300,1.372596,0.441415,-0.237755,-0.958363,-0.158157,-0.185555,0.062580,0.186615,-30.615362,-36.484394,0.329938,,,,,,,
1558975076.904026,-0.997657,1.279063,0.072226,0.348742,0.970228,0.362756,-0.241653,-0.957747,-0.155964,-0.197098,0.037733,0.275624,-28.395302,-38.295410,3.686828,,,,,,,
1558975076.923986,-1.011045,1.276270,0.098943,0.219408,0.463471,0.315096,-0.245986,-0.956940,-0.154135,-0.200853,0.037613,0.238669,-28.635881,-38.132122,3.514601,,,,,,,
1558975076.944001,-1.024595,1.273288,0.124684,0.262661,0.673606,0.326751,-0.250489,-0.956070,-0.152270,-0.207107,0.017929,0.174761,-28.911701,-37.933342,3.405822,,,,,,,
1558975076.963994,-1.035168,1.270838,0.153437,0.319847,0.896310,0.320387,-0.254098,-0.955349,-0.150808,-0.175422,-0.001133,0.193944,-29.280102,-37.674126,3.124229,,,,,,,
1558975076.983979,-1.046339,1.268526,0.181656,0.273416,0.685116,0.295908,-0.257678,-0.954663,-0.149066,-0.158154,-0.002918,0.197574,-29.500076,-37.518490,2.921197,,,,,,,
1558975077.003969,-1.056362,1.266564,0.203608,0.236682,0.481177,0.209582,-0.260789,-0.954077,-0.147397,-0.178893,0.008627,0.189359,-29.751923,-37.333687,2.728342,,,,,,,
1558975077.023961,-1.070376,1.266555,0.226835,0.374810,0.384199,0.167126,-0.262836,-0.954075,-0.143731,-0.175533,-0.012707,0.177209,-29.889233,-37.229774,2.646231,,,,,,,
1558975077.043919,-1.096085,1.267414,0.261051,0.487312,0.307583,0.220933,-0.265715,-0.954332,-0.136553,-0.187242,-0.010466,0.284136,-30.076241,-37.074612,2.705165,,,,,,,
1558975077.063937,-1.119830,1.267316,0.291423,0.334974,0.256540,0.187225,-0.268967,-0.954302,-0.130247,-0.211044,-0.007597,0.320310,-30.253759,-36.917110,2.874344,,,,,,,
1558975077.083930,-1.132527,1.267093,0.308452,0.168624,0.115602,0.071505,-0.270791,-0.954236,-0.126911,-0.249716,-0.014194,0.347675,-30.416840,-36.774971,2.973550,,,,,,,
1558975077.103886,-1.138285,1.268179,0.314514,0.080924,-0.068048,-0.056306,-0.270577,-0.954560,-0.124915,-0.238396,-0.000686,0.367088,-30.440735,-36.751621,3.017423,,,,,,,
1558975077.123905,-1.143015,1.270454,0.315606,0.049495,-0.263514,-0.112652,-0.269188,-0.955235,-0.122733,-0.221489,0.010381,0.372535,-30.388386,-36.785561,3.129396,,,,,,,
1558975077.143897,-1.147122,1.272764,0.312005,-0.041510,-0.432189,-0.133557,-0.267678,-0.955916,-0.120719,-0.208931,0.033324,0.370399,-30.313631,-36.834488,3.275496,,,,,,,
1558975077.163865,-1.144908,1.274578,0.299242,-0.202505,-0.531829,-0.180549,-0.265830,-0.956447,-0.120595,-0.191552,0.037990,0.348729,-30.111691,-36.968658,3.609569,,,,,,,
1558975077.183846,-1.133427,1.275569,0.274430,-0.356192,-0.663179,-0.201147,-0.263569,-0.956736,-0.123237,-0.180401,0.043131,0.328178,-29.976189,-37.067200,3.725016,,,,,,,
1558975077.203865,-1.121181,1.275455,0.245861,-0.372774,-0.825793,-0.148267,-0.262138,-0.956703,-0.126503,-0.158241,0.048301,0.273811,-29.734001,-37.243191,3.906244,,,,,,,
1558975077.223853,-1.116605,1.274589,0.221063,-0.329816,-1.016222,-0.108417,-0.262302,-0.956450,-0.128065,-0.250211,0.077758,0.249326,-29.564384,-37.348240,4.181018,,,,,,,
1558975077.243822,-1.115367,1.273974,0.197257,-0.335394,-1.110320,-0.144554,-0.262671,-0.956271,-0.128648,-0.267160,0.100192,0.240678,-29.434282,-37.418690,4.459706,,,,,,,
1558975077.263819,-1.110837,1.274023,0.168343,-0.412227,-1.197746,-0.209512,-0.262044,-0.956285,-0.129816,-0.148616,0.086519,0.187784,-29.147987,-37.580345,4.953552,,,,,,,
1558975077.283821,-1.103194,1.273188,0.132582,-0.542824,-1.406305,-0.180651,-0.261756,-0.956041,-0.132174,-0.143990,0.092042,0.177737,-28.935307,-37.704269,5.249825,,,,,,,
1558975077.303797,-1.091744,1.269759,0.089649,-0.686874,-1.480497,-0.114215,-0.263133,-0.955029,-0.136673,-0.193593,0.092694,0.164398,-28.719839,-37.825878,5.549618,,,,,,,
1558975077.323789,-1.078220,1.264860,0.044997,-0.703876,-1.466651,-0.103419,-0.265380,-0.953565,-0.142430,-0.206834,0.066664,0.113896,-28.339827,-38.038342,6.030225,,,,,,,
1558975077.343789,-1.068267,1.261068,0.002355,-0.614710,-1.571859,-0.167346,-0.267116,-0.952417,-0.146805,-0.200321,0.063714,0.110748,-28.134163,-38.152203,6.269215,,,,,,,
1558975077.363756,-1.068230,1.260254,-0.033294,-0.432225,-1.797038,-0.256902,-0.267791,-0.952168,-0.147188,-0.157777,0.028141,0.072924,-27.885614,-38.282063,6.580375,,,,,,,
1558975077.383747,-1.076869,1.261197,-0.063752,-0.378274,-1.900913,-0.259989,-0.268262,-0.952456,-0.144444,-0.130939,0.022799,0.019947,-27.213982,-38.580769,7.572868,,,,,,,
1558975077.403756,-1.084652,1.261302,-0.095800,-0.468865,-1.911992,-0.211056,-0.269289,-0.952488,-0.142305,-0.138014,0.037800,0.021989,-26.843056,-38.729332,8.118746,,,,,,,
1558975077.423733,-1.087074,1.259476,-0.132575,-0.573036,-1.851143,-0.176392,-0.271172,-0.951930,-0.142461,-0.159507,0.047999,-0.003368,-26.364182,-38.919392,8.754162,,,,,,,
1558975077.443728,-1.087068,1.257794,-0.171549,-0.550663,-1.868248,-0.226717,-0.272589,-0.951413,-0.143207,-0.117289,0.033506,-0.012189,-25.759832,-39.171570,9.404465,,,,,,,
1558975077.463724,-1.089201,1.257529,-0.210586,-0.550085,-2.042745,-0.284973,-0.273117,-0.951332,-0.142742,-0.106766,0.014061,-0.028996,-25.189400,-39.404686,9.959391,,,,,,,
1558975077.483699,-1.086611,1.256996,-0.256202,-0.703201,-2.003931,-0.313550,-0.273195,-0.951167,-0.143685,-0.129515,0.006892,-0.043235,-24.868090,-39.533714,10.251251,,,,,,,
1558975077.503704,-1.071948,1.255337,-0.311626,-0.835703,-1.848960,-0.346338,-0.272444,-0.950654,-0.148430,-0.161424,0.045655,-0.119377,-23.863819,-39.993305,10.838747,,,,,,,
1558975077.523692,-1.050619,1.254018,-0.371518,-0.840541,-1.740188,-0.430712,-0.270304,-0.950244,-0.154830,-0.150777,0.064608,-0.142061,-23.346230,-40.260517,10.975835,,,,,,,
1558975077.543681,-1.025993,1.254363,-0.432223,-0.769650,-1.592728,-0.530671,-0.266130,-0.950351,-0.161269,-0.074981,0.041233,-0.251909,-22.606655,-40.648621,11.092936,,,,,,,
1558975077.563672,-1.008444,1.257043,-0.482400,-0.447822,-1.469640,-0.496138,-0.261103,-0.951182,-0.164555,-0.025121,0.049448,-0.234141,-21.633057,-41.134670,11.241629,,,,,,,
1558975077.583654,-1.013711,1.261596,-0.507841,-0.097970,-1.515664,-0.355369,-0.258287,-0.952577,-0.160886,0.004716,0.008394,-0.200076,-21.103638,-41.338268,11.498219,,,,,,,
1558975077.603648,-1.036761,1.267547,-0.515252,0.114956,-1.481820,-0.300425,-0.257043,-0.954371,-0.152002,0.011926,0.000010,-0.157644,-20.462677,-41.495235,12.076805,,,,,,,
1558975077.623640,-1.063167,1.273076,-0.519053,0.051882,-1.539546,-0.247645,-0.256351,-0.956008,-0.142595,0.025623,-0.030748,-0.143522,-19.699942,-41.606869,12.930792,,,,,,,
1558975077.643610,-1.085430,1.276932,-0.528489,-0.078039,-1.552593,-0.240401,-0.256199,-0.957132,-0.135132,-0.031932,-0.054816,-0.145233,-19.243059,-41.672680,13.398403,,,,,,,
1558975077.663616,-1.097191,1.280550,-0.547017,-0.193516,-1.417854,-0.312871,-0.254687,-0.958174,-0.130530,-0.039045,-0.053438,-0.184427,-18.615036,-41.792812,13.902012,,,,,,,
1558975077.683607,-1.100497,1.284767,-0.571561,-0.208035,-1.322717,-0.360017,-0.251513,-0.959372,-0.127855,-0.011915,-0.032465,-0.224089,-17.784550,-42.012875,14.319681,,,,,,,
1558975077.703588,-1.110059,1.289893,-0.589070,-0.023965,-1.332087,-0.323659,-0.248316,-0.960805,-0.123256,0.014551,-0.024470,-0.225102,-17.276466,-42.143387,14.556204,,,,,,,
1558975077.723584,-1.130746,1.295663,-0.595528,0.078129,-1.342074,-0.282035,-0.245793,-0.962389,-0.115730,0.031071,0.018190,-0.212334,-21.502995,-40.756512,13.561036,,,,,,,
1558975077.743557,-1.150339,1.300877,-0.601535,-0.001264,-1.201054,-0.267937,-0.243429,-0.963792,-0.108842,0.051840,0.020113,-0.222121,-20.761759,-40.882664,14.315420,,,,,,,
1558975077.763562,-1.155162,1.304783,-0.618278,-0.120885,-0.987933,-0.246777,-0.240505,-0.964827,-0.106146,0.054836,0.026304,-0.186945,-20.345798,-40.989349,14.604635,,,,,,,
1558975077.783552,-1.153523,1.307626,-0.639917,-0.253904,-0.977729,-0.252124,-0.237822,-0.965570,-0.105428,0.042738,0.034967,-0.188655,-19.854256,-41.128288,14.887789,,,,,,,
1558975077.803543,-1.136230,1.309737,-0.676999,-0.304699,-0.905653,-0.298454,-0.234114,-0.966117,-0.108666,0.057417,0.052589,-0.234702,-19.215408,-41.393444,14.990810,,,,,,,
1558975077.823518,-1.125293,1.312719,-0.704603,-0.212603,-0.724286,-0.267818,-0.230311,-0.966882,-0.109978,0.094370,0.065836,-0.257423,-18.837597,-41.544010,15.053715,,,,,,,
1558975077.843504,-1.108804,1.315068,-0.733866,-0.148316,-0.567035,-0.206479,-0.226433,-0.967479,-0.112748,0.092140,0.064128,-0.214431,-18.385159,-41.753567,15.033278,,,,,,,
1558975077.863509,-1.099803,1.316735,-0.753601,-0.211931,-0.474692,-0.173617,-0.223971,-0.967900,-0.114050,0.092364,0.081547,-0.212870,-17.972731,-41.905632,15.108697,,,,,,,
1558975077.883480,-1.085075,1.317311,-0.777209,-0.252003,-0.352903,-0.158604,-0.221774,-0.968044,-0.117075,0.087939,0.080334,-0.225332,-17.765125,-42.003391,15.082733,,,,,,,
1558975077.903470,-0.998973,1.312820,-0.866421,-0.172718,-0.172524,-0.139767,-0.214538,-0.966908,-0.138065,0.078673,0.077886,-0.216260,-17.586617,-42.101250,15.018965,,,,,,,
1558975077.923451,-0.924287,1.308750,-0.940883,-0.056396,-0.041958,-0.078672,-0.206778,-0.965862,-0.156057,0.084295,0.061443,-0.142862,-17.229664,-42.574306,14.069149,,,,,,,
1558975077.943467,-0.900071,1.309884,-0.964453,0.176591,-0.023969,0.041244,-0.202080,-0.966155,-0.160338,0.059471,0.037246,-0.066377,-17.014315,-42.892040,13.347651,,,,,,,
1558975077.963437,-0.922989,1.312594,-0.942494,0.356151,-0.114720,0.067210,-0.203613,-0.966850,-0.154084,0.030136,0.028038,-0.026794,-16.863586,-43.008480,13.162964,,,,,,,
1558975077.983447,-0.949172,1.315967,-0.918200,0.323126,-0.148441,0.030567,-0.204925,-0.967706,-0.146801,-0.014222,0.010141,0.039959,-16.895203,-42.840523,13.660727,,,,,,,
1558975078.003435,-0.968832,1.318426,-0.900963,0.213528,-0.139423,0.020957,-0.205809,-0.968323,-0.141396,-0.017534,0.004960,0.053703,-16.881144,-42.773811,13.885288,,,,,,,
1558975078.023423,-0.983156,1.320016,-0.888735,0.140168,-0.111554,0.022233,-0.206531,-0.968719,-0.137580,-0.013805,-0.001465,0.069510,-16.860050,-42.709366,14.107550,,,,,,,
1558975078.043415,-0.989151,1.320211,-0.884527,-0.018338,-0.084308,0.013825,-0.207195,-0.968767,-0.136235,-0.029286,-0.009992,0.088292,-16.845474,-42.663490,14.262909,,,,,,,
1558975078.063403,-0.980112,1.318838,-0.894131,-0.200953,0.042377,-0.025679,-0.207060,-0.968426,-0.138843,-0.033038,-0.008579,0.081455,-16.836351,-42.676594,14.234447,,,,,,,
1558975078.083364,-0.961840,1.316889,-0.911008,-0.216705,0.098450,-0.046508,-0.206036,-0.967938,-0.143683,-0.029972,-0.001376,0.074164,-16.829386,-42.744194,14.038495,,,,,,,
1558975078.103382,-0.949505,1.315881,-0.923822,-0.125706,-0.072222,-0.056610,-0.205041,-0.967685,-0.146781,-0.028754,0.004245,0.071158,-16.796839,-42.831684,13.808940,,,,,,,
1558975078.123354,-0.941730,1.315815,-0.933947,-0.106585,-0.096674,-0.083520,-0.203946,-0.967668,-0.148408,-0.033054,0.004808,0.067186,-16.737778,-42.870800,13.759188,,,,,,,
1558975078.143357,-0.931543,1.316034,-0.945635,-0.111686,-0.034301,-0.094671,-0.202253,-0.967723,-0.150351,-0.028613,0.010799,0.058967,-16.639122,-42.929623,13.695288,,,,,,,
1558975078.163349,-0.923961,1.316014,-0.954087,-0.063856,-0.031300,-0.040154,-0.201122,-0.967718,-0.151892,-0.000187,0.022650,0.056021,-16.571772,-42.975266,13.633678,,,,,,,
1558975078.183325,-0.937343,1.318621,-0.942553,-0.037470,-0.087408,-0.003297,-0.201103,-0.968372,-0.147694,0.008766,0.025058,0.042744,-16.497562,-42.951694,13.796950,,,,,,,
1558975078.203267,-0.938737,1.318053,-0.942918,-0.004503,-0.078007,0.038458,-0.201752,-0.968230,-0.147738,0.010254,0.021911,0.028384,-16.474604,-42.960827,13.795969,,,,,,,
1558975078.223258,-0.955504,1.318316,-0.927134,0.009560,0.000176,0.065915,-0.203993,-0.968296,-0.144187,-0.024874,-0.000469,0.047324,-16.532124,-42.882118,13.970918,,,,,,,
1558975078.243252,-0.954841,1.317271,-0.927293,-0.061586,0.033253,0.022401,-0.204723,-0.968034,-0.144907,-0.037586,-0.003584,0.048472,-16.546257,-42.875999,13.972950,,,,,,,
1558975078.263223,-0.964187,1.316156,-0.918268,-0.091493,-0.012086,-0.004739,-0.206955,-0.967754,-0.143603,-0.018112,0.002361,0.031161,-16.676540,-42.803734,14.039486,,,,,,,
1558975078.283239,-0.962452,1.315523,-0.921259,-0.012935,-0.068493,0.014001,-0.207209,-0.967594,-0.144312,0.000681,0.001209,0.033472,-16.664738,-42.829765,13.973964,,,,,,,
1558975078.303234,-0.988207,1.317668,-0.897693,0.027402,-0.094032,0.044760,-0.209123,-0.968134,-0.137786,-0.010482,-0.003241,0.042922,-16.662949,-42.829502,13.976901,,,,,,,
1558975078.323222,-1.013573,1.317513,-0.874713,-0.051217,-0.064069,0.017237,-0.212677,-0.968095,-0.132517,-0.024841,-0.009810,0.038980,-16.734255,-42.648071,14.438868,,,,,,,
1558975078.343213,-1.016165,1.316572,-0.873183,-0.097855,-0.020540,-0.017610,-0.213794,-0.967859,-0.132445,-0.016522,-0.008170,0.017546,-16.812403,-42.571579,14.573178,,,,,,,
1558975078.363202,-1.015279,1.316361,-0.874782,-0.037228,-0.030354,-0.004843,-0.213851,-0.967806,-0.132742,0.000579,0.000764,0.006658,-16.807163,-42.580177,14.554094,,,,,,,
1558975078.383166,-1.019685,1.317173,-0.871456,0.035071,-0.057160,-0.005041,-0.213764,-0.968010,-0.131387,0.000720,-0.003029,0.011056,-16.782293,-42.585686,14.566671,,,,,,,
1558975078.403173,-1.026095,1.318123,-0.866128,0.004303,-0.032706,-0.016574,-0.213815,-0.968248,-0.129537,-0.009482,-0.010360,0.010625,-16.746836,-42.562771,14.674049,,,,,,,
1558975078.423168,-1.024013,1.318278,-0.867889,-0.027331,0.049878,-0.036094,-0.213416,-0.968286,-0.129904,-0.008004,-0.005560,0.002249,-16.738997,-42.558311,14.695913,,,,,,,
1558975078.443133,-1.021873,1.319000,-0.869025,0.031193,0.043229,-0.035043,-0.212542,-0.968466,-0.129996,0.002688,0.002356,0.004843,-16.730907,-42.568062,14.676881,,,,,,,
1558975078.463140,-1.027172,1.321389,-0.863436,0.100198,-0.009971,-0.025889,-0.211246,-0.969059,-0.127670,0.019245,0.009281,0.027954,-16.692902,-42.564655,14.729934,,,,,,,
1558975078.483136,-1.037365,1.323801,-0.853547,0.117111,-0.033269,0.004861,-0.210524,-0.969652,-0.124322,0.021284,0.015168,0.026452,-16.620562,-42.533989,14.899358,,,,,,,
1558975078.503100,-1.049066,1.325601,-0.842491,0.088304,-0.040472,0.035730,-0.210450,-0.970090,-0.120980,0.015046,0.021100,0.035058,-16.588026,-42.499630,15.033052,,,,,,,
1558975078.523116,-1.065194,1.326384,-0.826937,0.035217,-0.007448,0.022128,-0.211710,-0.970280,-0.117202,-0.009711,0.018559,0.021469,-16.608435,-42.427357,15.213572,,,,,,,
1558975078.543093,-1.069606,1.325683,-0.822387,0.007634,0.011693,0.002007,-0.212821,-0.970110,-0.116594,-0.023370,0.014604,0.013094,-16.638494,-42.399059,15.259553,,,,,,,
1558975078.563092,-1.073578,1.325734,-0.818129,0.054543,0.016676,-0.035272,-0.213239,-0.970122,-0.115724,-0.027621,0.006118,0.001268,-16.710817,-42.356331,15.299142,,,,,,,
1558975078.583084,-1.083441,1.326151,-0.808771,0.110730,-0.061867,-0.054123,-0.214012,-0.970223,-0.113426,-0.008507,0.008721,0.008949,-16.705105,-42.329903,15.378304,,,,,,,
1558975078.603049,-1.094444,1.328255,-0.799884,0.145639,-0.128642,-0.053665,-0.213433,-0.970731,-0.110128,-0.006660,0.007062,0.006841,-16.678272,-42.299095,15.491795,,,,,,,
1558975078.623060,-1.106095,1.330438,-0.790126,0.120220,-0.084097,-0.041515,-0.212807,-0.971253,-0.106684,0.003212,0.008454,0.019648,-16.605125,-42.258057,15.681215,,,,,,,
1558975078.643052,-1.114687,1.332440,-0.782545,-0.007290,-0.013657,-0.035604,-0.211969,-0.971727,-0.103995,0.007532,0.013018,0.025671,-16.528406,-42.228119,15.842089,,,,,,,
1558975078.663030,-1.110610,1.332824,-0.785875,-0.057085,0.069089,-0.010297,-0.211210,-0.971818,-0.104692,0.011899,0.011079,0.016924,-16.504505,-42.233116,15.853684,,,,,,,
1558975078.683027,-1.107227,1.332694,-0.787980,-0.025214,0.056259,0.004553,-0.210967,-0.971787,-0.105463,0.005095,0.007493,0.011225,-16.500301,-42.247437,15.819864,,,,,,,
1558975078.703020,-1.108886,1.333142,-0.786246,0.019264,-0.019039,-0.005742,-0.210752,-0.971893,-0.104919,0.005948,0.009841,0.008163,-16.511181,-42.248962,15.804422,,,,,,,
1558975078.722988,-1.112485,1.333866,-0.783263,0.047945,-0.035037,-0.000534,-0.210497,-0.972063,-0.103848,0.009264,0.011141,0.007565,-16.493587,-42.243446,15.837513,,,,,,,
1558975078.742995,-1.121097,1.334721,-0.774998,0.022497,-0.002124,0.008302,-0.210635,-0.972263,-0.101670,-0.002515,0.005146,0.026826,-16.467268,-42.222004,15.921856,,,,,,,
1558975078.762986,-1.126292,1.334709,-0.769786,-0.038071,0.018240,-0.016104,-0.211170,-0.972261,-0.100579,-0.009518,0.004899,0.023263,-16.485573,-42.181473,16.010109,,,,,,,
1558975078.782955,-1.125389,1.334674,-0.770674,-0.022160,-0.000876,-0.019476,-0.211111,-0.972252,-0.100785,-0.002237,0.012108,-0.000030,-16.489763,-42.177860,16.015285,,,,,,,
1558975078.802963,-1.126078,1.334756,-0.770058,0.029960,-0.000052,0.008333,-0.211108,-0.972272,-0.100605,0.001941,0.014935,0.001026,-16.485561,-42.182289,16.007948,,,,,,,
1558975078.822954,-1.132003,1.334818,-0.764389,0.056447,-0.035062,0.015493,-0.211646,-0.972286,-0.099327,-0.008462,0.003506,0.005760,-16.488529,-42.173725,16.027445,,,,,,,
1558975078.842943,-1.137451,1.334651,-0.759434,0.023587,-0.010637,-0.023799,-0.212331,-0.972247,-0.098240,-0.001964,0.010028,0.000660,-16.522430,-42.124340,16.122143,,,,,,,
1558975078.862931,-1.136507,1.335402,-0.759823,0.018413,0.034843,-0.023369,-0.211576,-0.972422,-0.098134,0.011991,0.014476,-0.001567,-16.512486,-42.124916,16.130802,,,,,,,
1558975078.882922,-1.135247,1.336357,-0.760488,0.001353,0.028598,-0.018106,-0.210610,-0.972645,-0.098009,0.014245,0.018390,0.001863,-16.486116,-42.134396,16.133017,,,,,,,
1558975078.902911,-1.131832,1.337845,-0.763358,0.049179,0.011453,-0.005426,-0.208964,-0.972989,-0.098112,0.021693,0.012494,-0.006869,-16.428776,-42.161858,16.119762,,,,,,,
1558975078.922884,-1.139790,1.338837,-0.755003,0.157685,0.003528,0.024477,-0.208861,-0.973218,-0.096043,0.019851,0.011838,-0.005733,-16.416227,-42.153049,16.155552,,,,,,,
1558975078.942860,-1.159536,1.340464,-0.735281,0.203287,-0.041081,0.042235,-0.209265,-0.973591,-0.091267,0.002432,0.015155,0.020558,-16.411854,-42.078625,16.352798,,,,,,,
1558975078.962877,-1.177239,1.341327,-0.718305,0.155330,-0.064103,0.029165,-0.210071,-0.973787,-0.087226,0.002201,0.009096,0.011649,-16.425285,-42.012096,16.509630,,,,,,,
1558975078.982860,-1.188559,1.341863,-0.707591,0.080999,-0.017230,0.011405,-0.210561,-0.973909,-0.084648,0.001043,0.009309,0.018272,-16.427315,-41.962132,16.634205,,,,,,,
1558975079.002852,-1.197014,1.342321,-0.698989,0.049174,0.013594,0.022355,-0.210854,-0.974013,-0.082701,0.002099,0.007384,0.020613,-16.439453,-41.901131,16.775385,,,,,,,
1558975079.022846,-1.202070,1.342147,-0.693380,0.025808,0.029574,0.023557,-0.211428,-0.973973,-0.081696,-0.005354,0.008504,0.018601,-16.454714,-41.878113,16.817823,,,,,,,
1558975079.042832,-1.205482,1.341824,-0.689811,0.010785,-0.012646,0.011398,-0.211999,-0.973900,-0.081086,-0.010047,0.006249,0.019074,-16.482086,-41.855774,16.846630,,,,,,,
1558975079.062810,-1.210377,1.341612,-0.685377,-0.008325,-0.008352,-0.010994,-0.212587,-0.973852,-0.080120,-0.011885,0.000707,0.022610,-16.506086,-41.826744,16.895170,,,,,,,
1558975079.082814,-1.211854,1.341681,-0.684359,-0.025410,-0.026236,-0.013313,-0.212642,-0.973868,-0.079782,-0.011998,0.001318,0.024927,-16.506796,-41.819202,16.913128,,,,,,,
1558975079.102770,-1.211914,1.341375,-0.685022,-0.055160,-0.017649,-0.030334,-0.212926,-0.973798,-0.079874,-0.014415,0.005155,0.007685,-16.506334,-41.806240,16.945599,,,,,,,
1558975079.122777,-1.207380,1.341037,-0.689830,-0.057204,0.002426,-0.042953,-0.212869,-0.973721,-0.080956,-0.009009,0.011395,-0.000496,-16.497110,-41.826977,16.903341,,,,,,,
1558975079.142780,-1.202932,1.341490,-0.694397,-0.004037,-0.013705,-0.040929,-0.212095,-0.973824,-0.081743,0.003888,0.014413,-0.003691,-16.475805,-41.852612,16.860630,,,,,,,
1558975079.162768,-1.206253,1.342382,-0.692180,0.055341,-0.076355,-0.023331,-0.211554,-0.974027,-0.080729,0.004721,0.016309,0.003672,-16.455040,-41.860268,16.861904,,,,,,,
1558975079.182760,-1.213736,1.343590,-0.686107,0.086200,-0.076507,-0.015836,-0.211049,-0.974300,-0.078732,0.010579,0.022380,-0.000095,-16.379955,-41.840931,16.982548,,,,,,,
1558975079.202747,-1.222245,1.344437,-0.678525,0.111804,-0.047005,0.011157,-0.210936,-0.974490,-0.076651,0.015211,0.025622,-0.003778,-16.351187,-41.822937,17.054462,,,,,,,
1558975079.222736,-1.235807,1.344951,-0.665516,0.116082,-0.031139,0.033733,-0.211482,-0.974605,-0.073619,0.005046,0.026119,0.019801,-16.336380,-41.782871,17.166473,,,,,,,
1558975079.242727,-1.251274,1.344839,-0.650843,0.095704,-0.074357,0.042913,-0.212700,-0.974580,-0.070374,-0.004387,0.012208,0.026230,-16.364378,-41.702152,17.335260,,,,,,,
1558975079.262691,-1.259505,1.344588,-0.643854,0.002180,-0.047501,0.002526,-0.213505,-0.974524,-0.068696,-0.014110,0.014166,0.018265,-16.370644,-41.661194,17.427589,,,,,,,
1558975079.282703,-1.255407,1.344352,-0.648299,-0.090223,0.008986,-0.010886,-0.213440,-0.974471,-0.069641,0.007645,0.016188,0.001251,-16.376196,-41.642780,17.466331,,,,,,,
1558975079.302696,-1.247023,1.344002,-0.656822,-0.064800,-0.014356,0.019870,-0.213172,-0.974392,-0.071537,0.012184,0.009014,-0.007610,-16.364429,-41.688057,17.369099,,,,,,,
1558975079.322665,-1.245502,1.342861,-0.659038,-0.005283,-0.037907,0.030370,-0.214116,-0.974135,-0.072216,-0.011332,0.004439,-0.004383,-16.369038,-41.703766,17.326986,,,,,,,
1558975079.342671,-1.247621,1.342194,-0.657315,0.010794,-0.014772,0.007118,-0.214885,-0.973984,-0.071969,-0.008153,0.002610,-0.005103,-16.401266,-41.688183,17.334003,,,,,,,
1558975079.362664,-1.245663,1.341779,-0.659274,-0.021007,0.021318,-0.003237,-0.215127,-0.973890,-0.072518,-0.004570,0.009443,-0.008384,-16.414333,-41.685429,17.328272,,,,,,,
1558975079.382625,-1.240464,1.341626,-0.663925,-0.012483,0.023383,-0.006414,-0.214887,-0.973855,-0.073684,0.004652,0.005380,-0.013322,-16.425720,-41.699669,17.283157,,,,,,,
1558975079.402638,-1.241385,1.341930,-0.662873,0.043781,-0.017059,0.007122,-0.214675,-0.973924,-0.073390,0.006637,0.006746,0.002696,-16.421762,-41.714497,17.251099,,,,,,,
1558975079.422631,-1.247410,1.342143,-0.657772,0.021333,-0.049721,-0.000682,-0.214917,-0.973973,-0.072030,-0.002903,0.000767,0.013817,-16.416666,-41.699646,17.291796,,,,,,,
1558975079.442592,-1.249735,1.342403,-0.655877,-0.021016,0.005419,-0.032216,-0.214844,-0.974031,-0.071450,0.001084,0.004167,0.007165,-16.401152,-41.675816,17.363823,,,,,,,
1558975079.462606,-1.246359,1.342984,-0.659146,-0.039104,0.008688,-0.030064,-0.214065,-0.974163,-0.071995,0.007751,0.005108,0.009647,-16.382313,-41.688862,17.350285,,,,,,,
1558975079.482582,-1.243896,1.343657,-0.661587,-0.043378,0.006606,-0.022615,-0.213265,-0.974315,-0.072311,0.009576,0.009685,0.016464,-16.352955,-41.703911,17.341806,,,,,,,
1558975079.502586,-1.243761,1.344388,-0.662196,-0.043469,-0.020872,-0.019677,-0.212581,-0.974479,-0.072111,0.005306,0.012534,0.016599,-16.302696,-41.727695,17.331928,,,,,,,
1558975079.522559,-1.241345,1.344568,-0.665372,-0.039271,-0.038863,-0.018778,-0.212241,-0.974519,-0.072568,0.003272,0.012590,0.011319,-16.287374,-41.733856,17.331491,,,,,,,
1558975079.542546,-1.238536,1.344717,-0.668944,-0.037084,-0.024086,-0.025041,-0.211899,-0.974553,-0.073116,-0.000854,0.010808,0.000362,-16.242298,-41.759327,17.312424,,,,,,,
1558975079.562553,-1.235166,1.344868,-0.672404,-0.043336,0.015051,-0.028941,-0.211512,-0.974587,-0.073781,-0.003545,0.015007,0.005742,-16.224821,-41.775101,17.290754,,,,,,,
1558975079.582537,-1.229766,1.344989,-0.677671,-0.083768,0.016307,-0.037502,-0.210999,-0.974614,-0.074883,-0.006255,0.016102,0.011315,-16.214554,-41.790085,17.264164,,,,,,,
1558975079.602530,-1.221410,1.344938,-0.686054,-0.097644,0.006873,-0.033332,-0.210413,-0.974602,-0.076660,0.007074,0.019082,-0.003174,-16.187325,-41.839287,17.170277,,,,,,,
1558975079.622521,-1.210280,1.344772,-0.697294,-0.068996,-0.008034,-0.005695,-0.209698,-0.974565,-0.079054,0.013012,0.018556,-0.017137,-16.163033,-41.886917,17.076777,,,,,,,
1558975079.642493,-1.207645,1.344488,-0.700413,0.001163,-0.026337,0.017673,-0.209748,-0.974501,-0.079705,0.013337,0.018706,-0.011253,-16.154135,-41.906979,17.035931,,,,,,,
1558975079.662473,-1.209090,1.344316,-0.699610,0.017059,-0.043319,0.027131,-0.210020,-0.974463,-0.079462,-0.000856,0.014013,0.000955,-16.149429,-41.909702,17.033705,,,,,,,
1558975079.682472,-1.210201,1.343804,-0.698903,-0.021107,0.000207,0.018976,-0.210574,-0.974348,-0.079404,-0.001599,0.013136,0.004666,-16.147091,-41.909962,17.035273,,,,,,,
1558975079.702450,-1.206736,1.343164,-0.702280,-0.045518,0.014049,0.000940,-0.210881,-0.974203,-0.080355,-0.006755,0.008520,-0.007551,-16.165520,-41.903744,17.033087,,,,,,,
1558975079.722448,-1.203133,1.342631,-0.705827,0.003317,-0.023197,0.004894,-0.211074,-0.974083,-0.081301,0.004424,0.014397,-0.005216,-16.191929,-41.923004,16.960455,,,,,,,
1558975079.742456,-1.207795,1.342684,-0.701883,0.026695,-0.030702,0.016585,-0.211403,-0.974095,-0.080298,0.004478,0.012196,0.012945,-16.189312,-41.913559,16.986280,,,,,,,
1558975079.762435,-1.212617,1.342819,-0.697684,-0.003088,-0.029505,0.005896,-0.211665,-0.974125,-0.079231,0.003459,0.008046,0.019844,-16.188795,-41.895023,17.032429,,,,,,,
1558975079.782436,-1.213294,1.342829,-0.697711,-0.032894,-0.036769,-0.008077,-0.211709,-0.974128,-0.079085,0.003991,0.011359,0.013777,-16.178646,-41.887619,17.060265,,,,,,,
1558975079.802395,-1.212098,1.342952,-0.699831,-0.035034,-0.042048,-0.011333,-0.211502,-0.974156,-0.079296,0.004196,0.012379,0.010326,-16.157970,-41.893215,17.066122,,,,,,,
1558975079.822412,-1.210258,1.343085,-0.702593,-0.036092,-0.037807,-0.005956,-0.211234,-0.974186,-0.079639,0.009604,0.013889,0.004947,-16.130747,-41.905476,17.061777,,,,,,,
1558975079.842403,-1.206838,1.343196,-0.706527,-0.038171,-0.018759,0.001696,-0.210860,-0.974211,-0.080323,0.014235,0.014738,-0.001754,-16.101425,-41.925781,17.039566,,,,,,,
1558975079.862362,-1.204557,1.343011,-0.709372,-0.023340,-0.031491,0.021870,-0.210844,-0.974169,-0.080868,0.014295,0.016283,-0.001652,-16.085459,-41.940399,17.018673,,,,,,,
1558975079.882380,-1.203842,1.342568,-0.710902,-0.019143,-0.045240,0.031349,-0.211189,-0.974069,-0.081173,0.008522,0.011605,-0.002277,-16.078146,-41.948044,17.006733,,,,,,,
1558975079.902371,-1.201581,1.341777,-0.713816,-0.038235,-0.023999,0.031536,-0.211723,-0.973890,-0.081929,0.002739,0.004163,-0.011669,-16.086647,-41.951328,16.990576,,,,,,,
1558975079.922329,-1.196903,1.340654,-0.718571,-0.043441,0.010906,0.028664,-0.212356,-0.973634,-0.083318,-0.001343,0.007249,-0.010875,-16.102654,-41.963985,16.944092,,,,,,,
1558975079.942347,-1.193643,1.339692,-0.721774,0.010735,-0.018964,0.035894,-0.212954,-0.973414,-0.084354,0.002474,0.003276,-0.021282,-16.134783,-41.976097,16.883425,,,,,,,
1558975079.962338,-1.196675,1.339272,-0.719043,0.080988,-0.017214,0.039169,-0.213590,-0.973318,-0.083858,0.005429,0.003881,-0.017827,-16.162848,-41.963047,16.889017,,,,,,,
1558975079.982327,-1.204177,1.339113,-0.711048,0.082279,0.046182,0.026966,-0.214356,-0.973281,-0.082308,-0.004989,0.000335,0.003878,-16.184496,-41.941246,16.922398,,,,,,,
1558975080.002309,-1.209190,1.339343,-0.704546,0.045109,0.064321,0.010028,-0.214557,-0.973334,-0.081154,0.003909,0.000525,0.013649,-16.229660,-41.901955,16.976398,,,,,,,
1558975080.022306,-1.212948,1.339834,-0.700602,0.021404,-0.024349,0.007023,-0.214413,-0.973447,-0.080179,0.009335,0.000012,0.011332,-16.245819,-41.877022,17.022408,,,,,,,
1558975080.042279,-1.217013,1.339891,-0.697272,0.018185,-0.032778,0.020824,-0.214685,-0.973460,-0.079288,-0.000509,-0.000555,0.009784,-16.231174,-41.867233,17.060419,,,,,,,
1558975080.062274,-1.220494,1.339347,-0.694311,0.009690,-0.025330,0.024092,-0.215457,-0.973335,-0.078722,-0.008618,0.003578,0.005312,-16.239964,-41.848804,17.097221,,,,,,,
1558975080.082250,-1.219859,1.338658,-0.695698,-0.046732,-0.035634,0.003664,-0.216037,-0.973177,-0.079089,-0.009747,0.003832,-0.015042,-16.259933,-41.835327,17.111225,,,,,,,
1558975080.102250,-1.211729,1.338145,-0.704109,-0.081684,0.005731,-0.024794,-0.215855,-0.973058,-0.081019,-0.005306,0.004202,-0.028891,-16.256514,-41.850628,17.077011,,,,,,,
1558975080.122241,-1.201366,1.337673,-0.714114,-0.062469,0.027843,-0.014958,-0.215432,-0.972950,-0.083417,0.010537,0.009800,-0.050418,-16.250082,-41.884830,16.999111,,,,,,,
1558975080.142217,-1.193072,1.337245,-0.721874,-0.015692,0.020229,0.005291,-0.215120,-0.972851,-0.085354,0.011598,0.012188,-0.070423,-16.248020,-41.955357,16.826279,,,,,,,
1558975080.162227,-1.191594,1.336902,-0.722565,-0.015556,0.067813,0.018558,-0.215302,-0.972771,-0.085796,0.016404,0.013802,-0.077992,-16.258648,-41.956867,16.812222,,,,,,,
1558975080.182203,-1.190579,1.336241,-0.720979,0.023020,0.160678,0.052575,-0.215813,-0.972618,-0.086253,0.028953,0.022819,-0.095220,-16.304726,-41.953091,16.777016,,,,,,,
