timestamp(unix),attitude_roll(radians),attitude_pitch(radians),attitude_yaw(radians),rotation_rate_x(radians/s),rotation_rate_y(radians/s),rotation_rate_z(radians/s),gravity_x(G),gravity_y(G),gravity_z(G),user_acc_x(G),user_acc_y(G),user_acc_z(G),magnetic_field_x(microteslas),magnetic_field_y(microteslas),magnetic_field_z(microteslas),latitude(degree),longitude(degree),altitude(meter),speed(m/s),course(degree),timestamp(unix),User Mark
1558973949.523560,-0.063095,1.257360,-1.600678,0.060518,-0.021372,-0.065326,-0.019441,-0.951280,-0.307716,0.015657,0.003068,-0.012322,-6.201915,-45.931908,0.045962,,,,,,,
1558973949.543545,-0.058843,1.259570,-1.605254,0.111640,-0.008941,-0.055558,-0.018009,-0.951959,-0.305696,0.011844,0.012292,0.006029,-6.144412,-45.939522,0.112504,,,,,,,
1558973949.563531,-0.057340,1.261236,-1.607149,0.050901,-0.010679,-0.017188,-0.017458,-0.952468,-0.304139,0.013644,0.008406,0.005494,-6.073882,-45.948448,0.232183,,,,,,,
1558973949.583515,-0.056727,1.260947,-1.607876,-0.049134,0.001486,-0.008611,-0.017288,-0.952379,-0.304425,0.008575,-0.006956,0.008740,-6.064957,-45.949539,0.248699,,,,,,,
1558973949.603500,-0.056662,1.259931,-1.607643,-0.057600,0.022691,0.005465,-0.017323,-0.952069,-0.305391,-0.002285,0.005704,0.009111,-6.060039,-45.950424,0.201526,,,,,,,
1558973949.623470,-0.055670,1.259423,-1.608629,-0.004437,-0.010404,-0.026839,-0.017047,-0.951914,-0.305891,0.005114,0.012537,0.003874,-6.060115,-45.950577,0.158992,,,,,,,
1558973949.643471,-0.054352,1.259983,-1.610463,0.040224,-0.024378,-0.025869,-0.016614,-0.952085,-0.305382,0.005994,0.010679,0.002388,-6.032661,-45.954132,0.175146,,,,,,,
1558973949.663432,-0.053695,1.260310,-1.611494,0.005115,-0.004039,-0.014995,-0.016397,-0.952185,-0.305081,-0.003592,0.010489,-0.003604,-6.020736,-45.955616,0.193756,,,,,,,
1558973949.683438,-0.059540,1.257845,-1.602317,-0.243473,0.283100,0.280090,-0.018320,-0.951429,-0.307323,0.010690,-0.081866,0.085551,-6.082845,-45.947624,0.142509,,,,,,,
1558973949.703425,-0.071682,1.247680,-1.581620,-0.617912,0.381318,0.322368,-0.022741,-0.948250,-0.316708,0.007910,-0.035270,0.051846,-6.317218,-45.916042,-0.126125,,,,,,,
1558973949.723399,-0.075617,1.233876,-1.571582,-0.654408,0.213198,0.156312,-0.024974,-0.943777,-0.329638,0.003062,0.007055,0.027407,-6.587235,-45.872124,-0.749998,,,,,,,
1558973949.743375,-0.074936,1.223894,-1.568813,-0.381993,0.131257,0.038304,-0.025453,-0.940431,-0.339032,0.010897,0.020707,0.016323,-6.729181,-45.834530,-1.456007,,,,,,,
1558973949.763355,-0.071250,1.219896,-1.571844,-0.105561,-0.024696,-0.080408,-0.024471,-0.939063,-0.342872,0.001201,0.030921,-0.004769,-6.731958,-45.826569,-1.676909,,,,,,,
1558973949.783366,-0.066974,1.219007,-1.579691,0.151525,-0.233394,-0.196437,-0.023061,-0.938758,-0.343805,-0.008907,0.038001,-0.038839,-6.664438,-45.830345,-1.835886,,,,,,,
1558973949.803352,-0.061334,1.224918,-1.591363,0.340908,-0.258671,-0.203966,-0.020781,-0.940778,-0.338386,-0.012438,0.012876,-0.029702,-6.439816,-45.872608,-1.561450,,,,,,,
1558973949.823319,-0.057901,1.231504,-1.598654,0.275226,-0.117597,-0.105512,-0.019260,-0.942990,-0.332262,-0.019971,0.003858,-0.027586,-6.321276,-45.897179,-1.302444,,,,,,,
1558973949.843302,-0.056440,1.234229,-1.601416,0.047601,-0.026432,-0.022613,-0.018629,-0.943894,-0.329723,-0.021043,0.008133,-0.034885,-6.236633,-45.914864,-1.065402,,,,,,,
1558973949.863307,-0.058634,1.232934,-1.597946,-0.107623,0.091909,0.109716,-0.019424,-0.943465,-0.330901,0.010956,-0.008195,0.009337,-6.251686,-45.912849,-1.064090,,,,,,,
1558973949.883276,-0.062698,1.230229,-1.591496,-0.123608,0.083527,0.103217,-0.020929,-0.942565,-0.333366,0.015512,0.013519,0.003791,-6.331402,-45.899666,-1.157627,,,,,,,
1558973949.903276,-0.063416,1.227893,-1.589826,-0.021610,0.005764,0.058778,-0.021308,-0.941782,-0.335547,0.017814,0.023890,-0.010171,-6.381895,-45.888420,-1.315349,,,,,,,
1558973949.923263,-0.065232,1.228805,-1.587897,0.077425,-0.003280,0.013930,-0.021861,-0.942089,-0.334651,-0.002660,0.007686,0.008860,-6.421696,-45.882423,-1.330655,,,,,,,
1558973949.943226,-0.065840,1.230394,-1.587754,0.074145,-0.041354,-0.012061,-0.021966,-0.942620,-0.333143,0.001412,0.001596,-0.007464,-6.438662,-45.882805,-1.231956,,,,,,,
1558973949.963232,-0.065736,1.231721,-1.589076,0.057087,-0.058205,-0.031454,-0.021849,-0.943063,-0.331897,0.001295,0.002038,-0.008710,-6.426822,-45.885876,-1.178237,,,,,,,
1558973949.983218,-0.066281,1.232548,-1.589522,0.036941,-0.027405,-0.033255,-0.021978,-0.943337,-0.331107,-0.005518,-0.007606,-0.003747,-6.416108,-45.888466,-1.134719,,,,,,,
1558973950.003202,-0.064370,1.232315,-1.591890,0.039103,-0.015787,-0.032075,-0.021360,-0.943260,-0.331367,0.003095,0.009514,-0.010140,-6.383764,-45.893932,-1.095553,,,,,,,
1558973950.023188,-0.062533,1.232661,-1.594289,0.057153,-0.033866,-0.041843,-0.020731,-0.943375,-0.331080,0.002161,0.013153,-0.011678,-6.355174,-45.897968,-1.092691,,,,,,,
1558973950.043173,-0.061117,1.233240,-1.596738,0.080578,-0.039302,-0.060026,-0.020228,-0.943567,-0.330564,-0.005315,0.004007,-0.009325,-6.325567,-45.901752,-1.105481,,,,,,,
1558973950.063158,-0.060245,1.234383,-1.598286,0.097670,-0.011882,-0.041599,-0.019875,-0.943945,-0.329504,0.001443,0.001623,-0.004663,-6.281455,-45.909607,-1.028121,,,,,,,
1558973950.083143,-0.058758,1.235873,-1.599697,0.073255,0.018931,-0.019970,-0.019302,-0.944436,-0.328129,-0.001495,0.002984,-0.006862,-6.252941,-45.914749,-0.970848,,,,,,,
1558973950.103127,-0.057244,1.236560,-1.600580,0.011546,0.037254,-0.000627,-0.018768,-0.944661,-0.327510,0.007782,0.004094,0.002422,-6.245017,-45.916508,-0.938081,,,,,,,
1558973950.123113,-0.054283,1.237005,-1.602628,-0.016185,0.035364,0.022838,-0.017776,-0.944807,-0.327145,0.010513,0.005781,0.013013,-6.205145,-45.922298,-0.918989,,,,,,,
1558973950.143080,-0.054362,1.237474,-1.601621,0.007215,0.036320,0.037812,-0.017778,-0.944961,-0.326701,0.011750,0.004531,0.017802,-6.205145,-45.922298,-0.918989,,,,,,,
1558973950.163075,-0.054880,1.238832,-1.600583,-0.006725,0.002564,0.034273,-0.017877,-0.945404,-0.325410,0.004815,-0.001068,0.013856,-6.218393,-45.921867,-0.848321,,,,,,,
1558973950.183069,-0.056454,1.238907,-1.598894,-0.024806,0.004767,0.030009,-0.018385,-0.945429,-0.325310,0.001615,0.001917,0.018181,-6.233303,-45.920017,-0.838657,,,,,,,
1558973950.203029,-0.058249,1.238839,-1.596500,-0.039595,0.043970,0.041049,-0.018972,-0.945406,-0.325341,-0.001475,-0.003172,0.021539,-6.252427,-45.917522,-0.833115,,,,,,,
1558973950.223024,-0.062610,1.238937,-1.591182,-0.066145,0.056777,0.030476,-0.020385,-0.945438,-0.325163,-0.018601,-0.002896,0.027144,-6.328513,-45.906872,-0.845531,,,,,,,
1558973950.243020,-0.062412,1.238635,-1.590172,-0.058687,0.037644,-0.014541,-0.020338,-0.945340,-0.325453,-0.010301,-0.016727,0.030699,-6.366029,-45.901398,-0.860886,,,,,,,
1558973950.262994,-0.060270,1.237296,-1.593414,-0.044134,-0.090403,-0.062732,-0.019718,-0.944902,-0.326758,0.000934,0.016283,-0.006250,-6.367586,-45.901218,-0.858921,,,,,,,
1558973950.282985,-0.060044,1.236613,-1.596298,0.055818,-0.117295,-0.053222,-0.019682,-0.944678,-0.327407,-0.010148,0.015800,-0.028337,-6.288788,-45.911400,-0.894703,,,,,,,
1558973950.302980,-0.059610,1.239175,-1.598390,0.159244,-0.059684,-0.040843,-0.019396,-0.945516,-0.324998,-0.011640,0.007543,-0.024840,-6.272046,-45.914169,-0.869866,,,,,,,
1558973950.322951,-0.058364,1.242975,-1.601133,0.194407,-0.060966,-0.067519,-0.018781,-0.946746,-0.321433,-0.019961,0.008193,-0.031060,-6.233109,-45.922218,-0.709914,,,,,,,
1558973950.342950,-0.057651,1.245849,-1.602684,0.163644,-0.013191,-0.035056,-0.018395,-0.947668,-0.318728,-0.011191,-0.009150,-0.025907,-6.166570,-45.934082,-0.489337,,,,,,,
1558973950.362935,-0.056464,1.248802,-1.603933,0.140255,-0.003554,-0.033915,-0.017859,-0.948606,-0.315955,0.004965,-0.002047,-0.010217,-6.155800,-45.936562,-0.379861,,,,,,,
1558973950.382912,-0.054433,1.251427,-1.606325,0.116823,-0.011901,-0.043622,-0.017082,-0.949434,-0.313503,0.004783,-0.006453,-0.002247,-6.138525,-45.939358,-0.315836,,,,,,,
1558973950.402890,-0.052413,1.253609,-1.608048,0.038151,0.031926,-0.007987,-0.016340,-0.950117,-0.311467,0.005582,-0.012499,0.017918,-6.087449,-45.946915,-0.172362,,,,,,,
1558973950.422890,-0.052049,1.253548,-1.607415,-0.020345,0.057635,0.014633,-0.016230,-0.950098,-0.311531,-0.000631,-0.011115,0.012077,-6.079109,-45.948166,-0.128603,,,,,,,
1558973950.442874,-0.050959,1.253235,-1.607262,-0.004341,0.059634,-0.005621,-0.015905,-0.950000,-0.311845,-0.000757,-0.002515,0.011278,-6.089694,-45.946686,-0.153192,,,,,,,
1558973950.462861,-0.048466,1.253919,-1.608884,0.021155,0.036222,-0.021840,-0.015096,-0.950213,-0.311235,0.005391,0.005160,0.011705,-6.077576,-45.948273,-0.156725,,,,,,,
1558973950.482828,-0.046649,1.254398,-1.610184,0.022179,0.024591,-0.020883,-0.014509,-0.950362,-0.310807,0.005873,0.003738,0.011460,-6.053229,-45.951580,-0.127918,,,,,,,
1558973950.502815,-0.044549,1.254711,-1.612248,0.009342,-0.003912,-0.041451,-0.013844,-0.950459,-0.310540,0.003605,0.001775,0.012460,-6.031754,-45.954445,-0.111941,,,,,,,
1558973950.522817,-0.041927,1.255646,-1.615203,-0.007691,-0.003818,-0.038261,-0.012992,-0.950750,-0.309687,0.001654,0.005788,0.014796,-5.981395,-45.961090,-0.083896,,,,,,,
1558973950.542774,-0.041906,1.255598,-1.614724,-0.058640,0.055692,-0.004634,-0.012987,-0.950735,-0.309733,-0.007536,0.001516,0.007044,-5.969914,-45.962627,-0.053387,,,,,,,
1558973950.562786,-0.041392,1.253759,-1.613844,-0.092641,0.070736,0.027576,-0.012901,-0.950163,-0.311486,-0.000390,0.010100,0.001687,-5.980392,-45.961166,-0.110777,,,,,,,
1558973950.582771,-0.041696,1.252367,-1.612248,-0.041589,0.053542,0.018911,-0.013050,-0.949728,-0.312803,-0.002620,0.014929,0.000746,-6.013605,-45.956432,-0.220532,,,,,,,
1558973950.602741,-0.041692,1.251552,-1.611712,0.009429,0.014110,-0.017725,-0.013081,-0.949473,-0.313577,-0.003642,0.012553,-0.006339,-6.027978,-45.954357,-0.258135,,,,,,,
1558973950.622741,-0.040976,1.251784,-1.612500,0.027481,0.000272,-0.018910,-0.012848,-0.949546,-0.313365,-0.006150,0.007102,-0.005772,-6.016154,-45.955875,-0.263108,,,,,,,
1558973950.642726,-0.040707,1.251872,-1.612751,0.023214,0.001362,-0.011429,-0.012760,-0.949573,-0.313285,0.001179,0.004947,-0.005852,-6.019599,-45.955414,-0.264822,,,,,,,
1558973950.662711,-0.037835,1.252547,-1.615602,0.037041,-0.005062,-0.017887,-0.011836,-0.949785,-0.312680,0.005061,0.004701,0.004666,-5.979887,-45.960724,-0.242045,,,,,,,
1558973950.682696,-0.037304,1.253081,-1.616169,-0.000192,0.011017,0.001454,-0.011651,-0.949952,-0.312180,0.001351,0.002900,0.005005,-5.962952,-45.963066,-0.213674,,,,,,,
1558973950.702667,-0.038561,1.252752,-1.614047,-0.060748,0.057879,0.025343,-0.012055,-0.949849,-0.312477,-0.006118,-0.004726,0.010337,-5.969198,-45.962322,-0.199501,,,,,,,
1558973950.722661,-0.038197,1.251584,-1.613263,-0.066040,0.043124,0.025263,-0.011984,-0.949483,-0.313590,0.010062,0.002141,0.008216,-6.004207,-45.957470,-0.257974,,,,,,,
1558973950.742624,-0.037889,1.250650,-1.613148,-0.021444,0.001642,0.008886,-0.011921,-0.949189,-0.314479,0.008259,0.007798,-0.001820,-6.012575,-45.956055,-0.309118,,,,,,,
1558973950.762631,-0.037239,1.250958,-1.614074,0.035985,-0.022999,-0.009455,-0.011706,-0.949286,-0.314195,-0.002302,0.005866,0.003358,-5.992661,-45.958546,-0.324794,,,,,,,
1558973950.782622,-0.038703,1.251958,-1.612911,0.044587,0.002321,-0.011339,-0.012129,-0.949600,-0.313229,-0.013429,-0.002975,0.000454,-5.995588,-45.958477,-0.277843,,,,,,,
1558973950.802592,-0.038501,1.252176,-1.612826,-0.019254,0.016415,0.000489,-0.012058,-0.949668,-0.313025,-0.003934,-0.005761,0.002295,-6.006413,-45.957180,-0.258073,,,,,,,
1558973950.822568,-0.038473,1.251274,-1.612522,-0.043781,0.013406,0.022861,-0.012082,-0.949386,-0.313880,0.003735,0.005675,-0.001381,-6.014052,-45.956020,-0.285185,,,,,,,
1558973950.842577,-0.039938,1.250746,-1.610988,-0.011932,-0.014249,0.019419,-0.012562,-0.949220,-0.314363,0.005604,0.006959,-0.003813,-6.027818,-45.954018,-0.316046,,,,,,,
1558973950.862558,-0.040650,1.250687,-1.610816,0.008282,-0.030252,-0.008477,-0.012788,-0.949201,-0.314410,-0.001464,0.006132,-0.000547,-6.043596,-45.951862,-0.326833,,,,,,,
1558973950.882548,-0.041387,1.250960,-1.610719,0.013715,-0.023936,-0.010486,-0.013009,-0.949287,-0.314142,-0.008796,-0.003045,-0.000098,-6.033134,-45.953346,-0.311630,,,,,,,
1558973950.902532,-0.041194,1.251434,-1.611321,0.027584,-0.014496,-0.010384,-0.012930,-0.949436,-0.313695,-0.008341,-0.001980,0.002629,-6.037629,-45.952858,-0.295680,,,,,,,
1558973950.922518,-0.040572,1.252109,-1.612259,0.005216,-0.016485,-0.005084,-0.012709,-0.949647,-0.313063,0.004011,-0.008498,0.008390,-6.021472,-45.955223,-0.255832,,,,,,,
1558973950.942503,-0.041190,1.252015,-1.611736,-0.025607,0.000599,0.001461,-0.012906,-0.949618,-0.313144,-0.002902,-0.000776,0.006289,-6.021150,-45.955254,-0.257077,,,,,,,
1558973950.962488,-0.040305,1.251593,-1.613019,-0.013944,-0.026990,-0.028688,-0.012645,-0.949486,-0.313555,-0.006612,0.002419,0.000582,-6.020198,-45.955338,-0.264945,,,,,,,
1558973950.982453,-0.038162,1.252004,-1.615839,0.003071,-0.032364,-0.028726,-0.011958,-0.949615,-0.313192,0.004817,0.003737,0.007238,-5.987733,-45.959583,-0.263353,,,,,,,
1558973951.002433,-0.036322,1.252311,-1.618378,-0.021445,-0.037503,-0.017052,-0.011371,-0.949711,-0.312922,0.004871,-0.000271,0.007747,-5.940731,-45.965809,-0.241852,,,,,,,
1558973951.022430,-0.035372,1.251671,-1.620207,-0.042783,-0.046886,-0.005416,-0.011095,-0.949510,-0.313540,0.004854,0.007234,0.000475,-5.929953,-45.967232,-0.235041,,,,,,,
1558973951.042399,-0.036793,1.250560,-1.619558,-0.039458,-0.022582,-0.004049,-0.011580,-0.949161,-0.314578,-0.007021,0.009708,-0.001157,-5.908253,-45.969746,-0.284060,,,,,,,
1558973951.062406,-0.037686,1.249383,-1.618872,-0.021301,-0.000471,0.002583,-0.011903,-0.948790,-0.315683,-0.002334,0.008559,-0.009100,-5.924644,-45.967270,-0.338913,,,,,,,
1558973951.082386,-0.037642,1.248270,-1.619046,-0.020286,-0.016337,-0.000771,-0.011928,-0.948438,-0.316739,0.003734,0.009457,-0.011218,-5.928335,-45.966640,-0.358911,,,,,,,
1558973951.102383,-0.036439,1.247295,-1.620760,-0.015033,-0.035386,0.002252,-0.011581,-0.948128,-0.317677,0.009902,0.009163,-0.006115,-5.915311,-45.967659,-0.435215,,,,,,,
1558973951.122369,-0.036997,1.246999,-1.620823,0.009450,-0.032334,0.008707,-0.011769,-0.948034,-0.317952,0.005467,0.005025,-0.008937,-5.902414,-45.969013,-0.465763,,,,,,,
1558973951.142353,-0.037233,1.246848,-1.621211,0.034990,-0.037766,0.000133,-0.011849,-0.947986,-0.318092,0.001839,0.007953,-0.012017,-5.904490,-45.968781,-0.462640,,,,,,,
1558973951.162287,-0.036880,1.247518,-1.622227,0.048895,-0.028362,-0.024322,-0.011713,-0.948199,-0.317461,-0.000631,0.010241,-0.007658,-5.893468,-45.970375,-0.444032,,,,,,,
1558973951.182272,-0.035634,1.248162,-1.624505,0.041294,-0.068472,-0.012968,-0.011296,-0.948403,-0.316865,0.020619,0.016015,-0.014129,-5.852578,-45.975918,-0.410111,,,,,,,
1558973951.202258,-0.033866,1.247604,-1.628110,0.081508,-0.134167,0.020676,-0.010754,-0.948227,-0.317413,0.027370,0.031997,-0.031373,-5.822490,-45.979767,-0.407240,,,,,,,
1558973951.222243,-0.037802,1.249276,-1.627603,0.188784,-0.202370,0.026513,-0.011943,-0.948756,-0.315784,0.019542,0.029017,-0.040493,-5.812177,-45.981514,-0.352771,,,,,,,
1558973951.242228,-0.041355,1.252550,-1.627884,0.206936,-0.189799,0.014903,-0.012936,-0.949786,-0.312634,0.004971,0.012331,-0.041752,-5.791902,-45.984997,-0.199929,,,,,,,
1558973951.262213,-0.046356,1.252949,-1.624904,0.057061,-0.089546,0.086206,-0.014482,-0.949910,-0.312187,0.003984,-0.005656,-0.044960,-5.805535,-45.983582,-0.108069,,,,,,,
1558973951.282198,-0.053907,1.251178,-1.618473,-0.044105,-0.086856,0.116044,-0.016930,-0.949355,-0.313748,0.004722,-0.000275,-0.050021,-5.885614,-45.973400,-0.109779,,,,,,,
1558973951.302161,-0.059642,1.249246,-1.614960,0.025925,-0.173963,0.072559,-0.018838,-0.948747,-0.315476,0.036645,0.005723,-0.073898,-5.974100,-45.961349,-0.264864,,,,,,,
1558973951.322168,-0.066489,1.251481,-1.612031,0.155787,-0.196913,0.025466,-0.020857,-0.949450,-0.313223,0.021879,0.013705,-0.112497,-6.014368,-45.956421,-0.202473,,,,,,,
1558973951.342137,-0.071244,1.254841,-1.609819,0.166780,-0.094452,0.017915,-0.022118,-0.950500,-0.309937,-0.004081,0.018493,-0.136230,-6.039341,-45.953575,-0.035841,,,,,,,
1558973951.362128,-0.072942,1.254081,-1.608561,0.141718,0.035630,-0.012805,-0.022697,-0.950264,-0.310618,-0.019188,0.001548,-0.166875,-6.072100,-45.949265,-0.013765,,,,,,,
1558973951.382117,-0.070384,1.256205,-1.607888,0.076323,0.234744,0.022145,-0.021761,-0.950923,-0.308662,-0.007170,-0.009298,-0.162300,-6.065115,-45.950142,0.068487,,,,,,,
1558973951.402088,-0.067060,1.255730,-1.604429,-0.091464,0.378392,0.069294,-0.020765,-0.950776,-0.309183,0.015287,0.016801,-0.191290,-6.092691,-45.946457,0.090346,,,,,,,
1558973951.422069,-0.060567,1.244864,-1.602780,-0.156504,0.368215,0.103307,-0.019381,-0.947353,-0.319605,0.030001,0.082515,-0.266287,-6.186711,-45.933857,-0.105946,,,,,,,
1558973951.442074,-0.057488,1.244619,-1.598960,0.115977,0.326507,0.029458,-0.018410,-0.947274,-0.319895,0.026818,0.088220,-0.265203,-6.213371,-45.926849,-0.569271,,,,,,,
1558973951.462063,-0.050996,1.251528,-1.598689,0.453551,0.339442,-0.029936,-0.015999,-0.949465,-0.313464,0.032998,0.071658,-0.261518,-6.227358,-45.926216,-0.456751,,,,,,,
1558973951.482050,-0.044637,1.261512,-1.599663,0.493638,0.219759,-0.050267,-0.013582,-0.952552,-0.304074,0.040468,0.047217,-0.250262,-6.189128,-45.933640,0.034239,,,,,,,
1558973951.502034,-0.037896,1.270931,-1.603270,0.461543,0.158580,-0.077570,-0.011192,-0.955376,-0.295179,0.022910,0.037865,-0.232287,-6.146504,-45.938057,0.347935,,,,,,,
1558973951.522019,-0.030033,1.280337,-1.606692,0.473689,0.294874,-0.060166,-0.008600,-0.958113,-0.286263,-0.020651,0.037092,-0.198189,-6.080323,-45.942020,0.752557,,,,,,,
1558973951.542005,-0.019374,1.289261,-1.608647,0.417870,0.495000,-0.020928,-0.005382,-0.960630,-0.277779,-0.055439,0.032606,-0.180381,-6.030558,-45.938320,1.228292,,,,,,,
1558973951.561990,-0.007256,1.296025,-1.611573,0.286786,0.426912,-0.068661,-0.001969,-0.962487,-0.271320,-0.033798,0.037805,-0.175168,-6.022562,-45.932877,1.451113,,,,,,,
1558973951.581975,0.003374,1.301539,-1.615784,0.300083,0.274673,-0.041281,0.000898,-0.963969,-0.266014,-0.025678,0.057963,-0.160851,-5.976391,-45.931744,1.662375,,,,,,,
1558973951.601961,0.013120,1.308995,-1.619033,0.412252,0.395639,-0.042169,0.003396,-0.965925,-0.258798,-0.062417,0.033552,-0.122153,-5.941807,-45.922859,1.997943,,,,,,,
1558973951.621915,0.025432,1.317089,-1.620540,0.359776,0.652866,0.023242,0.006382,-0.967989,-0.250913,-0.122258,0.023347,-0.132174,-5.936164,-45.919914,2.080783,,,,,,,
1558973951.641930,0.032530,1.321506,-1.611427,0.145172,0.847643,0.169067,0.008024,-0.969088,-0.246586,-0.112211,0.060259,-0.134548,-6.006858,-45.891594,2.466782,,,,,,,
1558973951.661915,0.031842,1.324607,-1.592638,0.191982,0.885600,0.269827,0.007759,-0.969848,-0.243587,-0.106010,0.094619,-0.101842,-6.006858,-45.891594,2.466782,,,,,,,
1558973951.681882,0.029574,1.331490,-1.571582,0.435921,0.918070,0.236251,0.007009,-0.971503,-0.236925,-0.116399,0.132803,-0.114134,-6.508857,-45.816582,2.584840,,,,,,,
1558973951.701870,0.036228,1.343569,-1.558582,0.681243,1.028699,0.152094,0.008160,-0.974295,-0.225129,-0.126034,0.123907,-0.074294,-6.758944,-45.761894,2.893349,,,,,,,
1558973951.721853,0.042947,1.358935,-1.543043,0.791023,1.102215,0.221215,0.009028,-0.977641,-0.210086,-0.134974,0.058360,0.006457,-7.045631,-45.674152,3.526546,,,,,,,
1558973951.741855,0.050273,1.373893,-1.529415,0.677979,1.001214,0.139017,0.009831,-0.980677,-0.195386,-0.151371,-0.016378,0.068311,-7.302639,-45.587940,4.076395,,,,,,,
1558973951.761836,0.054553,1.384042,-1.512720,0.390720,1.086354,0.223946,0.010124,-0.982612,-0.185394,-0.175529,-0.027077,0.095902,-7.469855,-45.532677,4.379786,,,,,,,
1558973951.781806,0.054028,1.389528,-1.487780,0.207038,1.238497,0.241269,0.009735,-0.983616,-0.180015,-0.164551,-0.022152,0.122077,-7.693805,-45.481186,4.524732,,,,,,,
1558973951.801811,0.054005,1.394234,-1.463782,0.259946,1.132486,0.220012,0.009481,-0.984453,-0.175390,-0.117880,-0.017744,0.160802,-8.179786,-45.394382,4.543865,,,,,,,
1558973951.821797,0.045274,1.400384,-1.434641,0.289886,0.882982,0.292383,0.007675,-0.985515,-0.169415,-0.073242,-0.037831,0.195126,-8.415557,-45.345642,4.599673,,,,,,,
1558973951.841782,0.034374,1.404570,-1.408428,0.136155,0.696532,0.180507,0.005686,-0.986216,-0.165364,-0.022975,-0.053045,0.261723,-8.670788,-45.289314,4.679899,,,,,,,
1558973951.861767,0.027252,1.405797,-1.387461,0.025422,0.693960,0.192138,0.004476,-0.986418,-0.164191,-0.094319,-0.046891,0.262137,-9.027009,-45.221619,4.660920,,,,,,,
1558973951.881731,0.013065,1.406026,-1.357497,-0.018021,0.792612,0.274188,0.002143,-0.986456,-0.164012,-0.085853,-0.086420,0.311000,-9.223148,-45.190777,4.575264,,,,,,,
1558973951.901709,-0.005958,1.403658,-1.322878,-0.184379,0.706827,0.284978,-0.000991,-0.986065,-0.166358,0.019897,-0.105930,0.402397,-9.623679,-45.132072,4.322822,,,,,,,
1558973951.921722,-0.023010,1.398772,-1.294961,-0.247976,0.425865,0.196826,-0.003939,-0.985240,-0.171132,0.017443,-0.086934,0.405080,-9.908741,-45.099789,4.003957,,,,,,,
1558973951.941700,-0.030902,1.395884,-1.279973,-0.042776,0.306255,0.098690,-0.005377,-0.984742,-0.173938,-0.022928,-0.037902,0.398517,-10.045959,-45.087132,3.799329,,,,,,,
1558973951.961676,-0.027333,1.398437,-1.279280,0.203938,0.159914,-0.058390,-0.004687,-0.985183,-0.171443,-0.027082,-0.072465,0.469478,-10.136125,-45.069801,3.765341,,,,,,,
1558973951.981677,-0.013083,1.402601,-1.291891,0.180253,0.048955,-0.123530,-0.002190,-0.985888,-0.167389,-0.046806,-0.079709,0.478836,-10.085907,-45.070480,3.889979,,,,,,,
1558973952.001663,-0.003777,1.404536,-1.301885,0.044535,-0.076001,-0.045829,-0.000625,-0.986210,-0.165495,-0.012879,-0.118160,0.548048,-9.984832,-45.080776,4.028964,,,,,,,
1558973952.021643,-0.009177,1.404511,-1.299795,-0.016750,-0.225660,0.031695,-0.001519,-0.986206,-0.165513,-0.062400,-0.081207,0.582993,-9.954515,-45.082226,4.087338,,,,,,,
1558973952.041633,-0.013011,1.404475,-1.302255,0.017005,-0.363392,-0.064617,-0.002154,-0.986201,-0.165541,-0.084989,-0.062994,0.573195,-9.934955,-45.082348,4.133335,,,,,,,
1558973952.061603,-0.005073,1.405461,-1.318845,0.057316,-0.450425,-0.162573,-0.000835,-0.986363,-0.164580,-0.087712,-0.028483,0.530639,-9.882280,-45.089439,4.181972,,,,,,,
1558973952.081579,0.000325,1.406091,-1.334633,0.003668,-0.551525,-0.101661,0.000053,-0.986467,-0.163962,-0.026695,-0.031096,0.465262,-9.627192,-45.125751,4.380592,,,,,,,
1558973952.101560,-0.009169,1.404640,-1.337723,-0.115077,-0.672271,0.024138,-0.001517,-0.986228,-0.165385,-0.038324,-0.023645,0.438045,-9.592163,-45.130550,4.407900,,,,,,,
1558973952.121571,-0.028230,1.402052,-1.333467,-0.112264,-0.792801,0.013378,-0.004740,-0.985796,-0.167878,-0.058599,-0.004819,0.375397,-9.508690,-45.142544,4.465585,,,,,,,
1558973952.141558,-0.037907,1.402070,-1.341355,0.084464,-0.908169,-0.105010,-0.006364,-0.985799,-0.167806,-0.109206,-0.020274,0.284933,-9.386655,-45.155739,4.588653,,,,,,,
1558973952.161526,-0.049014,1.405541,-1.348296,0.190867,-0.878991,-0.010693,-0.008060,-0.986376,-0.164307,-0.111661,-0.033246,0.252487,-9.253807,-45.160774,4.803879,,,,,,,
1558973952.181529,-0.071980,1.408471,-1.343047,0.121474,-0.916602,0.041207,-0.011623,-0.986854,-0.161195,-0.108006,-0.003731,0.208436,-9.164659,-45.143375,5.127439,,,,,,,
1558973952.201515,-0.095023,1.411338,-1.338953,0.185264,-0.962461,-0.007226,-0.015065,-0.987313,-0.158067,-0.147487,0.050210,0.164064,-9.080206,-45.118137,5.487193,,,,,,,
1558973952.221499,-0.104134,1.417455,-1.349604,0.364218,-1.007003,-0.184738,-0.015877,-0.988266,-0.151913,-0.127754,0.076920,0.133359,-8.967617,-45.105011,5.772822,,,,,,,
1558973952.241484,-0.097539,1.427238,-1.379394,0.520102,-1.240537,-0.300019,-0.013932,-0.989713,-0.142385,-0.089492,0.125700,0.084570,-8.659892,-45.094238,6.302526,,,,,,,
1558973952.261470,-0.095277,1.439449,-1.408633,0.613226,-1.362435,-0.200753,-0.012459,-0.991386,-0.130375,-0.075279,0.067619,0.106297,-8.124602,-45.061203,7.189227,,,,,,,
1558973952.281430,-0.125737,1.450462,-1.404628,0.474692,-1.284141,0.071068,-0.015054,-0.992769,-0.119096,-0.066031,0.027803,0.050996,-8.029821,-45.046978,7.382238,,,,,,,
1558973952.301439,-0.184445,1.454866,-1.369342,0.113001,-1.158392,0.190491,-0.021214,-0.993288,-0.113709,-0.035762,-0.021819,-0.045944,-7.761704,-44.927593,8.335052,,,,,,,
1558973952.321425,-0.236023,1.453695,-1.342344,-0.076937,-1.304338,0.177197,-0.027320,-0.993151,-0.113595,-0.060479,-0.017667,-0.055763,-7.703498,-44.881607,8.631527,,,,,,,
1558973952.341397,-0.298142,1.450700,-1.306240,-0.072767,-1.290487,0.265948,-0.035193,-0.992797,-0.114523,-0.117975,-0.052277,-0.041468,-7.686873,-44.878117,8.664423,,,,,,,
1558973952.361395,-0.355906,1.448099,-1.273164,-0.078850,-1.230312,0.194987,-0.042646,-0.992482,-0.114720,-0.112262,-0.077617,-0.056941,-7.680104,-44.840927,8.860739,,,,,,,
1558973952.381381,-0.384304,1.443831,-1.269331,-0.257408,-1.215858,0.043376,-0.047473,-0.991951,-0.117388,-0.118283,-0.008904,-0.085905,-7.578815,-44.839691,8.953731,,,,,,,
1558973952.401365,-0.392140,1.439034,-1.284957,-0.177170,-1.138208,-0.055107,-0.050210,-0.991332,-0.121409,-0.097434,0.040358,-0.102880,-7.428864,-44.873756,8.908625,,,,,,,
1558973952.421350,-0.405464,1.440404,-1.293554,0.178672,-1.061912,-0.090392,-0.051287,-0.991511,-0.119482,-0.065336,0.020182,-0.093775,-7.192774,-44.906139,8.939129,,,,,,,
1558973952.441336,-0.431572,1.445766,-1.289513,0.218781,-1.164649,-0.088140,-0.052164,-0.992194,-0.113270,-0.042135,-0.096887,-0.075664,-6.850471,-44.871922,9.369477,,,,,,,
1558973952.461301,-0.433600,1.445026,-1.311756,-0.298679,-1.210584,-0.109280,-0.052702,-0.992101,-0.113831,-0.067247,-0.028284,-0.138763,-6.775937,-44.864639,9.458162,,,,,,,
1558973952.481305,-0.412710,1.436672,-1.355911,-0.548417,-1.079248,-0.084622,-0.053635,-0.991019,-0.122495,-0.087554,-0.023355,-0.155078,-6.293151,-44.945660,9.406881,,,,,,,
1558973952.501291,-0.391758,1.428345,-1.395664,-0.434815,-0.849427,-0.091940,-0.054206,-0.989871,-0.131214,-0.053689,-0.011441,-0.184978,-5.963796,-45.079025,8.973316,,,,,,,
1558973952.521268,-0.379500,1.421198,-1.425229,-0.416875,-0.876939,-0.048416,-0.055213,-0.988831,-0.138437,-0.008340,0.033555,-0.216177,-5.796223,-45.142025,8.763968,,,,,,,
1558973952.541260,-0.367152,1.413406,-1.457036,-0.418258,-1.004934,-0.117972,-0.056264,-0.987640,-0.146295,-0.000484,0.027709,-0.227041,-5.590603,-45.225555,8.461682,,,,,,,
1558973952.561246,-0.351849,1.407562,-1.493289,-0.345802,-1.014932,-0.187407,-0.056007,-0.986707,-0.152555,-0.015008,0.042188,-0.239138,-5.222754,-45.327393,8.145917,,,,,,,
1558973952.581215,-0.338670,1.403228,-1.525431,-0.264432,-0.860998,-0.162380,-0.055411,-0.985993,-0.157311,-0.036386,0.034608,-0.240913,-4.977488,-45.380882,8.000377,,,,,,,
1558973952.601217,-0.327946,1.398744,-1.550957,-0.319136,-0.638658,-0.107981,-0.055145,-0.985235,-0.162081,-0.041886,0.014700,-0.225981,-4.765504,-45.424595,7.880482,,,,,,,
1558973952.621203,-0.317697,1.390878,-1.572695,-0.503068,-0.536106,-0.032412,-0.055900,-0.983858,-0.169995,-0.007546,0.002611,-0.198444,-4.492148,-45.518436,7.489904,,,,,,,
1558973952.641187,-0.306884,1.380386,-1.594014,-0.573140,-0.476533,-0.024424,-0.057174,-0.981927,-0.180420,-0.011460,0.016564,-0.167877,-4.414854,-45.578823,7.161426,,,,,,,
1558973952.661156,-0.295115,1.367341,-1.613687,-0.578023,-0.324243,0.012261,-0.058768,-0.979374,-0.193320,-0.033258,0.027470,-0.165720,-4.349183,-45.672550,6.580900,,,,,,,
1558973952.681148,-0.290614,1.355348,-1.623860,-0.608758,-0.245741,0.094129,-0.061258,-0.976881,-0.204821,-0.031210,0.066419,-0.159650,-4.346157,-45.760826,5.938320,,,,,,,
1558973952.701143,-0.285813,1.338079,-1.632815,-0.461637,-0.184187,0.069210,-0.065021,-0.973043,-0.221267,-0.023983,0.061056,-0.132920,-4.391522,-45.805141,5.550622,,,,,,,
1558973952.721115,-0.281522,1.332419,-1.641247,-0.200737,-0.216417,-0.068616,-0.065600,-0.971722,-0.226830,0.002657,0.046353,-0.122276,-4.481395,-45.865238,4.950025,,,,,,,
1558973952.741091,-0.275726,1.331304,-1.652341,-0.046434,-0.253240,-0.117957,-0.064579,-0.971458,-0.228250,0.004566,0.020790,-0.094672,-4.351050,-45.901520,4.724896,,,,,,,
1558973952.761097,-0.269548,1.324286,-1.663444,-0.043300,-0.232005,-0.044087,-0.064982,-0.969770,-0.235210,-0.008688,0.019514,-0.073445,-4.261315,-45.911110,4.713441,,,,,,,
1558973952.781064,-0.270668,1.323377,-1.665670,-0.052511,-0.104008,-0.009773,-0.065481,-0.969548,-0.235986,-0.051112,0.002476,-0.039877,-4.255567,-45.943756,4.389460,,,,,,,
1558973952.801062,-0.268304,1.322198,-1.667630,-0.075282,0.095896,-0.003607,-0.065226,-0.969258,-0.237242,-0.056341,-0.002849,-0.018999,-4.232255,-45.952274,4.322320,,,,,,,
1558973952.821054,-0.274728,1.318579,-1.658078,-0.158002,0.208429,0.034777,-0.067700,-0.968361,-0.240194,-0.035038,-0.006050,-0.004084,-4.242714,-45.958199,4.248409,,,,,,,
1558973952.841021,-0.270333,1.315062,-1.658304,-0.156981,0.195740,0.035724,-0.067553,-0.967478,-0.243769,0.037935,0.010477,0.018199,-4.425786,-45.957111,4.069672,,,,,,,
1558973952.861023,-0.252364,1.317591,-1.673871,-0.024304,0.040607,-0.041465,-0.062550,-0.968115,-0.242573,0.052266,-0.005350,0.037983,-4.459539,-45.967567,3.911672,,,,,,,
1558973952.881010,-0.246836,1.318810,-1.680152,0.063854,-0.050865,-0.112734,-0.060920,-0.968419,-0.241771,0.014167,-0.015575,0.051906,-4.201358,-45.978931,4.061085,,,,,,,
1558973952.900970,-0.239913,1.320291,-1.687698,0.028878,0.005373,-0.090871,-0.058904,-0.968787,-0.240793,0.011327,-0.026971,0.051005,-3.256115,-47.571205,8.335391,,,,,,,
1558973952.920980,-0.235546,1.320179,-1.691609,-0.040313,0.035429,-0.025512,-0.057877,-0.968760,-0.241154,0.031678,-0.018896,0.040302,-3.145497,-47.574390,8.359644,,,,,,,
1558973952.940935,-0.232963,1.319150,-1.693973,-0.058524,0.003825,-0.018356,-0.057484,-0.968504,-0.242272,0.028965,-0.017687,0.038674,-3.134937,-47.581554,8.322765,,,,,,,
1558973952.960950,-0.229548,1.318981,-1.697884,0.014890,-0.029401,-0.067727,-0.056694,-0.968462,-0.242627,-0.002220,0.006609,0.034589,-3.120963,-47.589470,8.282651,,,,,,,
1558973952.980934,-0.223328,1.320949,-1.704292,0.098175,0.032473,-0.102301,-0.054761,-0.968950,-0.241115,-0.024737,-0.030409,0.053676,-3.009444,-47.588642,8.328558,,,,,,,
1558973953.000913,-0.225073,1.326498,-1.701581,0.066332,0.081339,-0.049539,-0.053981,-0.970307,-0.235775,-0.000386,-0.015960,0.037121,-2.952692,-47.580467,8.395294,,,,,,,
1558973953.020904,-0.221614,1.326969,-1.703912,-0.015837,0.027891,-0.030899,-0.053065,-0.970421,-0.235514,0.008235,-0.007805,0.028254,-2.959989,-47.539131,8.623809,,,,,,,
1558973953.040890,-0.217935,1.326401,-1.707595,-0.037202,0.002627,-0.036496,-0.052317,-0.970284,-0.236246,-0.009725,0.008705,0.038081,-2.919346,-47.546242,8.598453,,,,,,,
1558973953.060849,-0.221360,1.328933,-1.704170,0.021406,0.021350,-0.031996,-0.052587,-0.970893,-0.233668,-0.013865,0.012077,0.038066,-2.928594,-47.525158,8.711106,,,,,,,
1558973953.080859,-0.228916,1.332962,-1.696519,0.035255,0.020212,-0.036260,-0.053462,-0.971851,-0.229452,-0.007405,0.004382,0.029028,-2.956039,-47.503792,8.817691,,,,,,,
1558973953.100846,-0.228745,1.336959,-1.696462,-0.006275,0.017273,-0.025643,-0.052542,-0.972784,-0.225677,0.006552,-0.007715,0.027435,-2.946419,-47.464802,9.028370,,,,,,,
1558973953.120806,-0.228033,1.338949,-1.696978,-0.051068,0.004875,0.008367,-0.051943,-0.973244,-0.223827,0.007098,0.000374,0.025219,-2.911508,-47.442249,9.157316,,,,,,,
1558973953.140815,-0.227585,1.338662,-1.697408,-0.062836,-0.007727,0.022116,-0.051906,-0.973178,-0.224123,0.010082,0.004901,0.021578,-2.901321,-47.438099,9.182030,,,,,,,
1558973953.160801,-0.229736,1.339569,-1.695963,0.014895,-0.035730,-0.052823,-0.052187,-0.973386,-0.223151,-0.004484,0.007916,0.019508,-2.911712,-47.434879,9.195357,,,,,,,
1558973953.180783,-0.226404,1.343449,-1.700389,0.069209,-0.045581,-0.087038,-0.050595,-0.974268,-0.219642,0.003293,-0.005408,0.027915,-2.851737,-47.417049,9.305456,,,,,,,
1558973953.200771,-0.221489,1.345973,-1.705886,-0.040365,-0.007949,-0.046195,-0.048975,-0.974833,-0.217488,0.006571,-0.021947,0.020497,-2.751042,-47.390385,9.470140,,,,,,,
1558973953.220728,-0.218800,1.345807,-1.708101,-0.137106,0.057128,0.015207,-0.048425,-0.974796,-0.217777,-0.002661,-0.017666,0.018986,-2.684536,-47.391159,9.485332,,,,,,,
1558973953.240742,-0.218868,1.342785,-1.706528,-0.143477,0.081536,0.058141,-0.049079,-0.974118,-0.220648,0.000327,0.004651,0.004446,-2.720084,-47.402328,9.419168,,,,,,,
1558973953.260700,-0.218197,1.340216,-1.705936,-0.097797,0.037909,0.024662,-0.049472,-0.973534,-0.223123,0.011127,0.010109,-0.000815,-2.771384,-47.419342,9.318036,,,,,,,
1558973953.280707,-0.213445,1.339214,-1.710659,-0.041438,-0.012172,-0.046238,-0.048618,-0.973304,-0.224310,0.002384,0.012748,0.003851,-2.776844,-47.445339,9.183091,,,,,,,
1558973953.300697,-0.208176,1.339676,-1.716209,0.013974,-0.001917,-0.062110,-0.047343,-0.973410,-0.224123,0.003428,0.008780,0.011202,-2.731379,-47.451874,9.162958,,,,,,,
1558973953.320667,-0.203502,1.340920,-1.721160,0.036241,-0.017855,-0.038758,-0.046050,-0.973695,-0.223155,0.019667,0.001435,0.007472,-2.681425,-47.449783,9.188495,,,,,,,
1558973953.340643,-0.202538,1.341364,-1.722059,-0.047867,0.020782,0.056564,-0.045748,-0.973796,-0.222777,0.003039,-0.001867,0.010786,-2.606845,-47.443150,9.244053,,,,,,,
1558973953.360652,-0.209697,1.339259,-1.713194,-0.119058,0.102685,0.150176,-0.047768,-0.973315,-0.224447,0.000893,-0.000654,0.011633,-2.668157,-47.447197,9.205720,,,,,,,
1558973953.380637,-0.219405,1.335980,-1.700810,-0.117887,0.118478,0.112962,-0.050639,-0.972557,-0.227087,-0.015355,0.022041,-0.007593,-2.836234,-47.454674,9.116458,,,,,,,
1558973953.400623,-0.218607,1.333120,-1.700138,-0.070101,0.037743,0.011868,-0.051061,-0.971888,-0.229842,0.018987,0.016062,0.000059,-3.002113,-47.481094,8.923741,,,,,,,
1558973953.420608,-0.212053,1.333778,-1.707162,0.003120,-0.059977,-0.048800,-0.049419,-0.972042,-0.229546,0.014064,-0.002735,0.016686,-2.973446,-47.490944,8.880823,,,,,,,
1558973953.440593,-0.210879,1.334843,-1.709748,0.041428,-0.056983,-0.032726,-0.048933,-0.972292,-0.228592,-0.002016,0.000826,0.011276,-2.868177,-47.485859,8.942441,,,,,,,
1558973953.460578,-0.213817,1.335841,-1.708032,0.060618,-0.047570,-0.031551,-0.049398,-0.972525,-0.227499,-0.015589,0.006765,0.002843,-2.831820,-47.477448,8.998518,,,,,,,
1558973953.480563,-0.214612,1.337016,-1.707660,0.034196,0.010705,-0.031012,-0.049336,-0.972798,-0.226342,-0.022289,-0.003673,0.004708,-2.820291,-47.469372,9.044602,,,,,,,
1558973953.500538,-0.215173,1.337453,-1.706016,-0.046584,0.071456,0.033666,-0.049372,-0.972899,-0.225900,0.003473,-0.004213,0.014977,-2.839475,-47.458858,9.093645,,,,,,,
1558973953.520525,-0.213940,1.336810,-1.705787,-0.076441,0.061064,0.047420,-0.049226,-0.972750,-0.226571,0.013200,0.013781,0.018227,-2.876673,-47.462887,9.060881,,,,,,,
1558973953.540494,-0.214401,1.337051,-1.704798,0.007553,0.007699,-0.001068,-0.049280,-0.972806,-0.226319,0.004099,0.020062,0.024628,-2.887376,-47.464043,9.051400,,,,,,,
1558973953.560503,-0.214635,1.339349,-1.704616,0.068280,0.007331,-0.034119,-0.048857,-0.973335,-0.224124,-0.000734,0.005943,0.021472,-2.881246,-47.450623,9.123431,,,,,,,
1558973953.580481,-0.213687,1.341619,-1.705346,0.020327,0.006578,0.001067,-0.048176,-0.973854,-0.222010,0.010151,0.001625,0.029307,-2.849100,-47.429283,9.243705,,,,,,,
1558973953.600461,-0.213603,1.343268,-1.705370,0.009612,-0.007077,0.021211,-0.047817,-0.974227,-0.220444,0.014736,0.001800,0.029831,-2.828434,-47.415169,9.322143,,,,,,,
1558973953.620459,-0.214037,1.344702,-1.705977,0.056242,-0.091953,-0.025474,-0.047616,-0.974549,-0.219058,0.016534,0.002351,0.024844,-2.824741,-47.407219,9.363605,,,,,,,
1558973953.640444,-0.212357,1.347155,-1.710213,0.058281,-0.131109,-0.049337,-0.046744,-0.975096,-0.216800,-0.003503,-0.003801,0.013919,-2.714287,-47.385609,9.504596,,,,,,,
1558973953.660428,-0.215989,1.347628,-1.708858,-0.025781,-0.092521,0.013958,-0.047432,-0.975201,-0.216178,-0.019798,-0.009784,0.009055,-2.687966,-47.373264,9.573350,,,,,,,
1558973953.680415,-0.219795,1.346523,-1.706186,-0.068150,-0.028878,0.013467,-0.048489,-0.974956,-0.217047,-0.020633,-0.009816,0.008261,-2.687320,-47.376160,9.559196,,,,,,,
1558973953.700400,-0.222467,1.344867,-1.703679,-0.047801,0.005885,0.006345,-0.049425,-0.974586,-0.218492,-0.010313,0.005607,-0.007521,-2.741421,-47.389355,9.478086,,,,,,,
1558973953.720386,-0.220963,1.343079,-1.705365,-0.024468,-0.025971,-0.008889,-0.049479,-0.974184,-0.220266,0.000391,0.014528,-0.023280,-2.759202,-47.401405,9.412424,,,,,,,
1558973953.740370,-0.219713,1.342657,-1.707495,0.017008,-0.044180,-0.023977,-0.049293,-0.974089,-0.220729,0.000754,0.014113,-0.017308,-2.750223,-47.411026,9.366505,,,,,,,
1558973953.760356,-0.219016,1.344039,-1.709100,0.090502,-0.038250,-0.040944,-0.048846,-0.974401,-0.219448,-0.013776,0.025228,-0.023182,-2.701573,-47.409435,9.388680,,,,,,,
1558973953.780341,-0.217584,1.345908,-1.711174,0.094812,-0.024539,-0.046147,-0.048139,-0.974819,-0.217739,-0.004901,-0.001194,-0.014515,-2.663967,-47.397148,9.461157,,,,,,,
1558973953.800312,-0.217530,1.346825,-1.711276,0.012854,0.006639,0.017077,-0.047934,-0.975023,-0.216870,0.002692,-0.001509,-0.011188,-2.634551,-47.388565,9.512266,,,,,,,
1558973953.820286,-0.217811,1.346161,-1.710488,-0.018046,0.018495,0.062004,-0.048135,-0.974875,-0.217488,0.007012,0.013129,0.002492,-2.652711,-47.386814,9.515941,,,,,,,
1558973953.840279,-0.222916,1.346196,-1.704935,0.045843,0.014956,0.040668,-0.049237,-0.974883,-0.217206,-0.003055,0.012572,0.000348,-2.683421,-47.387169,9.505592,,,,,,,
1558973953.860279,-0.224758,1.347586,-1.703084,0.093753,-0.010756,-0.021463,-0.049335,-0.975192,-0.215794,-0.006070,0.006076,0.000538,-2.718311,-47.379498,9.533850,,,,,,,
1558973953.880255,-0.226004,1.350208,-1.702434,0.102236,-0.028795,-0.037643,-0.049031,-0.975769,-0.213239,-0.007396,-0.013886,0.007612,-2.710692,-47.363865,9.613360,,,,,,,
1558973953.900235,-0.227571,1.352162,-1.701060,0.043820,0.015924,-0.025515,-0.048934,-0.976195,-0.211305,-0.009354,-0.013445,0.010560,-2.676430,-47.331497,9.780926,,,,,,,
1558973953.920207,-0.228138,1.352135,-1.699631,-0.041324,0.049233,0.037727,-0.049060,-0.976189,-0.211302,-0.003399,-0.013374,0.007018,-2.676430,-47.331497,9.780926,,,,,,,
1558973953.940192,-0.232089,1.350718,-1.694654,-0.120072,0.059170,0.045234,-0.050213,-0.975880,-0.212453,-0.009296,-0.010753,0.013402,-2.723559,-47.325455,9.797138,,,,,,,
1558973953.960207,-0.232037,1.348883,-1.693609,-0.114718,0.054871,0.016371,-0.050613,-0.975478,-0.214198,0.002930,-0.000001,0.013591,-2.814351,-47.344402,9.679202,,,,,,,
1558973953.980191,-0.229458,1.347343,-1.695275,-0.070034,0.041934,0.004538,-0.050402,-0.975138,-0.215790,0.010211,0.007822,0.011246,-2.814351,-47.344402,9.679202,,,,,,,
1558973954.000178,-0.223747,1.346802,-1.700817,-0.003127,-0.022953,-0.034467,-0.049286,-0.975018,-0.216589,0.012055,0.012448,-0.000604,-2.814970,-47.365952,9.573069,,,,,,,
1558973954.020163,-0.219590,1.347618,-1.705878,0.052167,-0.049698,-0.053898,-0.048212,-0.975199,-0.216015,0.002680,0.005320,-0.002735,-2.751450,-47.372761,9.557790,,,,,,,
1558973954.040148,-0.220391,1.348810,-1.705892,0.055394,-0.021117,-0.014117,-0.048131,-0.975462,-0.214842,-0.011699,0.003676,0.000197,-2.691524,-47.366699,9.604780,,,,,,,
1558973954.060133,-0.225061,1.349068,-1.700890,-0.005071,0.047923,-0.002824,-0.049078,-0.975519,-0.214370,-0.027491,0.000574,0.004165,-2.713138,-47.355389,9.654355,,,,,,,
1558973954.080106,-0.225014,1.348852,-1.699407,-0.033685,0.089306,0.003956,-0.049115,-0.975471,-0.214577,-0.002246,-0.003761,0.010368,-2.740659,-47.353306,9.656769,,,,,,,
1558973954.100102,-0.220934,1.348660,-1.701335,-0.053920,0.098969,0.032856,-0.048280,-0.975429,-0.214959,0.023927,-0.005314,0.014916,-2.775300,-47.354843,9.639335,,,,,,,
1558973954.120089,-0.218435,1.347700,-1.702531,-0.042486,0.021768,0.047069,-0.047945,-0.975217,-0.215992,0.024279,0.015958,0.000020,-2.796031,-47.363605,9.590211,,,,,,,
1558973954.140073,-0.218278,1.347080,-1.702835,0.010671,-0.020865,-0.002410,-0.048042,-0.975080,-0.216591,0.003990,0.023297,-0.001518,-2.790584,-47.371429,9.553071,,,,,,,
1558973954.160058,-0.218165,1.348481,-1.703349,0.107589,-0.018245,-0.030066,-0.047722,-0.975389,-0.215263,-0.001884,0.019579,-0.002999,-2.777761,-47.368568,9.570946,,,,,,,
1558973954.180044,-0.217981,1.350667,-1.704170,0.097959,-0.038295,-0.042009,-0.047221,-0.975869,-0.213189,-0.004536,-0.003791,-0.004554,-2.736320,-47.346386,9.691875,,,,,,,
1558973954.200010,-0.217266,1.351907,-1.705840,0.036168,-0.047463,-0.028267,-0.046808,-0.976139,-0.212041,0.000009,-0.002910,-0.000240,-2.699023,-47.334656,9.759410,,,,,,,
1558973954.220012,-0.217503,1.352355,-1.706508,0.017016,-0.035705,-0.007885,-0.046764,-0.976236,-0.211602,0.000179,0.004587,0.002374,-2.682986,-47.332451,9.774531,,,,,,,
1558973954.239987,-0.221724,1.352406,-1.702638,-0.014827,0.001487,0.012734,-0.047646,-0.976248,-0.211354,-0.016273,-0.002253,0.004476,-2.685297,-47.326874,9.800848,,,,,,,
1558973954.259984,-0.223206,1.351059,-1.700402,-0.084996,0.047370,0.054755,-0.048250,-0.975955,-0.212566,0.000246,0.006198,0.004513,-2.732023,-47.331791,9.764122,,,,,,,
1558973954.279950,-0.224671,1.349416,-1.697902,-0.057323,0.047228,0.056910,-0.048918,-0.975595,-0.214058,0.015166,0.011560,0.005150,-2.763994,-47.338684,9.721627,,,,,,,
1558973954.299954,-0.224498,1.349208,-1.697497,0.022446,0.009757,0.019245,-0.048927,-0.975550,-0.214265,0.014823,0.015451,0.004121,-2.820056,-47.349121,9.654469,,,,,,,
1558973954.319940,-0.224470,1.349547,-1.697694,0.018131,-0.019857,-0.007733,-0.048847,-0.975624,-0.213943,0.004169,0.009712,-0.005982,-2.806655,-47.346451,9.671430,,,,,,,
1558973954.339897,-0.225122,1.349487,-1.697127,-0.007333,0.015189,0.012867,-0.049000,-0.975611,-0.213969,-0.003079,0.007441,-0.000250,-2.801582,-47.345200,9.679053,,,,,,,
1558973954.359886,-0.227806,1.348984,-1.693917,0.017155,0.024597,0.028993,-0.049684,-0.975500,-0.214314,-0.003187,0.012640,-0.007167,-2.839342,-47.345890,9.664642,,,,,,,
1558973954.379895,-0.229277,1.349069,-1.692195,0.024514,-0.005045,0.024443,-0.049981,-0.975519,-0.214160,0.008874,-0.001425,-0.016903,-2.864554,-47.345451,9.659348,,,,,,,
1558973954.399860,-0.230370,1.348111,-1.691143,0.005352,0.000355,0.034088,-0.050428,-0.975308,-0.215015,0.001112,0.007168,-0.025356,-2.875879,-47.346848,9.649143,,,,,,,
1558973954.419836,-0.230754,1.346614,-1.690506,0.014988,0.005545,0.004251,-0.050845,-0.974976,-0.216417,-0.007139,0.011597,-0.044737,-2.912346,-47.355938,9.593435,,,,,,,
1558973954.439851,-0.231382,1.345971,-1.689521,0.040643,0.039234,0.003528,-0.051124,-0.974833,-0.216995,-0.018425,0.007365,-0.052308,-2.913743,-47.361343,9.566259,,,,,,,
1558973954.459827,-0.233563,1.346552,-1.685276,0.033396,0.129208,0.064172,-0.051466,-0.974962,-0.216332,-0.005296,-0.000303,-0.079338,-2.942087,-47.365582,9.536572,,,,,,,
1558973954.479796,-0.237974,1.346800,-1.677648,0.036671,0.160923,0.079425,-0.052363,-0.975017,-0.215868,0.000224,0.016064,-0.120985,-3.069394,-47.350075,9.573377,,,,,,,
1558973954.499806,-0.238517,1.344746,-1.673603,0.080362,0.164876,0.048536,-0.052953,-0.974559,-0.217785,-0.007212,-0.003865,-0.138172,-3.144589,-47.339928,9.599138,,,,,,,
1558973954.519773,-0.239606,1.346312,-1.668754,0.084747,0.189118,0.026448,-0.052828,-0.974909,-0.216244,-0.015561,-0.023352,-0.167529,-3.228077,-47.350014,9.521373,,,,,,,
1558973954.539777,-0.237593,1.346823,-1.665410,-0.007418,0.332324,0.043760,-0.052276,-0.975023,-0.215866,-0.027055,-0.027907,-0.206467,-3.312348,-47.332645,9.578596,,,,,,,
1558973954.559761,-0.236361,1.344738,-1.657662,-0.126278,0.491660,0.150887,-0.052486,-0.974558,-0.217906,-0.028264,0.021448,-0.268651,-3.465934,-47.336899,9.502916,,,,,,,
1558973954.579747,-0.239385,1.340196,-1.643216,-0.212144,0.645526,0.250514,-0.054193,-0.973529,-0.222044,-0.021140,0.059757,-0.307360,-3.660838,-47.348545,9.370893,,,,,,,
1558973954.599733,-0.246105,1.335405,-1.621663,-0.124635,0.739226,0.308066,-0.056820,-0.972423,-0.226196,-0.030231,0.055782,-0.314606,-4.136709,-47.366966,9.075165,,,,,,,
1558973954.619717,-0.249025,1.333860,-1.603173,0.037406,0.749798,0.171638,-0.057850,-0.972062,-0.227486,-0.013805,0.062180,-0.356041,-4.520796,-47.355465,8.951140,,,,,,,
1558973954.639702,-0.246122,1.335351,-1.591657,0.136275,0.671990,0.086628,-0.056836,-0.972411,-0.226246,-0.013095,0.094740,-0.374355,-4.721688,-47.336220,8.949220,,,,,,,
1558973954.659688,-0.239912,1.340040,-1.586112,0.348901,0.519490,-0.067335,-0.054346,-0.973494,-0.222163,-0.047628,0.129606,-0.318166,-4.930466,-47.290047,9.079778,,,,,,,
1558973954.679654,-0.222389,1.353098,-1.593939,0.774020,0.520043,-0.325360,-0.047637,-0.976397,-0.210664,-0.075623,0.051104,-0.228713,-4.902623,-47.237240,9.365253,,,,,,,
1558973954.699658,-0.191862,1.370833,-1.612260,0.762940,0.696574,-0.357844,-0.037877,-0.980074,-0.194988,-0.072948,-0.022520,-0.205707,-4.693287,-47.115978,10.057747,,,,,,,
1558973954.719643,-0.160321,1.379178,-1.627614,0.124588,0.915937,-0.103223,-0.030402,-0.981697,-0.188006,-0.078225,0.008919,-0.223539,-4.531791,-46.994179,10.682272,,,,,,,
1558973954.739621,-0.147895,1.375040,-1.617326,-0.305966,1.245332,0.243367,-0.028662,-0.980901,-0.192385,-0.087930,0.093953,-0.200544,-4.689229,-46.998325,10.595707,,,,,,,
1558973954.759614,-0.143001,1.369513,-1.595819,-0.134373,1.288758,0.198012,-0.028492,-0.979811,-0.197887,-0.081691,0.123472,-0.182683,-5.047377,-47.027184,10.298954,,,,,,,
1558973954.779600,-0.122197,1.371890,-1.593320,0.259196,1.067454,-0.093124,-0.024086,-0.980283,-0.196124,-0.028405,0.073560,-0.083494,-5.626807,-47.026371,9.997992,,,,,,,
1558973954.799558,-0.095186,1.377581,-1.601611,0.210772,0.916581,-0.076457,-0.018249,-0.981392,-0.191146,-0.015884,0.081856,-0.098893,-5.696099,-46.992443,10.117565,,,,,,,
1558973954.819569,-0.083813,1.378726,-1.593646,0.019086,0.998265,0.154783,-0.015980,-0.981611,-0.190221,-0.067821,0.131514,-0.132029,-5.786714,-46.967014,10.184003,,,,,,,
1558973954.839555,-0.079139,1.381445,-1.573570,0.265208,1.403965,0.184487,-0.014880,-0.982127,-0.187632,-0.181867,0.074793,0.062998,-6.101642,-46.944214,10.105005,,,,,,,
1558973954.859527,-0.085492,1.387087,-1.533802,0.255099,1.692993,0.460563,-0.015598,-0.983173,-0.182010,-0.061077,-0.032010,0.134876,-6.704903,-46.848091,10.168641,,,,,,,
1558973954.879497,-0.107297,1.385786,-1.481388,-0.183572,1.330605,0.443931,-0.019700,-0.982934,-0.182899,0.051896,0.019327,0.058296,-7.472485,-46.743160,10.116302,,,,,,,
1558973954.899509,-0.120585,1.379603,-1.444889,-0.244987,1.061244,0.346283,-0.022859,-0.981778,-0.188651,-0.085158,0.113278,0.016150,-8.265258,-46.715309,9.615911,,,,,,,
1558973954.919494,-0.130640,1.378597,-1.413333,0.158544,1.059025,0.280391,-0.024884,-0.981587,-0.189390,-0.107364,0.071140,0.036253,-8.645539,-46.696808,9.368205,,,,,,,
1558973954.939467,-0.140900,1.384982,-1.381237,0.410905,1.073524,0.260446,-0.025945,-0.982786,-0.182916,-0.115687,0.001188,0.057961,-8.989093,-46.638039,9.337554,,,,,,,
1558973954.959448,-0.155675,1.389849,-1.343795,0.189512,1.108606,0.323596,-0.027902,-0.983674,-0.177785,-0.199850,0.009293,0.012716,-9.678024,-46.460548,9.531720,,,,,,,
1558973954.979450,-0.171914,1.390878,-1.304056,0.116226,1.171396,0.351897,-0.030613,-0.983858,-0.176312,-0.220639,-0.008360,0.076595,-10.069008,-46.391441,9.463043,,,,,,,
1558973954.999409,-0.189617,1.395083,-1.261376,0.386919,1.248132,0.311210,-0.032949,-0.984602,-0.171678,-0.210246,-0.015963,0.116395,-10.477641,-46.320000,9.368950,,,,,,,
1558973955.019414,-0.209024,1.403743,-1.215955,0.538089,1.240959,0.286706,-0.034503,-0.986079,-0.162658,-0.133542,-0.063710,0.190154,-11.264019,-46.105083,9.515444,,,,,,,
1558973955.039406,-0.225380,1.412468,-1.177227,0.443893,1.024577,0.159645,-0.035235,-0.987492,-0.153680,-0.109281,-0.090999,0.262140,-11.613370,-45.984177,9.679117,,,,,,,
1558973955.059375,-0.230827,1.419149,-1.151444,0.341745,1.016589,0.113578,-0.034562,-0.988523,-0.147061,-0.129501,-0.082781,0.279751,-11.950689,-45.865345,9.831150,,,,,,,
1558973955.079349,-0.237368,1.424113,-1.122699,0.246238,1.139812,0.186213,-0.034368,-0.989261,-0.142059,-0.082957,-0.128948,0.396271,-12.355753,-45.746899,9.882158,,,,,,,
1558973955.099362,-0.248911,1.425973,-1.089052,0.096753,1.005314,0.195482,-0.035552,-0.989531,-0.139870,-0.004120,-0.130464,0.419289,-12.666529,-45.677383,9.809998,,,,,,,
1558973955.119328,-0.243247,1.427054,-1.078605,0.083228,0.678447,-0.020119,-0.034502,-0.989687,-0.139031,0.017550,-0.080122,0.425850,-13.002002,-45.618103,9.645570,,,,,,,
1558973955.139328,-0.228692,1.430716,-1.082914,0.231607,0.454550,-0.078729,-0.031653,-0.990205,-0.135987,0.000571,-0.083449,0.445542,-13.101661,-45.602592,9.583870,,,,,,,
1558973955.159317,-0.224131,1.436340,-1.078060,0.288008,0.481841,-0.007958,-0.029794,-0.990974,-0.130699,-0.023184,-0.075081,0.465507,-13.146523,-45.563736,9.706442,,,,,,,
1558973955.179279,-0.217706,1.441872,-1.076335,0.270598,0.330662,-0.087357,-0.027769,-0.991701,-0.125533,0.053511,-0.093047,0.509414,-13.201190,-45.526550,9.806240,,,,,,,
1558973955.199286,-0.204292,1.447985,-1.086955,0.287816,0.036634,-0.146743,-0.024853,-0.992468,-0.119956,0.058758,-0.115015,0.531622,-13.145505,-45.491814,10.039448,,,,,,,
1558973955.219246,-0.186663,1.453430,-1.106693,0.197791,-0.168019,-0.190412,-0.021731,-0.993120,-0.115064,0.024951,-0.085981,0.502057,-13.037471,-45.479801,10.232891,,,,,,,
1558973955.239246,-0.158108,1.456508,-1.140513,0.079267,-0.291105,-0.216241,-0.017956,-0.993476,-0.112617,-0.001270,-0.075738,0.497459,-12.881703,-45.486336,10.399766,,,,,,,
1558973955.259243,-0.132311,1.457810,-1.172477,0.021684,-0.301306,-0.171544,-0.014874,-0.993624,-0.111761,0.003110,-0.067823,0.475088,-12.508608,-45.542324,10.608110,,,,,,,
1558973955.279203,-0.115783,1.457941,-1.196117,-0.034094,-0.402396,-0.110633,-0.013010,-0.993639,-0.111862,0.029505,-0.017775,0.413330,-12.304813,-45.578247,10.691828,,,,,,,
1558973955.299214,-0.105247,1.456766,-1.218106,-0.089253,-0.676962,-0.132523,-0.011953,-0.993506,-0.113154,0.043997,-0.010157,0.382197,-12.209399,-45.596077,10.725142,,,,,,,
1558973955.319199,-0.090735,1.455804,-1.248988,-0.032334,-0.872889,-0.186667,-0.010396,-0.993396,-0.114266,-0.002757,-0.018735,0.352425,-11.788325,-45.672779,10.868900,,,,,,,
1558973955.339170,-0.077575,1.457262,-1.280526,0.109112,-0.915924,-0.194440,-0.008780,-0.993562,-0.112950,-0.071344,-0.004043,0.309026,-11.423565,-45.710476,11.097509,,,,,,,
1558973955.359169,-0.055475,1.460850,-1.321042,0.179427,-0.925898,-0.255335,-0.006084,-0.993962,-0.109556,-0.056996,-0.036754,0.279341,-11.228745,-45.719707,11.257183,,,,,,,
1558973955.379155,-0.035521,1.464332,-1.362491,0.158358,-1.161433,-0.209562,-0.003774,-0.994338,-0.106196,-0.025279,-0.006883,0.233226,-10.560959,-45.740444,11.805847,,,,,,,
1558973955.399139,-0.021635,1.468126,-1.401582,0.200668,-1.248347,-0.221037,-0.002217,-0.994734,-0.102466,-0.117641,0.012892,0.223926,-10.077030,-45.741478,12.217658,,,,,,,
1558973955.419124,0.000005,1.472373,-1.446777,0.208558,-1.118387,-0.228328,0.000001,-0.995160,-0.098263,-0.132416,0.016141,0.204678,-9.823110,-45.738472,12.433807,,,,,,,
1558973955.439110,0.011400,1.475690,-1.479863,0.125467,-1.075470,-0.093460,0.001083,-0.995481,-0.094957,-0.086516,-0.008059,0.159441,-9.115943,-45.722282,13.018178,,,,,,,
1558973955.459094,-0.010300,1.475552,-1.481457,-0.100905,-1.234770,0.024410,-0.000980,-0.995468,-0.095095,-0.049329,-0.019669,0.111010,-8.863195,-45.713974,13.220305,,,,,,,
1558973955.479079,-0.042835,1.471189,-1.474434,-0.243679,-1.267821,0.039994,-0.004258,-0.995043,-0.099352,-0.084990,0.006579,0.088472,-8.633768,-45.730946,13.313126,,,,,,,
1558973955.499046,-0.067842,1.469034,-1.472706,0.015601,-1.104363,-0.008413,-0.006887,-0.994827,-0.101354,-0.115718,0.090881,0.025914,-8.184836,-45.799370,13.361379,,,,,,,
1558973955.519040,-0.084385,1.474167,-1.477876,0.386062,-1.120122,-0.056311,-0.008132,-0.995335,-0.096135,-0.037217,0.039921,-0.029628,-7.862373,-45.760986,13.682678,,,,,,,
1558973955.539020,-0.102204,1.484713,-1.485424,0.564083,-1.390672,-0.107870,-0.008772,-0.996297,-0.085528,-0.020586,-0.006007,-0.065610,-7.862373,-45.760986,13.682678,,,,,,,
1558973955.559017,-0.111622,1.494730,-1.507448,0.411128,-1.638344,-0.155124,-0.008465,-0.997108,-0.075520,-0.140980,-0.022148,-0.089687,-7.201879,-45.565746,14.662759,,,,,,,
1558973955.579007,-0.110483,1.500328,-1.540555,0.186892,-1.519818,-0.142425,-0.007763,-0.997518,-0.069982,-0.221195,-0.005015,-0.101878,-6.266321,-45.425083,15.504685,,,,,,,
1558973955.598987,-0.114736,1.502631,-1.562784,0.071704,-1.223115,-0.052131,-0.007798,-0.997678,-0.067665,-0.192703,0.005276,-0.116630,-6.266321,-45.425083,15.504685,,,,,,,
1558973955.618964,-0.131613,1.503227,-1.570329,-0.002913,-1.249132,-0.040696,-0.008861,-0.997718,-0.066934,-0.089345,-0.009316,-0.106222,-5.516692,-45.388641,15.891447,,,,,,,
1558973955.638961,-0.123226,1.502618,-1.605695,-0.068150,-1.395892,-0.160661,-0.008374,-0.997677,-0.067609,-0.105930,-0.006367,-0.102771,-4.816686,-45.403591,16.075251,,,,,,,
1558973955.658946,-0.095625,1.500818,-1.661056,-0.136084,-1.340581,-0.167660,-0.006676,-0.997553,-0.069602,-0.114647,0.026056,-0.116997,-4.513863,-45.423878,16.105793,,,,,,,
1558973955.678932,-0.086755,1.497680,-1.693883,-0.182302,-1.102349,-0.058652,-0.006330,-0.997328,-0.072776,-0.102649,0.036330,-0.162545,-3.683995,-45.509949,16.073996,,,,,,,
1558973955.698917,-0.104822,1.493689,-1.695974,-0.213002,-0.999491,0.053343,-0.008060,-0.997029,-0.076609,-0.030102,0.025654,-0.180197,-3.582190,-45.525642,16.052544,,,,,,,
1558973955.718902,-0.132863,1.489130,-1.689792,-0.226253,-1.158017,0.024056,-0.010806,-0.996667,-0.080856,-0.008908,0.028314,-0.162857,-3.132904,-45.621655,15.872940,,,,,,,
1558973955.738888,-0.135858,1.485343,-1.711023,-0.174072,-1.215579,-0.116315,-0.011560,-0.996351,-0.084563,-0.066306,0.042890,-0.195009,-2.654248,-45.707497,15.712423,,,,,,,
1558973955.758864,-0.119312,1.483470,-1.750547,-0.082018,-1.080830,-0.159793,-0.010381,-0.996190,-0.086595,-0.077693,0.042592,-0.198852,-2.532336,-45.722656,15.688419,,,,,,,
1558973955.778858,-0.110505,1.482709,-1.777897,-0.040868,-0.830412,-0.077289,-0.009702,-0.996123,-0.087436,-0.063998,0.046355,-0.190762,-1.813281,-45.777729,15.627280,,,,,,,
1558973955.798842,-0.114902,1.481736,-1.789299,-0.076993,-0.798474,-0.052457,-0.010197,-0.996037,-0.088356,-0.032421,0.046009,-0.168846,-1.637763,-45.786022,15.622357,,,,,,,
1558973955.818814,-0.100106,1.478808,-1.822372,-0.222134,-0.968076,-0.176976,-0.009180,-0.995772,-0.091399,0.025385,0.032561,-0.169694,-1.062814,-45.839401,15.515159,,,,,,,
1558973955.838801,-0.082568,1.473067,-1.858680,-0.336827,-0.847909,-0.094777,-0.008047,-0.995228,-0.097242,0.004004,0.035664,-0.157275,-0.829969,-45.878387,15.413809,,,,,,,
1558973955.858780,-0.093191,1.465766,-1.862095,-0.373630,-0.638194,0.062010,-0.009756,-0.994489,-0.104382,-0.015253,0.061842,-0.156024,-0.364827,-46.034088,14.960943,,,,,,,
1558973955.878779,-0.109869,1.458667,-1.857444,-0.321362,-0.614186,0.043064,-0.012269,-0.993720,-0.111220,0.015214,0.062064,-0.157930,-0.245283,-46.141304,14.629437,,,,,,,
1558973955.898768,-0.118976,1.453837,-1.861169,-0.197895,-0.643457,-0.012635,-0.013851,-0.993168,-0.115868,0.019039,0.047062,-0.141074,-0.171086,-46.185738,14.489624,,,,,,,
1558973955.918737,-0.116798,1.441603,-1.875702,-0.170150,-0.598101,0.019840,-0.015013,-0.991666,-0.127956,0.004866,0.027936,-0.130497,0.109559,-46.271172,14.215032,,,,,,,
1558973955.938739,-0.129528,1.437956,-1.873361,-0.178232,-0.460629,0.031826,-0.017108,-0.991190,-0.131340,-0.036572,0.007654,-0.115638,0.239587,-46.445251,13.633842,,,,,,,
1558973955.958724,-0.136984,1.434214,-1.873063,-0.197945,-0.303026,0.035454,-0.018593,-0.990687,-0.134883,-0.029365,-0.009298,-0.102177,0.286316,-46.469521,13.549992,,,,,,,
1558973955.978710,-0.138381,1.421188,-1.876769,-0.284141,-0.253843,0.106310,-0.020560,-0.988830,-0.147625,0.004035,0.007125,-0.110309,0.343177,-46.555485,13.250249,,,,,,,
1558973955.998695,-0.153948,1.414662,-1.865848,-0.313903,-0.226158,0.137513,-0.023845,-0.987836,-0.153662,-0.014623,0.011945,-0.109933,0.299901,-46.737823,12.593131,,,,,,,
1558973956.018680,-0.165539,1.408968,-1.857825,-0.232692,-0.155843,0.084869,-0.026550,-0.986934,-0.158920,-0.018249,0.003566,-0.099655,0.265058,-46.776928,12.447855,,,,,,,
1558973956.038652,-0.176553,1.398800,-1.849346,-0.132430,-0.108876,0.037354,-0.030060,-0.985245,-0.168489,-0.028427,0.006913,-0.089416,0.209391,-46.858845,12.136940,,,,,,,
1558973956.058650,-0.178070,1.396831,-1.849076,-0.084259,-0.038347,0.012444,-0.030659,-0.984906,-0.170352,-0.019649,-0.006396,-0.070462,0.109022,-46.961433,11.735073,,,,,,,
1558973956.078620,-0.179450,1.394823,-1.848005,-0.105491,-0.003296,0.051198,-0.031247,-0.984557,-0.172256,0.013242,-0.006944,-0.047456,0.104818,-46.976982,11.672736,,,,,,,
1558973956.098609,-0.178633,1.390547,-1.848388,-0.075735,0.007194,0.101495,-0.031854,-0.983799,-0.176423,0.006494,-0.017651,-0.022842,0.073286,-47.033436,11.443394,,,,,,,
1558973956.118606,-0.184354,1.389190,-1.842407,-0.050095,0.004847,0.035299,-0.033108,-0.983555,-0.177549,-0.004459,-0.016567,-0.022493,-0.005561,-47.047962,11.383737,,,,,,,
1558973956.138569,-0.183188,1.388304,-1.843394,-0.045698,0.025894,-0.011473,-0.033060,-0.983394,-0.178445,-0.027319,-0.011067,-0.019919,-0.018355,-47.056004,11.350424,,,,,,,
1558973956.158576,-0.191517,1.386102,-1.833476,-0.064561,0.129616,0.014067,-0.034957,-0.982992,-0.180289,-0.013963,-0.017237,0.008613,-0.124230,-47.077904,11.258606,,,,,,,
1558973956.178491,-0.190532,1.384574,-1.831411,-0.074110,0.151905,0.042032,-0.035064,-0.982711,-0.181798,0.007048,-0.015794,0.016087,-0.164424,-47.089317,11.210256,,,,,,,
1558973956.198466,-0.179681,1.385580,-1.839799,-0.078613,0.071588,0.035915,-0.032912,-0.982896,-0.181194,0.038863,-0.020140,0.032604,-0.236323,-47.105583,11.140406,,,,,,,
1558973956.218462,-0.179007,1.383958,-1.840448,-0.078871,-0.027838,-0.009878,-0.033074,-0.982596,-0.182785,0.009240,-0.015130,0.038925,-0.160967,-47.103474,11.150675,,,,,,,
1558973956.238429,-0.176107,1.382212,-1.843471,-0.109584,0.024131,-0.000864,-0.032844,-0.982271,-0.184570,-0.007393,-0.002227,0.030853,-0.157095,-47.107872,11.132133,,,,,,,
1558973956.258432,-0.179091,1.380752,-1.839102,-0.161570,0.097409,0.047842,-0.033650,-0.981996,-0.185881,0.001591,0.002672,0.034666,-0.179064,-47.124634,11.060646,,,,,,,
1558973956.278418,-0.180407,1.377534,-1.835251,-0.137064,0.116345,0.073667,-0.034462,-0.981383,-0.188945,0.028541,0.023100,0.023692,-0.273785,-47.167583,10.874043,,,,,,,
1558973956.298388,-0.170908,1.377075,-1.844101,-0.048081,-0.042756,0.017757,-0.032742,-0.981295,-0.189707,0.032849,0.037645,0.024531,-0.297459,-47.174915,10.841572,,,,,,,
1558973956.318388,-0.171323,1.377784,-1.845634,0.076344,-0.101619,-0.031818,-0.032702,-0.981431,-0.189008,-0.013303,0.021455,0.022138,-0.216622,-47.183258,10.807097,,,,,,,
1558973956.338373,-0.178538,1.380824,-1.839781,0.069068,-0.033882,0.002993,-0.033535,-0.982010,-0.185830,-0.013951,0.008346,0.024316,-0.190844,-47.176506,10.837025,,,,,,,
1558973956.358356,-0.181307,1.380481,-1.836738,-0.060656,0.031348,0.050490,-0.034110,-0.981945,-0.186067,-0.005166,0.006710,0.022539,-0.219961,-47.140774,10.990875,,,,,,,
1558973956.378344,-0.184383,1.378579,-1.832905,-0.080864,0.031437,0.038730,-0.035025,-0.981583,-0.187798,-0.005396,0.012802,0.024819,-0.219961,-47.140774,10.990875,,,,,,,
1558973956.398330,-0.184221,1.381150,-1.832850,0.020222,-0.000859,0.002202,-0.034532,-0.982071,-0.185322,0.008668,0.004273,0.030384,-0.293394,-47.154156,10.931582,,,,,,,
1558973956.418293,-0.184241,1.383195,-1.833241,0.054260,-0.025401,-0.032170,-0.034167,-0.982454,-0.183346,-0.007611,0.012819,0.014355,-0.255287,-47.116199,11.095017,,,,,,,
1558973956.438299,-0.184320,1.384745,-1.833861,0.045706,-0.036982,-0.031218,-0.033903,-0.982742,-0.181847,-0.004824,0.013946,0.012428,-0.237073,-47.110371,11.120120,,,,,,,
