timestamp(unix),attitude_roll(radians),attitude_pitch(radians),attitude_yaw(radians),rotation_rate_x(radians/s),rotation_rate_y(radians/s),rotation_rate_z(radians/s),gravity_x(G),gravity_y(G),gravity_z(G),user_acc_x(G),user_acc_y(G),user_acc_z(G),magnetic_field_x(microteslas),magnetic_field_y(microteslas),magnetic_field_z(microteslas),latitude(degree),longitude(degree),altitude(meter),speed(m/s),course(degree),timestamp(unix),User Mark
1558975033.186608,-0.988586,1.361296,-0.886835,0.016915,0.040939,0.105818,-0.173708,-0.978135,-0.114357,0.003511,0.016297,0.013344,-13.279568,-38.296856,11.863113,,,,,,,
1558975033.206614,-1.004773,1.361753,-0.871054,0.077266,-0.067223,0.087749,-0.175159,-0.978230,-0.111291,0.002002,0.017567,0.025125,-13.379676,-38.235817,11.947227,,,,,,,
1558975033.226591,-1.023172,1.361803,-0.854949,0.107906,-0.148811,0.063506,-0.177135,-0.978240,-0.108024,-0.001164,0.022796,0.011940,-13.411322,-38.193218,12.047585,,,,,,,
1558975033.246554,-1.037639,1.361754,-0.842886,0.102658,-0.118105,0.080877,-0.178721,-0.978230,-0.105475,0.006617,0.012059,-0.001825,-13.434739,-38.134888,12.205240,,,,,,,
1558975033.266567,-1.051649,1.360683,-0.829896,0.101840,-0.020782,0.129852,-0.181090,-0.978007,-0.103480,0.001372,0.015651,-0.001912,-13.489756,-38.075974,12.327865,,,,,,,
1558975033.286557,-1.068997,1.358824,-0.811610,0.136174,0.055118,0.114594,-0.184452,-0.977618,-0.101198,-0.030621,0.008090,0.009187,-13.597592,-38.015060,12.397182,,,,,,,
1558975033.306544,-1.092441,1.357409,-0.785770,0.223589,0.103311,0.135413,-0.188001,-0.977319,-0.097483,-0.040499,0.026727,0.019098,-13.682901,-37.966305,12.452616,,,,,,,
1558975033.326509,-1.120602,1.356884,-0.755533,0.288288,0.052300,0.179818,-0.191133,-0.977208,-0.092374,-0.003905,0.013097,0.027448,-13.929136,-37.794205,12.700660,,,,,,,
1558975033.346525,-1.154352,1.356027,-0.720422,0.328635,0.014012,0.164538,-0.194907,-0.977026,-0.086210,-0.009439,0.039312,0.006163,-14.071469,-37.667118,12.919432,,,,,,,
1558975033.366499,-1.183749,1.354810,-0.689504,0.217087,0.090732,0.184400,-0.198458,-0.976765,-0.080893,0.013629,-0.007579,-0.014306,-14.156004,-37.591457,13.046822,,,,,,,
1558975033.386499,-1.193031,1.351280,-0.674832,0.003842,0.337172,0.246377,-0.202404,-0.976003,-0.080319,-0.017887,-0.058574,-0.040699,-14.435936,-37.432404,13.196530,,,,,,,
1558975033.406491,-1.190529,1.347445,-0.671151,0.004679,0.249376,0.206031,-0.205677,-0.975161,-0.082214,0.039997,0.017794,-0.003953,-14.709620,-37.365288,13.084027,,,,,,,
1558975033.426455,-1.200869,1.343827,-0.657799,0.104112,0.082983,0.260036,-0.209804,-0.974353,-0.081358,0.016627,0.032062,0.012815,-14.776692,-37.350231,13.051414,,,,,,,
1558975033.446470,-1.221514,1.340048,-0.636298,0.200625,-0.025341,0.259076,-0.214896,-0.973496,-0.078269,-0.001962,0.030747,0.031699,-15.082843,-37.192921,13.150060,,,,,,,
1558975033.466442,-1.245076,1.336878,-0.612151,0.217760,-0.012809,0.217572,-0.219604,-0.972766,-0.074171,-0.008851,-0.002637,-0.006975,-15.268303,-37.062065,13.304578,,,,,,,
1558975033.486446,-1.259647,1.334198,-0.596716,0.073325,0.066093,0.166965,-0.223142,-0.972141,-0.071761,-0.006396,0.018162,-0.003434,-15.344977,-37.001888,13.383626,,,,,,,
1558975033.506437,-1.269266,1.330838,-0.585397,0.081761,0.061886,0.210705,-0.226939,-0.971348,-0.070581,0.000087,-0.012173,0.008982,-15.572883,-36.878983,13.459406,,,,,,,
1558975033.526409,-1.286091,1.327638,-0.568926,0.146245,-0.106622,0.141884,-0.231077,-0.970582,-0.067626,-0.020220,0.019960,0.018279,-15.740426,-36.773705,13.552240,,,,,,,
1558975033.546413,-1.304428,1.326968,-0.553232,0.169685,-0.137521,0.059398,-0.232906,-0.970421,-0.063549,-0.019505,0.027489,0.012905,-15.770664,-36.731888,13.630275,,,,,,,
1558975033.566404,-1.325023,1.326039,-0.536603,0.199117,-0.230626,0.104439,-0.235039,-0.970196,-0.058958,0.028023,0.085125,-0.022722,-15.783633,-36.620079,13.913170,,,,,,,
1558975033.586391,-1.339756,1.323759,-0.525247,0.158806,-0.188137,0.101612,-0.238035,-0.969641,-0.055995,-0.006243,0.031149,-0.042134,-15.834036,-36.541683,14.061229,,,,,,,
1558975033.606381,-1.353117,1.323398,-0.513606,0.128476,-0.067621,0.005585,-0.239103,-0.969553,-0.052886,-0.007113,0.015848,-0.007066,-15.843532,-36.506012,14.142949,,,,,,,
1558975033.626371,-1.362055,1.324092,-0.503625,0.103466,0.086804,-0.014310,-0.238909,-0.969722,-0.050607,-0.014219,-0.007481,0.018320,-15.847001,-36.441311,14.304998,,,,,,,
1558975033.646359,-1.366495,1.325151,-0.497518,0.086440,0.070981,-0.052910,-0.238125,-0.969981,-0.049338,-0.019260,-0.003088,-0.015375,-15.849752,-36.424652,14.344329,,,,,,,
1558975033.666347,-1.370975,1.326661,-0.491340,0.085457,0.091053,-0.063396,-0.236908,-0.970347,-0.047979,-0.011048,0.001704,-0.022593,-15.840092,-36.420578,14.365329,,,,,,,
1558975033.686324,-1.370037,1.328141,-0.490013,0.041799,0.095539,-0.045239,-0.235455,-0.970703,-0.047915,0.000805,0.003861,-0.012189,-15.806904,-36.428478,14.381833,,,,,,,
1558975033.706325,-1.371453,1.329457,-0.488041,0.035051,-0.020718,-0.059169,-0.234271,-0.971019,-0.047329,0.004260,0.012477,-0.011143,-15.781439,-36.435352,14.392389,,,,,,,
1558975033.726285,-1.372354,1.330317,-0.487987,-0.008705,-0.045829,-0.040227,-0.233494,-0.971224,-0.046953,-0.000972,0.007113,-0.000609,-15.746832,-36.441769,14.414039,,,,,,,
1558975033.746297,-1.370551,1.330691,-0.491134,-0.055586,-0.056144,-0.033956,-0.233053,-0.971313,-0.047302,-0.007624,0.001464,0.002655,-15.714407,-36.452988,14.421053,,,,,,,
1558975033.766273,-1.364032,1.331057,-0.498605,-0.087462,-0.036945,-0.030596,-0.232392,-0.971400,-0.048747,0.003556,0.003153,-0.003255,-15.664696,-36.488087,14.386331,,,,,,,
1558975033.786257,-1.357568,1.331060,-0.505792,-0.078926,-0.025345,-0.018734,-0.232069,-0.971400,-0.050248,0.000151,0.006130,0.002488,-15.664696,-36.488087,14.386331,,,,,,,
1558975033.806264,-1.354799,1.331957,-0.510285,-0.032329,-0.107008,-0.037629,-0.231078,-0.971613,-0.050703,0.005004,0.014475,0.008146,-15.620930,-36.540192,14.301424,,,,,,,
1558975033.826244,-1.356643,1.332304,-0.510665,-0.059901,-0.082575,-0.052363,-0.230842,-0.971695,-0.050205,-0.008798,0.012039,0.010441,-15.526644,-36.568134,14.332645,,,,,,,
1558975033.846224,-1.349459,1.332925,-0.518786,-0.103244,-0.000990,-0.074036,-0.229885,-0.971842,-0.051730,-0.009968,0.011362,0.003924,-15.526644,-36.568134,14.332645,,,,,,,
1558975033.866232,-1.339152,1.333192,-0.529042,-0.072355,0.007310,-0.069660,-0.229088,-0.971905,-0.054037,-0.002998,0.008709,-0.003977,-15.478329,-36.614929,14.265265,,,,,,,
1558975033.886226,-1.333412,1.333815,-0.534757,-0.040452,0.013535,-0.035410,-0.228185,-0.972051,-0.055208,0.003850,0.014913,-0.001600,-15.426948,-36.674999,14.166264,,,,,,,
1558975033.906214,-1.330330,1.333968,-0.537548,-0.013884,0.015559,-0.002272,-0.227870,-0.972087,-0.055876,0.005488,0.016826,-0.001283,-15.426948,-36.674999,14.166264,,,,,,,
1558975033.926206,-1.330518,1.334281,-0.537413,0.015809,-0.018420,-0.001507,-0.227584,-0.972161,-0.055761,0.005340,0.011681,0.002523,-15.408005,-36.698868,14.125023,,,,,,,
1558975033.946194,-1.332352,1.334379,-0.535776,0.014812,0.002727,-0.000238,-0.227595,-0.972183,-0.055321,0.003428,0.017548,0.003777,-15.399371,-36.695229,14.143877,,,,,,,
1558975033.966182,-1.331985,1.334343,-0.535362,0.008589,0.056681,0.008814,-0.227608,-0.972175,-0.055413,0.006279,0.019035,-0.001594,-15.401231,-36.691944,14.150370,,,,,,,
1558975033.986173,-1.332975,1.333859,-0.533408,0.041531,0.036413,0.001174,-0.228120,-0.972061,-0.055298,-0.008437,0.017334,0.000199,-15.431285,-36.685303,14.134838,,,,,,,
1558975034.006146,-1.336424,1.333700,-0.529118,0.044762,0.044842,-0.005147,-0.228459,-0.972024,-0.054547,-0.012401,0.012689,0.000760,-15.469296,-36.660397,14.157888,,,,,,,
1558975034.026125,-1.340288,1.333931,-0.524728,0.075471,0.000300,0.004060,-0.228450,-0.972078,-0.053612,-0.000005,0.013552,-0.006416,-15.472826,-36.654728,14.168704,,,,,,,
1558975034.046140,-1.348189,1.334022,-0.517098,0.084960,-0.035716,-0.014426,-0.228780,-0.972100,-0.051786,-0.004771,0.012810,0.002241,-15.479948,-36.621563,14.246482,,,,,,,
1558975034.066112,-1.355316,1.334541,-0.510631,0.077517,-0.035686,-0.019769,-0.228651,-0.972221,-0.050047,-0.005694,0.018867,0.001097,-15.469981,-36.596481,14.321547,,,,,,,
1558975034.086115,-1.361110,1.334908,-0.504478,0.084080,0.031974,0.010777,-0.228588,-0.972307,-0.048647,0.006389,0.019869,-0.003264,-15.460096,-36.587994,14.353872,,,,,,,
1558975034.106105,-1.366820,1.335365,-0.497929,0.089344,0.021399,0.025626,-0.228427,-0.972414,-0.047251,0.013201,0.016573,-0.001883,-15.471768,-36.554722,14.425890,,,,,,,
1558975034.126094,-1.372319,1.335039,-0.492162,0.048840,0.001517,0.017930,-0.228993,-0.972338,-0.046056,-0.005656,-0.003813,-0.005244,-15.488789,-36.528812,14.473169,,,,,,,
1558975034.146069,-1.373015,1.334722,-0.491404,-0.003300,0.004952,0.011515,-0.229328,-0.972264,-0.045958,-0.007626,-0.010097,-0.007952,-15.494226,-36.520473,14.488392,,,,,,,
1558975034.166059,-1.369163,1.334398,-0.494889,-0.033039,0.025172,0.017034,-0.229458,-0.972188,-0.046904,0.011654,0.013661,-0.007494,-15.520214,-36.519165,14.463861,,,,,,,
1558975034.186061,-1.364705,1.334010,-0.499127,-0.046970,0.002006,0.027477,-0.229616,-0.972097,-0.048003,0.014696,0.013433,-0.007844,-15.524050,-36.538136,14.411724,,,,,,,
1558975034.206042,-1.360319,1.333174,-0.503146,-0.054298,0.040100,0.028903,-0.230197,-0.971900,-0.049180,0.011615,0.010932,-0.000457,-15.534877,-36.540932,14.392963,,,,,,,
1558975034.226033,-1.355316,1.332472,-0.507020,-0.041381,0.071702,0.002526,-0.230615,-0.971735,-0.050477,-0.010474,0.000666,0.004822,-15.589039,-36.549953,14.311270,,,,,,,
1558975034.246028,-1.352344,1.332197,-0.508521,-0.032801,0.089621,-0.000498,-0.230725,-0.971670,-0.051220,-0.008274,-0.001383,0.011913,-15.616943,-36.553131,14.272676,,,,,,,
1558975034.265989,-1.351033,1.332137,-0.508489,0.007501,0.041835,-0.006262,-0.230714,-0.971656,-0.051535,-0.002928,-0.000176,0.004935,-15.636477,-36.557724,14.239493,,,,,,,
1558975034.286000,-1.354026,1.332511,-0.505311,0.019085,-0.006883,-0.029139,-0.230513,-0.971744,-0.050766,-0.000184,0.000110,0.006027,-15.644979,-36.554405,14.238665,,,,,,,
1558975034.305995,-1.353455,1.333159,-0.505663,0.000022,0.023874,-0.026725,-0.229869,-0.971897,-0.050762,0.005306,0.010273,-0.001637,-15.624088,-36.551216,14.269764,,,,,,,
1558975034.325960,-1.352712,1.333746,-0.505690,0.008603,0.043912,-0.026526,-0.229275,-0.972035,-0.050809,0.006267,0.014531,0.002027,-15.624088,-36.551216,14.269764,,,,,,,
1558975034.345967,-1.353543,1.334680,-0.503988,0.009702,0.049175,-0.037152,-0.228430,-0.972254,-0.050423,-0.003351,0.015512,0.009240,-15.599360,-36.565510,14.260205,,,,,,,
1558975034.365961,-1.359350,1.335804,-0.497015,0.035279,0.068102,-0.012396,-0.227650,-0.972516,-0.048866,0.021916,0.035626,0.044548,-15.589522,-36.565048,14.272122,,,,,,,
1558975034.385927,-1.358165,1.336139,-0.498798,0.046344,-0.104174,0.037209,-0.227273,-0.972594,-0.049067,0.004892,-0.002855,-0.014013,-15.558019,-36.568161,14.298512,,,,,,,
1558975034.405941,-1.360556,1.334659,-0.498009,-0.001460,-0.076449,0.031032,-0.228797,-0.972249,-0.048824,-0.010933,0.011861,-0.008030,-15.570083,-36.547443,14.338299,,,,,,,
1558975034.425929,-1.356092,1.333401,-0.502697,-0.040494,0.032633,0.034182,-0.229772,-0.971954,-0.050105,-0.005656,0.009979,-0.017323,-15.601260,-36.543060,14.315561,,,,,,,
1558975034.445916,-1.353821,1.332784,-0.503768,-0.009590,0.050464,0.050391,-0.230244,-0.971808,-0.050756,0.021702,0.025901,0.011846,-15.643297,-36.546772,14.260096,,,,,,,
1558975034.465908,-1.357950,1.332013,-0.499136,0.031781,0.006911,0.052142,-0.231183,-0.971626,-0.049963,-0.009036,0.006920,0.010519,-15.668349,-36.538685,14.253305,,,,,,,
1558975034.485897,-1.363784,1.330700,-0.493952,0.043303,-0.056593,0.037666,-0.232719,-0.971315,-0.048876,-0.008629,0.011598,0.005617,-15.729973,-36.489517,14.311272,,,,,,,
1558975034.505884,-1.369464,1.329903,-0.489080,0.039166,-0.015333,0.047667,-0.233751,-0.971125,-0.047708,0.000628,0.017161,0.002984,-15.750993,-36.462406,14.357187,,,,,,,
1558975034.525874,-1.370717,1.329103,-0.487079,0.033990,0.037571,0.065250,-0.234572,-0.970934,-0.047569,0.010833,0.009432,-0.003853,-15.799254,-36.432343,14.380466,,,,,,,
1558975034.545844,-1.378637,1.327945,-0.479128,0.068915,-0.024978,0.064680,-0.236046,-0.970656,-0.045925,-0.007347,0.004927,0.017361,-15.843852,-36.400284,14.412536,,,,,,,
1558975034.565850,-1.389043,1.327361,-0.469725,0.107104,-0.083373,0.025717,-0.237068,-0.970516,-0.043569,-0.004219,0.003703,0.002584,-15.874356,-36.357033,14.487934,,,,,,,
1558975034.585842,-1.405350,1.327258,-0.455505,0.187767,-0.160976,0.014363,-0.237845,-0.970491,-0.039713,-0.006174,-0.004653,0.001490,-15.875270,-36.323895,14.569839,,,,,,,
1558975034.605815,-1.428084,1.327524,-0.434968,0.181615,-0.075278,0.047208,-0.238432,-0.970555,-0.034260,-0.000872,-0.021877,0.012486,-15.843396,-36.214207,14.874399,,,,,,,
1558975034.625817,-1.427852,1.327285,-0.436973,0.011317,-0.087129,0.004251,-0.238653,-0.970497,-0.034348,0.008367,0.028755,-0.026229,-15.832592,-36.194405,14.933976,,,,,,,
1558975034.645809,-1.425329,1.327040,-0.439780,-0.006494,0.006001,0.016872,-0.238800,-0.970438,-0.034985,0.004974,0.025736,-0.014393,-15.818445,-36.198425,14.939232,,,,,,,
1558975034.665782,-1.420382,1.326255,-0.445718,-0.068354,-0.041277,-0.008185,-0.239378,-0.970248,-0.036280,0.031202,0.050510,-0.003973,-15.852238,-36.204033,14.889742,,,,,,,
1558975034.685784,-1.416901,1.325571,-0.450890,-0.094213,-0.098096,0.074527,-0.239905,-0.970083,-0.037215,0.020133,-0.001521,-0.025835,-15.821243,-36.230640,14.857946,,,,,,,
1558975034.705776,-1.405139,1.323940,-0.462561,-0.167053,0.080900,0.060167,-0.241012,-0.969685,-0.040295,0.001983,-0.016475,-0.015934,-15.836679,-36.237064,14.825807,,,,,,,
1558975034.725760,-1.391191,1.322603,-0.474638,-0.146629,0.120892,0.015725,-0.241701,-0.969358,-0.043884,0.005846,0.030652,0.002822,-15.926928,-36.284138,14.612461,,,,,,,
1558975034.745751,-1.380678,1.321749,-0.483024,-0.074311,0.104670,0.024169,-0.242039,-0.969148,-0.046579,0.003850,0.025972,-0.000205,-15.949697,-36.302319,14.542305,,,,,,,
1558975034.765743,-1.378409,1.321506,-0.484412,0.003109,0.003802,-0.005561,-0.242165,-0.969088,-0.047173,-0.003288,0.026842,0.018288,-16.010334,-36.320473,14.429906,,,,,,,
1558975034.785717,-1.376495,1.322181,-0.485311,-0.040103,0.114950,-0.049373,-0.241432,-0.969254,-0.047510,-0.020668,0.022614,0.071878,-15.999711,-36.326405,14.426756,,,,,,,
1558975034.805718,-1.373494,1.323147,-0.489040,0.009276,-0.089333,-0.063033,-0.240370,-0.969491,-0.048051,0.008742,-0.000495,-0.037216,-15.983717,-36.350712,14.383195,,,,,,,
1558975034.825710,-1.371171,1.324259,-0.492103,-0.056369,0.005043,-0.092076,-0.239201,-0.969763,-0.048395,-0.008724,0.007147,-0.004324,-15.949266,-36.361450,14.394278,,,,,,,
1558975034.845697,-1.358838,1.325962,-0.503412,-0.147553,0.104847,-0.114682,-0.236971,-0.970178,-0.050994,-0.017378,0.001824,0.011474,-15.846675,-36.437935,14.313974,,,,,,,
1558975034.865685,-1.336826,1.327316,-0.522080,-0.264096,0.269287,-0.120675,-0.234513,-0.970505,-0.055893,-0.014770,-0.025894,0.023346,-15.812837,-36.499985,14.192787,,,,,,,
1558975034.885676,-1.303316,1.327207,-0.551426,-0.446372,0.223836,-0.052925,-0.232611,-0.970478,-0.063746,0.002982,0.016346,0.042842,-15.803877,-36.552353,14.067430,,,,,,,
1558975034.905651,-1.261038,1.325383,-0.591870,-0.521212,0.123810,-0.055010,-0.231394,-0.970037,-0.074060,0.013804,0.012945,0.055857,-15.819429,-36.746975,13.532739,,,,,,,
1558975034.925633,-1.218585,1.323374,-0.632829,-0.486033,0.128876,-0.078422,-0.229871,-0.969547,-0.084486,-0.004916,0.014942,0.059523,-15.814739,-36.863586,13.217403,,,,,,,
1558975034.945637,-1.184536,1.321693,-0.666309,-0.402210,0.052351,-0.064140,-0.228372,-0.969134,-0.092877,0.004693,0.017321,0.010159,-15.779461,-37.075512,12.654837,,,,,,,
1558975034.965631,-1.160661,1.320111,-0.690657,-0.251249,0.004028,-0.039926,-0.227495,-0.968743,-0.098913,0.001223,0.019219,-0.009684,-15.748983,-37.177864,12.389750,,,,,,,
1558975034.985612,-1.146582,1.319101,-0.705111,-0.082161,-0.020032,0.015496,-0.226972,-0.968492,-0.102509,0.011701,0.016541,-0.019134,-15.735294,-37.212303,12.303433,,,,,,,
1558975035.005597,-1.151159,1.317833,-0.702245,0.046136,-0.135797,0.098835,-0.228560,-0.968175,-0.101969,0.014723,0.022710,-0.023870,-15.744870,-37.236374,12.218067,,,,,,,
1558975035.025598,-1.161426,1.316241,-0.694502,0.105697,-0.148789,0.101961,-0.231009,-0.967775,-0.100231,-0.003901,0.013124,-0.020527,-15.794469,-37.190998,12.292028,,,,,,,
1558975035.045570,-1.174180,1.315789,-0.684161,0.106937,-0.118217,0.052076,-0.232671,-0.967661,-0.097445,-0.008433,0.009516,-0.014478,-15.811638,-37.162418,12.356224,,,,,,,
1558975035.065572,-1.179994,1.316050,-0.679897,0.001860,-0.055400,-0.014669,-0.233000,-0.967727,-0.095994,-0.008821,0.007125,-0.000853,-15.815103,-37.108826,12.511888,,,,,,,
1558975035.085565,-1.172603,1.315800,-0.686976,-0.133989,0.067927,-0.014665,-0.232507,-0.967664,-0.097808,0.020547,0.001066,-0.014192,-15.797247,-37.129326,12.473556,,,,,,,
1558975035.105532,-1.160790,1.314453,-0.697471,-0.139329,0.078577,0.020665,-0.232531,-0.967324,-0.101067,0.029757,0.002754,-0.017860,-15.803174,-37.148354,12.409229,,,,,,,
1558975035.125539,-1.146598,1.313243,-0.711200,-0.040670,-0.021296,0.021920,-0.232139,-0.967016,-0.104838,0.005027,0.002508,-0.026677,-15.826149,-37.207512,12.200969,,,,,,,
1558975035.145531,-1.145462,1.313214,-0.713473,0.053919,-0.082096,-0.013819,-0.232046,-0.967009,-0.105114,0.005758,-0.000658,-0.029072,-15.817635,-37.218903,12.177239,,,,,,,
1558975035.165499,-1.143880,1.314187,-0.715872,0.019031,-0.021707,-0.044232,-0.231023,-0.967256,-0.105091,0.010625,0.003160,-0.008801,-15.784372,-37.240562,12.154165,,,,,,,
1558975035.185510,-1.135614,1.315583,-0.724019,-0.089365,0.025325,-0.054537,-0.228922,-0.967609,-0.106428,0.016001,-0.001858,-0.000597,-15.707251,-37.282799,12.124557,,,,,,,
1558975035.205498,-1.121884,1.315603,-0.737175,-0.120248,0.039285,-0.017062,-0.227422,-0.967614,-0.109552,0.010488,0.010934,-0.012869,-15.646223,-37.341908,12.021114,,,,,,,
1558975035.225486,-1.110416,1.314628,-0.748019,-0.018123,0.025021,-0.008577,-0.226995,-0.967368,-0.112572,0.000586,0.010642,-0.027885,-15.632481,-37.384945,11.904665,,,,,,,
1558975035.245478,-1.105344,1.315175,-0.752890,0.072143,-0.039933,-0.011264,-0.225948,-0.967506,-0.113484,0.028072,0.021980,-0.025477,-15.628822,-37.409248,11.832897,,,,,,,
1558975035.265442,-1.110715,1.316255,-0.748848,0.082622,-0.087546,-0.006375,-0.225618,-0.967779,-0.111805,0.019548,0.023626,-0.008327,-15.592086,-37.416702,11.857784,,,,,,,
1558975035.285453,-1.115266,1.316985,-0.745238,0.051903,-0.034511,0.009054,-0.225491,-0.967962,-0.110466,0.014645,0.019598,-0.005577,-15.560296,-37.412926,11.911341,,,,,,,
1558975035.305445,-1.118600,1.316746,-0.741507,0.005287,0.045050,0.036470,-0.226065,-0.967902,-0.109815,-0.003442,0.013557,0.005308,-15.554554,-37.396431,11.970476,,,,,,,
1558975035.325402,-1.120497,1.315800,-0.738438,0.013796,0.048193,0.048252,-0.227098,-0.967664,-0.109785,-0.005996,0.016981,0.007749,-15.593203,-37.382370,11.964123,,,,,,,
1558975035.345421,-1.123283,1.315391,-0.735569,0.022130,-0.018480,0.023065,-0.227760,-0.967561,-0.109323,-0.011727,0.015199,0.018701,-15.637683,-37.362389,11.968489,,,,,,,
1558975035.365412,-1.128924,1.314807,-0.730340,-0.005530,-0.008805,0.034881,-0.228883,-0.967413,-0.108278,-0.011168,0.005102,0.027040,-15.681227,-37.324692,12.028975,,,,,,,
1558975035.385376,-1.128647,1.313762,-0.730916,-0.046040,-0.025500,0.037892,-0.229767,-0.967148,-0.108774,-0.009231,0.013672,0.033197,-15.703863,-37.317173,12.022753,,,,,,,
1558975035.405387,-1.124264,1.312782,-0.735716,-0.090632,-0.002051,0.011389,-0.230142,-0.966899,-0.110189,-0.013083,0.013468,0.039236,-15.720389,-37.316845,12.002155,,,,,,,
1558975035.425378,-1.120086,1.311786,-0.740012,-0.093803,0.011730,0.027533,-0.230547,-0.966644,-0.111569,0.006884,0.009292,0.011715,-15.729960,-37.325760,11.961836,,,,,,,
1558975035.445354,-1.113317,1.310656,-0.746874,-0.036528,-0.021242,0.091319,-0.230766,-0.966354,-0.113609,0.017540,0.007125,-0.015953,-15.753647,-37.350533,11.852848,,,,,,,
1558975035.465354,-1.116320,1.308213,-0.744068,0.014535,-0.012997,0.129874,-0.233227,-0.965723,-0.113952,0.003201,0.005212,-0.014786,-15.796134,-37.341015,11.826250,,,,,,,
1558975035.485344,-1.118563,1.305873,-0.741881,-0.026856,-0.006541,0.060507,-0.235514,-0.965112,-0.114416,-0.035101,-0.002905,-0.014735,-15.886929,-37.310154,11.802010,,,,,,,
1558975035.505333,-1.114932,1.303995,-0.745567,-0.058666,0.000923,-0.007774,-0.236724,-0.964619,-0.116068,-0.034288,-0.005947,-0.021445,-15.943398,-37.297047,11.767241,,,,,,,
1558975035.525296,-1.112297,1.303970,-0.748681,-0.017249,-0.031012,-0.012317,-0.236439,-0.964613,-0.116702,-0.021176,-0.004122,-0.027982,-15.974811,-37.297482,11.723185,,,,,,,
1558975035.545308,-1.111307,1.303200,-0.750078,0.031711,-0.016421,0.020960,-0.236989,-0.964409,-0.117265,-0.013164,-0.003410,-0.035185,-15.957584,-37.304031,11.725800,,,,,,,
1558975035.565300,-1.113274,1.302724,-0.747928,0.001993,0.017584,0.037277,-0.237631,-0.964283,-0.117002,-0.009424,-0.004589,-0.047076,-15.995444,-37.295341,11.701826,,,,,,,
1558975035.585268,-1.112722,1.301852,-0.747859,-0.026693,0.036769,0.042775,-0.238320,-0.964052,-0.117504,-0.003684,-0.003782,-0.052113,-16.011841,-37.289764,11.697187,,,,,,,
1558975035.605275,-1.103618,1.299930,-0.755357,-0.002080,0.084223,0.053925,-0.238894,-0.963540,-0.120503,0.005954,0.000328,-0.093333,-16.077848,-37.305553,11.555427,,,,,,,
1558975035.625266,-1.105176,1.299346,-0.751110,0.064155,0.152569,0.046091,-0.239584,-0.963383,-0.120384,0.019614,0.001927,-0.130074,-16.143150,-37.283405,11.535864,,,,,,,
1558975035.645235,-1.109493,1.299419,-0.743122,0.108909,0.166074,0.045188,-0.240039,-0.963403,-0.119317,0.035572,-0.004981,-0.148444,-16.178129,-37.267685,11.537651,,,,,,,
1558975035.665246,-1.112874,1.299564,-0.736725,0.042824,0.130452,0.024509,-0.240316,-0.963441,-0.118443,0.046576,-0.017287,-0.187068,-16.276348,-37.214745,11.570347,,,,,,,
1558975035.685233,-1.107164,1.298987,-0.739415,-0.095320,0.192450,0.001503,-0.240133,-0.963287,-0.120062,0.025976,-0.019639,-0.229288,-16.320293,-37.212143,11.516682,,,,,,,
1558975035.705221,-1.092439,1.298374,-0.748056,-0.099845,0.417560,-0.036916,-0.238863,-0.963122,-0.123857,0.017504,-0.024503,-0.255690,-16.343307,-37.224968,11.442356,,,,,,,
1558975035.725212,-1.084202,1.299552,-0.744975,0.186066,0.609493,-0.034850,-0.236832,-0.963438,-0.125289,0.039368,-0.043917,-0.305710,-16.459343,-37.256523,11.170115,,,,,,,
1558975035.745200,-1.092386,1.303510,-0.723352,0.414025,0.649491,-0.053503,-0.234463,-0.964491,-0.121590,0.024975,-0.029711,-0.278953,-16.570852,-37.204079,11.180030,,,,,,,
1558975035.765173,-1.103993,1.309069,-0.696788,0.430423,0.751841,-0.116569,-0.231067,-0.965944,-0.116446,0.013217,-0.022627,-0.278070,-16.622414,-37.166424,11.228618,,,,,,,
1558975035.785160,-1.109080,1.315021,-0.673310,0.394958,0.965519,-0.132702,-0.226504,-0.967467,-0.112706,0.026950,-0.008897,-0.272594,-16.759981,-37.081570,11.304419,,,,,,,
1558975035.805152,-1.110216,1.320950,-0.649209,0.404235,1.199076,-0.128324,-0.221490,-0.968950,-0.109897,0.030770,0.010439,-0.267789,-16.898975,-37.036053,11.246561,,,,,,,
1558975035.825136,-1.112004,1.326896,-0.620595,0.478067,1.327684,-0.101410,-0.216516,-0.970404,-0.106947,0.032510,0.012060,-0.257616,-16.990421,-37.011120,11.190731,,,,,,,
1558975035.845143,-1.121201,1.332917,-0.584084,0.543916,1.298852,-0.065333,-0.212224,-0.971840,-0.102410,0.030629,0.004006,-0.190376,-17.322460,-36.898617,11.052340,,,,,,,
1558975035.865123,-1.130348,1.338606,-0.547562,0.455799,1.357408,-0.093670,-0.208148,-0.973165,-0.098106,0.006488,-0.001475,-0.157951,-17.560711,-36.805435,10.986856,,,,,,,
1558975035.885122,-1.120024,1.343293,-0.526710,0.217409,1.685237,-0.120617,-0.203016,-0.974233,-0.098261,-0.011294,-0.006343,-0.155584,-17.676296,-36.775105,10.902740,,,,,,,
1558975035.905113,-1.083503,1.346075,-0.524800,0.031203,2.039278,-0.106701,-0.196898,-0.974856,-0.104339,-0.014574,0.022906,-0.169968,-18.097197,-36.775528,10.187314,,,,,,,
1558975035.925090,-1.042703,1.348377,-0.522367,0.141326,2.200471,-0.074109,-0.190539,-0.975367,-0.111152,-0.013944,0.045832,-0.199303,-18.443062,-36.800182,9.451447,,,,,,,
1558975035.945089,-1.021176,1.352222,-0.501025,0.392996,2.035381,-0.027443,-0.184903,-0.976208,-0.113268,-0.007389,0.035854,-0.203413,-18.621634,-36.796833,9.108088,,,,,,,
1558975035.965079,-1.018510,1.357402,-0.464698,0.481847,1.866859,-0.020444,-0.180293,-0.977318,-0.111107,-0.047643,0.045051,-0.201424,-19.117865,-36.708645,8.409050,,,,,,,
1558975035.985068,-1.013036,1.362554,-0.430056,0.421885,2.080681,-0.026987,-0.175408,-0.978396,-0.109425,-0.121940,0.059923,-0.214488,-19.412815,-36.643478,8.007982,,,,,,,
1558975036.005056,-1.002793,1.367234,-0.393011,0.473025,2.443048,0.027770,-0.170416,-0.979353,-0.108752,-0.138956,0.057661,-0.215360,-19.572535,-36.614758,7.746308,,,,,,,
1558975036.025046,-0.997056,1.371537,-0.347623,0.512574,2.516910,0.080823,-0.166248,-0.980214,-0.107439,-0.106656,0.077153,-0.196592,-20.144272,-36.490234,6.811810,,,,,,,
1558975036.045023,-1.000104,1.376089,-0.294737,0.598393,2.402328,0.099013,-0.162819,-0.981104,-0.104521,-0.182885,0.109782,-0.195589,-22.683372,-40.851162,11.984865,,,,,,,
1558975036.065007,-1.022447,1.381682,-0.224450,0.799211,2.306195,0.134553,-0.160427,-0.982171,-0.097995,-0.214115,0.110086,-0.194272,-22.683372,-40.851162,11.984865,,,,,,,
1558975036.085011,-1.069145,1.388062,-0.130551,0.950174,2.264233,0.171640,-0.159329,-0.983351,-0.087384,-0.268664,0.085249,-0.046603,-23.643036,-40.517673,11.238966,,,,,,,
1558975036.105000,-1.115398,1.393422,-0.036889,0.768416,2.331733,0.140111,-0.158464,-0.984310,-0.077604,-0.297667,0.111920,0.031309,-24.583509,-40.102676,10.696539,,,,,,,
1558975036.124972,-1.127160,1.396443,0.025018,0.436051,2.546885,0.066101,-0.156679,-0.984839,-0.074459,-0.314299,0.139441,0.038356,-24.583509,-40.102676,10.696539,,,,,,,
1558975036.144978,-1.114782,1.398894,0.066106,0.396154,2.710918,0.056963,-0.153577,-0.985261,-0.075329,-0.289233,0.123872,0.046474,-25.449020,-39.857883,9.522934,,,,,,,
1558975036.164949,-1.139301,1.401401,0.143850,0.842051,2.434025,0.240440,-0.153134,-0.985687,-0.070508,-0.239749,0.090637,0.144483,-26.261787,-39.659512,8.026934,,,,,,,
1558975036.184939,-1.240475,1.405228,0.285790,1.325921,1.650371,0.254680,-0.155903,-0.986325,-0.053457,-0.269420,0.097455,0.176641,-26.545761,-39.521065,7.771606,,,,,,,
1558975036.204947,-1.370279,1.408902,0.446677,1.209390,1.430887,0.116907,-0.157959,-0.986924,-0.032105,-0.325394,0.115464,0.330796,-27.195095,-39.038658,7.962401,,,,,,,
1558975036.224917,-1.446158,1.409743,0.555529,0.671473,1.642987,0.106762,-0.159114,-0.987059,-0.019935,-0.283559,0.108961,0.439063,-27.517174,-38.823036,7.909898,,,,,,,
1558975036.244922,-1.466603,1.407382,0.609680,0.301960,1.650374,0.214369,-0.161806,-0.986678,-0.016920,-0.259673,0.108290,0.463576,-27.517174,-38.823036,7.909898,,,,,,,
1558975036.264914,-1.466108,1.402033,0.640342,0.198958,1.455536,0.327727,-0.167043,-0.985793,-0.017552,-0.258951,0.123199,0.394444,-28.085457,-38.581802,7.045657,,,,,,,
1558975036.284902,-1.464562,1.395905,0.665756,0.180241,1.261126,0.315175,-0.173020,-0.984746,-0.018450,-0.286346,0.087086,0.390398,-28.735096,-38.270294,6.055439,,,,,,,
1558975036.304889,-1.464983,1.390452,0.688190,0.154776,0.946216,0.279043,-0.178365,-0.983782,-0.018944,-0.279322,0.068239,0.415657,-28.926464,-38.170383,5.768145,,,,,,,
1558975036.324881,-1.467068,1.385840,0.704729,0.117505,0.592227,0.221175,-0.182915,-0.982944,-0.019042,-0.290092,0.080890,0.436553,-29.381710,-37.909805,5.152786,,,,,,,
1558975036.344853,-1.474774,1.382661,0.721957,0.171189,0.377269,0.152966,-0.186166,-0.982355,-0.017931,-0.281791,0.075113,0.414599,-29.578384,-37.784019,4.947415,,,,,,,
1558975036.364856,-1.495238,1.380342,0.746915,0.237370,0.097833,0.127924,-0.188765,-0.981918,-0.014290,-0.265291,0.066010,0.421562,-29.651731,-37.730740,4.914861,,,,,,,
1558975036.384848,-1.516436,1.378300,0.767336,0.141859,-0.149046,0.100928,-0.191027,-0.981530,-0.010394,-0.259703,0.078896,0.492801,-29.804022,-37.586037,5.099017,,,,,,,
1558975036.404827,-1.525013,1.376953,0.770485,-0.045052,-0.360594,0.053913,-0.192430,-0.981271,-0.008816,-0.253035,0.083948,0.504315,-29.841520,-37.530361,5.286344,,,,,,,
1558975036.424823,-1.517238,1.376015,0.752366,-0.257529,-0.567745,0.029339,-0.193275,-0.981090,-0.010361,-0.242516,0.080715,0.503373,-29.839218,-37.519272,5.377244,,,,,,,
1558975036.444814,-1.491649,1.375136,0.712550,-0.467790,-0.741059,0.021106,-0.193805,-0.980920,-0.015371,-0.239209,0.086282,0.483846,-29.772186,-37.542236,5.584533,,,,,,,
1558975036.464794,-1.453579,1.373552,0.655866,-0.597371,-0.978208,0.019800,-0.194623,-0.980610,-0.022918,-0.200229,0.068608,0.447677,-29.698849,-37.586685,5.675308,,,,,,,
1558975036.484790,-1.414695,1.371087,0.592664,-0.650437,-1.240024,0.049281,-0.195972,-0.980124,-0.030842,-0.171917,0.047431,0.415959,-29.648802,-37.614910,5.749509,,,,,,,
1558975036.504781,-1.374363,1.367923,0.524388,-0.731708,-1.363303,0.025615,-0.197610,-0.979492,-0.039324,-0.195228,0.066482,0.338992,-29.472189,-37.697044,6.108428,,,,,,,
1558975036.524767,-1.333268,1.364829,0.453080,-0.736357,-1.504994,-0.024857,-0.198772,-0.978864,-0.048122,-0.238621,0.100232,0.307018,-29.303112,-37.784737,6.374256,,,,,,,
1558975036.544745,-1.307002,1.362293,0.391541,-0.562861,-1.835701,-0.030019,-0.199836,-0.978342,-0.053973,-0.249078,0.100549,0.295505,-29.192772,-37.840237,6.548903,,,,,,,
1558975036.564729,-1.304171,1.360038,0.346247,-0.483241,-2.213435,-0.004744,-0.201809,-0.977873,-0.055120,-0.194889,0.026624,0.262639,-28.923882,-37.939896,7.138866,,,,,,,
1558975036.584735,-1.298746,1.356646,0.293264,-0.662480,-2.323437,0.023953,-0.204701,-0.977157,-0.057105,-0.281246,0.016037,0.185386,-28.404350,-38.060921,8.458665,,,,,,,
1558975036.604707,-1.274996,1.351767,0.223570,-0.840738,-2.149153,0.022276,-0.207846,-0.976109,-0.063339,-0.304010,0.030491,0.152405,-28.404350,-38.060921,8.458665,,,,,,,
1558975036.624702,-1.249115,1.347181,0.153300,-0.748119,-2.176163,-0.043035,-0.210382,-0.975102,-0.070111,-0.321952,0.082432,0.070706,-27.832447,-38.251907,9.441210,,,,,,,
1558975036.644703,-1.244259,1.345097,0.099206,-0.531012,-2.551607,-0.124393,-0.211963,-0.974638,-0.071783,-0.251065,0.058592,0.043020,-27.102558,-38.507107,10.471074,,,,,,,
1558975036.664675,-1.254914,1.344835,0.053819,-0.488242,-2.826686,-0.145142,-0.212958,-0.974579,-0.069600,-0.215387,0.035691,0.026906,-27.102558,-38.507107,10.471074,,,,,,,
1558975036.684651,-1.259197,1.343271,0.000684,-0.678649,-2.762189,-0.094498,-0.214705,-0.974227,-0.069155,-0.248918,0.026550,-0.014570,-26.017281,-38.787739,12.066572,,,,,,,
1558975036.704669,-1.241308,1.340000,-0.071850,-0.911082,-2.564403,-0.120550,-0.216448,-0.973484,-0.074015,-0.269651,0.039738,-0.065237,-24.857876,-39.137806,13.315719,,,,,,,
1558975036.724642,-1.214554,1.336698,-0.150332,-0.862787,-2.464304,-0.163326,-0.217402,-0.972724,-0.080899,-0.252020,0.030234,-0.084521,-24.466530,-39.292912,13.581068,,,,,,,
1558975036.744618,-1.202048,1.334926,-0.215203,-0.667262,-2.583770,-0.198478,-0.217981,-0.972311,-0.084233,-0.187659,0.021826,-0.115077,-23.224545,-39.759922,14.379108,,,,,,,
1558975036.764636,-1.200193,1.334761,-0.271815,-0.620688,-2.685559,-0.246392,-0.217974,-0.972273,-0.084695,-0.164534,0.025419,-0.135443,-22.273619,-40.045727,15.073671,,,,,,,
1558975036.784608,-1.193315,1.334302,-0.332743,-0.699032,-2.547710,-0.229120,-0.217801,-0.972165,-0.086357,-0.163227,0.031156,-0.155190,-21.766270,-40.195946,15.411207,,,,,,,
1558975036.804615,-1.182034,1.332770,-0.394575,-0.702886,-2.403868,-0.182906,-0.218191,-0.971805,-0.089373,-0.126429,0.007877,-0.186415,-20.299801,-40.664486,16.165003,,,,,,,
1558975036.824603,-1.167233,1.330823,-0.458392,-0.767528,-2.333827,-0.223925,-0.218584,-0.971344,-0.093335,-0.110319,-0.001648,-0.225589,-19.366230,-40.975243,16.521749,,,,,,,
1558975036.844590,-1.142070,1.328860,-0.530101,-0.852002,-2.146359,-0.269175,-0.217900,-0.970876,-0.099598,-0.100643,-0.003062,-0.254727,-18.887253,-41.148666,16.644783,,,,,,,
1558975036.864582,-1.109610,1.326622,-0.604309,-0.834060,-1.878001,-0.287945,-0.216498,-0.970337,-0.107584,-0.047418,0.023804,-0.342551,-17.493637,-41.721485,16.741562,,,,,,,
1558975036.884570,-1.083309,1.324752,-0.668717,-0.669897,-1.793200,-0.257108,-0.215197,-0.969883,-0.114090,0.010744,0.033940,-0.379242,-16.645212,-42.078194,16.713825,,,,,,,
1558975036.904557,-1.071362,1.322864,-0.716875,-0.511097,-1.690301,-0.158840,-0.215425,-0.969422,-0.117529,0.038088,0.032868,-0.387216,-16.243492,-42.226349,16.735420,,,,,,,
1558975036.924548,-1.064403,1.320506,-0.755874,-0.485840,-1.443055,-0.132965,-0.216601,-0.968841,-0.120134,0.037081,0.035659,-0.370665,-15.214765,-42.556595,16.865257,,,,,,,
1558975036.944532,-1.046239,1.318141,-0.801186,-0.591424,-1.213237,-0.205585,-0.216366,-0.968252,-0.125196,0.053692,0.012731,-0.338183,-14.772730,-42.718670,16.848499,,,,,,,
1558975036.964524,-1.017509,1.315927,-0.854487,-0.630387,-1.111647,-0.264433,-0.214503,-0.967696,-0.132485,0.057948,0.012344,-0.330268,-14.334736,-42.912128,16.734833,,,,,,,
1558975036.984515,-0.992588,1.314735,-0.902326,-0.472573,-1.036394,-0.279601,-0.212101,-0.967395,-0.138420,0.066853,0.017429,-0.358559,-13.738956,-43.193630,16.508821,,,,,,,
1558975037.004491,-0.976455,1.315093,-0.938341,-0.329406,-0.865876,-0.256501,-0.209554,-0.967486,-0.141629,0.058614,0.021868,-0.338946,-13.019748,-43.479473,16.340473,,,,,,,
1558975037.024491,-0.960333,1.315546,-0.969342,-0.303010,-0.596439,-0.231480,-0.206884,-0.967600,-0.144738,0.046362,0.017039,-0.315818,-12.641275,-43.610336,16.288834,,,,,,,
1558975037.044482,-0.943726,1.315826,-0.996817,-0.246189,-0.463521,-0.208810,-0.204233,-0.967671,-0.147995,0.028055,0.029804,-0.293335,-12.060960,-43.837452,16.118336,,,,,,,
1558975037.064447,-0.930207,1.317524,-1.019376,-0.138348,-0.384881,-0.254947,-0.200896,-0.968098,-0.149760,0.004164,0.040775,-0.258001,-11.723520,-43.956902,16.041811,,,,,,,
1558975037.084457,-0.919035,1.320867,-1.037797,-0.051807,-0.295514,-0.271105,-0.196636,-0.968930,-0.150031,0.013958,0.044552,-0.235742,-11.548853,-44.007435,16.029951,,,,,,,
1558975037.104449,-0.833669,1.311350,-1.125620,0.029342,-0.180637,-0.220861,-0.189947,-0.966532,-0.172440,0.041967,0.061076,-0.183486,-11.055708,-44.496258,14.994812,,,,,,,
1558975037.124433,-0.832562,1.314983,-1.128073,0.147949,0.005993,-0.111147,-0.187157,-0.967458,-0.170286,0.060967,0.077474,-0.115297,-10.859873,-44.515453,15.080690,,,,,,,
1558975037.144424,-0.839699,1.318284,-1.119167,0.201353,0.103096,-0.018358,-0.185990,-0.968288,-0.166813,0.054810,0.086009,-0.086971,-10.813397,-44.489536,15.190179,,,,,,,
1558975037.164416,-0.845540,1.320323,-1.110937,0.093826,0.103677,-0.007762,-0.185483,-0.968795,-0.164414,0.035016,0.080749,-0.028732,-10.822243,-44.447872,15.305389,,,,,,,
1558975037.184377,-0.842343,1.320164,-1.112190,-0.077552,0.108818,0.000691,-0.185071,-0.968756,-0.165109,0.020948,0.055273,0.005181,-10.859611,-44.419460,15.361320,,,,,,,
1558975037.204378,-0.832481,1.318050,-1.119346,-0.162543,0.174847,0.033285,-0.184948,-0.968229,-0.168304,0.021542,0.044828,0.004806,-10.892349,-44.442410,15.271500,,,,,,,
1558975037.224355,-0.822694,1.314995,-1.124905,-0.138994,0.231842,0.081907,-0.185459,-0.967461,-0.172117,0.007588,0.021050,0.012327,-11.018501,-44.489552,15.042011,,,,,,,
1558975037.244370,-0.815843,1.312161,-1.127090,-0.105991,0.230603,0.076583,-0.186272,-0.966740,-0.175262,-0.015617,0.007847,0.027496,-11.165899,-44.507988,14.877876,,,,,,,
1558975037.264341,-0.810312,1.310269,-1.129097,-0.073220,0.141577,0.033052,-0.186624,-0.966254,-0.177549,-0.021979,0.005653,0.035841,-11.231287,-44.514858,14.807943,,,,,,,
1558975037.284322,-0.806459,1.309669,-1.131139,-0.022276,0.074650,-0.012389,-0.186358,-0.966100,-0.178669,-0.020170,-0.015941,0.053882,-11.326587,-44.533417,14.678986,,,,,,,
1558975037.304336,-0.803737,1.309920,-1.132815,-0.005300,0.051285,-0.026479,-0.185696,-0.966164,-0.179007,-0.018314,-0.023811,0.063178,-11.328369,-44.539597,14.658861,,,,,,,
1558975037.324312,-0.799903,1.309899,-1.135452,-0.037176,0.073664,-0.016682,-0.185023,-0.966159,-0.179732,-0.011754,-0.016172,0.070266,-11.320852,-44.548691,14.637020,,,,,,,
1558975037.344316,-0.796190,1.309236,-1.137458,-0.040359,0.092758,0.017663,-0.184812,-0.965988,-0.180865,0.004544,-0.005280,0.062899,-11.342720,-44.564713,14.571166,,,,,,,
1558975037.364304,-0.794990,1.308553,-1.137287,-0.003268,0.047127,0.027933,-0.185066,-0.965811,-0.181549,0.002082,-0.000101,0.059082,-11.386766,-44.568588,14.524885,,,,,,,
1558975037.384292,-0.816890,1.312550,-1.115766,0.051964,-0.001814,0.011501,-0.186181,-0.966839,-0.174809,-0.005729,-0.004505,0.051259,-11.404305,-44.564644,14.523226,,,,,,,
1558975037.404282,-0.836285,1.315710,-1.096360,0.065916,0.030880,0.013966,-0.187268,-0.967642,-0.169117,-0.008655,-0.005625,0.041492,-11.432064,-44.441437,14.874689,,,,,,,
1558975037.424271,-0.859397,1.318677,-1.073504,0.028586,0.003586,0.010479,-0.188951,-0.968386,-0.162869,-0.013197,-0.005110,0.054242,-11.476412,-44.342918,15.132338,,,,,,,
1558975037.444258,-0.876572,1.320418,-1.056670,-0.030859,0.024950,-0.047008,-0.190424,-0.968819,-0.158521,-0.024038,-0.007881,0.051343,-11.512167,-44.245312,15.388717,,,,,,,
1558975037.464235,-0.876198,1.322435,-1.056912,-0.043663,0.017627,-0.039615,-0.188863,-0.969317,-0.157341,0.006383,-0.006391,0.024009,-11.532640,-44.180775,15.557859,,,,,,,
1558975037.484217,-0.871053,1.323655,-1.061831,-0.056464,0.019845,-0.015051,-0.187146,-0.969616,-0.157549,0.015668,-0.002430,0.010942,-11.479187,-44.177414,15.606854,,,,,,,
1558975037.504213,-0.862715,1.323845,-1.069440,-0.089359,0.057032,-0.001912,-0.185686,-0.969662,-0.158984,0.017016,0.002774,0.005618,-11.421739,-44.189423,15.615009,,,,,,,
1558975037.524190,-0.850343,1.323245,-1.080485,-0.072361,0.053794,0.013013,-0.184142,-0.969515,-0.161653,0.022216,0.012393,-0.008178,-11.338161,-44.267136,15.454984,,,,,,,
1558975037.544200,-0.847309,1.322841,-1.083611,-0.023613,-0.031083,-0.027264,-0.183944,-0.969416,-0.162470,0.000976,0.012614,-0.008001,-11.344690,-44.283916,15.402035,,,,,,,
1558975037.564181,-0.844723,1.322894,-1.087484,0.019957,-0.069419,-0.063895,-0.183485,-0.969429,-0.162911,-0.006242,0.007607,-0.011283,-11.323281,-44.290424,15.399064,,,,,,,
1558975037.584157,-0.844366,1.324193,-1.088287,0.045728,0.006577,-0.046065,-0.182486,-0.969747,-0.162140,0.016729,0.011495,-0.014923,-11.242993,-44.307579,15.408540,,,,,,,
1558975037.604154,-0.845321,1.325255,-1.086313,0.055461,0.070001,-0.009150,-0.181870,-0.970006,-0.161282,0.018479,0.015035,-0.007160,-11.233303,-44.306648,15.418292,,,,,,,
1558975037.624158,-0.844108,1.326503,-1.085488,0.055519,0.097516,0.012463,-0.180769,-0.970308,-0.160699,0.016508,0.011278,-0.000724,-11.241481,-44.286499,15.470136,,,,,,,
1558975037.644150,-0.844764,1.327267,-1.082876,0.061813,0.077426,0.030424,-0.180320,-0.970493,-0.160087,0.009726,0.009098,-0.000618,-11.232391,-44.282444,15.488329,,,,,,,
1558975037.664134,-0.850705,1.328038,-1.075742,0.052103,0.038370,0.032178,-0.180706,-0.970679,-0.158520,-0.001698,0.000616,0.008511,-11.245113,-44.275951,15.497658,,,,,,,
1558975037.684125,-0.857042,1.328441,-1.069235,0.013700,-0.001644,-0.000263,-0.181411,-0.970775,-0.157116,-0.008637,-0.002186,0.014919,-11.293011,-44.236595,15.575024,,,,,,,
1558975037.704117,-0.859020,1.328495,-1.067071,-0.031896,0.041901,-0.021234,-0.181681,-0.970788,-0.156722,-0.007498,-0.003378,0.004027,-11.324940,-44.199242,15.657665,,,,,,,
1558975037.724104,-0.849115,1.327151,-1.075657,-0.046674,0.073665,-0.038024,-0.181099,-0.970465,-0.159376,-0.001899,-0.000238,-0.012652,-11.339418,-44.229362,15.561827,,,,,,,
1558975037.744091,-0.839845,1.326724,-1.083126,-0.046539,0.109584,-0.050493,-0.179923,-0.970362,-0.161324,-0.002389,0.001063,-0.016105,-11.339418,-44.229362,15.561827,,,,,,,
1558975037.764056,-0.819532,1.324845,-1.100452,-0.047455,0.159276,-0.046819,-0.177941,-0.969906,-0.166190,0.007256,0.010891,-0.035989,-11.331039,-44.299747,15.366512,,,,,,,
1558975037.784071,-0.805047,1.324042,-1.111429,-0.022930,0.177129,-0.039157,-0.176077,-0.969710,-0.169290,0.014562,0.021972,-0.057944,-11.320490,-44.409485,15.054386,,,,,,,
1558975037.804049,-0.800369,1.324560,-1.112421,0.030317,0.193793,-0.017602,-0.174922,-0.969837,-0.169762,0.018367,0.024356,-0.068748,-11.320490,-44.409485,15.054386,,,,,,,
1558975037.824025,-0.788842,1.323498,-1.119186,0.069813,0.238008,-0.000068,-0.173685,-0.969577,-0.172492,0.011972,0.033466,-0.079186,-11.395659,-44.455212,14.861445,,,,,,,
1558975037.844037,-0.787308,1.324528,-1.115161,0.067869,0.294039,-0.000601,-0.172712,-0.969829,-0.172053,0.011686,0.036464,-0.081288,-11.470775,-44.434303,14.866205,,,,,,,
1558975037.864016,-0.784443,1.325178,-1.111015,0.058551,0.382906,0.019460,-0.171773,-0.969987,-0.172101,0.013280,0.038759,-0.090960,-11.543386,-44.419518,14.854189,,,,,,,
1558975037.883992,-0.781718,1.325668,-1.104701,0.081157,0.472676,0.048096,-0.170969,-0.970106,-0.172232,0.042413,0.046583,-0.123911,-11.724453,-44.387924,14.806738,,,,,,,
1558975037.903992,-0.780860,1.325903,-1.094952,0.095163,0.544547,0.093636,-0.170661,-0.970163,-0.172217,0.041251,0.047891,-0.133676,-11.871639,-44.358444,14.777780,,,,,,,
1558975037.923992,-0.761261,1.322635,-1.101734,0.107031,0.616427,0.135966,-0.169438,-0.969366,-0.177822,0.042317,0.040411,-0.141743,-12.082376,-44.402977,14.470017,,,,,,,
1558975037.943984,-0.763333,1.322300,-1.085996,0.131721,0.688202,0.154823,-0.170031,-0.969283,-0.177706,0.033389,0.031005,-0.152922,-12.468699,-44.318501,14.401100,,,,,,,
1558975037.963970,-0.764506,1.322164,-1.069720,0.126635,0.755864,0.145857,-0.170331,-0.969250,-0.177601,0.033841,0.031735,-0.165585,-12.722204,-44.260555,14.357514,,,,,,,
1558975037.983959,-0.761606,1.321519,-1.055876,0.073732,0.856567,0.152117,-0.170247,-0.969091,-0.178547,0.050069,0.018789,-0.181881,-13.069839,-44.189095,14.265091,,,,,,,
1558975038.003951,-0.755086,1.319730,-1.043440,0.027263,0.984762,0.187471,-0.170267,-0.968648,-0.180915,0.048105,0.008367,-0.210244,-13.559700,-44.114464,14.037031,,,,,,,
1558975038.023937,-0.746805,1.317679,-1.029620,0.061822,1.137856,0.193235,-0.170112,-0.968136,-0.183776,0.032752,0.006909,-0.219865,-13.902305,-44.068245,13.845779,,,,,,,
1558975038.043925,-0.737993,1.316670,-1.013442,0.134667,1.271693,0.179627,-0.169143,-0.967883,-0.185991,0.018844,0.012424,-0.231017,-14.264807,-44.014580,13.646301,,,,,,,
1558975038.063917,-0.731032,1.316770,-0.993306,0.190251,1.348584,0.194287,-0.167780,-0.967908,-0.187092,0.041666,0.030637,-0.251202,-15.019277,-43.879536,13.266410,,,,,,,
1558975038.083887,-0.728058,1.317052,-0.966854,0.267229,1.484646,0.269318,-0.167041,-0.967979,-0.187386,0.038989,0.034843,-0.255393,-15.429474,-43.791382,13.085716,,,,,,,
1558975038.103892,-0.731059,1.317616,-0.931650,0.357940,1.581502,0.327971,-0.167238,-0.968121,-0.186477,0.030397,0.037731,-0.251984,-16.061300,-43.634441,12.847569,,,,,,,
1558975038.123884,-0.736410,1.318819,-0.893457,0.351609,1.582539,0.292743,-0.167451,-0.968421,-0.184717,-0.029158,0.079154,-0.217291,-16.914042,-43.386906,12.588951,,,,,,,
1558975038.143863,-0.734505,1.320148,-0.860894,0.312797,1.733820,0.241846,-0.166236,-0.968752,-0.184080,-0.055474,0.080004,-0.228960,-17.395660,-43.252941,12.392080,,,,,,,
1558975038.163859,-0.732884,1.321583,-0.825137,0.390834,1.868821,0.317936,-0.165008,-0.969107,-0.183316,-0.036103,0.067587,-0.238452,-18.038696,-43.086197,12.048859,,,,,,,
1558975038.183851,-0.742389,1.323740,-0.775843,0.555889,1.923034,0.396525,-0.165328,-0.969637,-0.180198,-0.065018,0.035433,-0.191017,-18.579010,-42.930202,11.781676,,,,,,,
1558975038.203782,-0.759778,1.327336,-0.719394,0.598196,1.817034,0.345365,-0.166034,-0.970510,-0.174767,-0.107175,0.037282,-0.142295,-19.735271,-42.514034,11.404633,,,,,,,
1558975038.223768,-0.766970,1.331141,-0.675908,0.428935,1.741581,0.185427,-0.164723,-0.971420,-0.170909,-0.108485,0.038192,-0.146153,-20.231552,-42.327408,11.227843,,,,,,,
1558975038.243763,-0.760910,1.334471,-0.644512,0.390166,1.912948,0.159291,-0.161453,-0.972205,-0.169561,-0.102417,0.033316,-0.160731,-20.642309,-42.197697,10.965359,,,,,,,
1558975038.263750,-0.767888,1.338812,-0.595636,0.659733,2.062923,0.320022,-0.159699,-0.973212,-0.165392,-0.117065,0.028220,-0.090269,-21.503822,-41.934078,10.300908,,,,,,,
1558975038.283737,-0.798478,1.345258,-0.522971,0.872253,1.960371,0.345901,-0.160185,-0.974674,-0.156049,-0.151750,0.034427,-0.065509,-22.033638,-41.709839,10.089487,,,,,,,
1558975038.303728,-0.832103,1.353283,-0.450763,0.809068,1.772319,0.187107,-0.159553,-0.976437,-0.145305,-0.198265,0.047131,-0.038213,-22.541191,-41.465656,9.974144,,,,,,,
1558975038.323716,-0.855517,1.360834,-0.390393,0.718816,1.821347,0.141595,-0.157341,-0.978039,-0.136690,-0.233361,0.027782,-0.019392,-23.303570,-41.103497,9.717802,,,,,,,
1558975038.343697,-0.882739,1.367979,-0.323110,0.776821,2.002923,0.191423,-0.155601,-0.979503,-0.127915,-0.239221,0.039836,-0.014205,-23.541227,-40.999214,9.584632,,,,,,,
1558975038.363678,-0.914242,1.374893,-0.249028,0.793059,2.075740,0.170780,-0.154185,-0.980872,-0.118814,-0.249777,0.055961,0.011820,-24.329971,-40.648205,9.097557,,,,,,,
1558975038.383683,-0.947979,1.382013,-0.171693,0.830566,2.146345,0.158674,-0.152428,-0.982233,-0.109469,-0.273125,0.068079,0.051989,-24.831272,-40.428329,8.714800,,,,,,,
1558975038.403643,-0.996692,1.389553,-0.078514,0.983712,2.111741,0.175548,-0.151354,-0.983620,-0.097892,-0.290632,0.078057,0.068733,-25.082209,-40.315105,8.518496,,,,,,,
1558975038.423640,-1.065533,1.398183,0.031793,1.066229,1.914568,0.085112,-0.150296,-0.985139,-0.083137,-0.281192,0.071702,0.135719,-25.790630,-39.946098,8.132785,,,,,,,
1558975038.443650,-1.143708,1.407151,0.148180,1.088262,1.794938,0.037008,-0.148282,-0.986640,-0.067483,-0.267444,0.072928,0.161371,-26.052176,-39.794922,8.039767,,,,,,,
1558975038.463628,-1.232924,1.413492,0.272199,0.967187,1.582145,0.095730,-0.147799,-0.987653,-0.051929,-0.265287,0.066434,0.284884,-26.289923,-39.649429,7.984493,,,,,,,
1558975038.483610,-1.294408,1.415806,0.365226,0.551823,1.520920,0.104420,-0.148512,-0.988013,-0.042125,-0.275896,0.058173,0.373805,-26.778461,-39.358700,7.797219,,,,,,,
1558975038.503616,-1.295428,1.415308,0.398945,0.091438,1.680823,0.097041,-0.149028,-0.987936,-0.042107,-0.272130,0.045996,0.343850,-27.091375,-39.252506,7.231051,,,,,,,
1558975038.523585,-1.270734,1.412976,0.406643,0.026952,1.512101,0.138080,-0.150144,-0.987572,-0.046455,-0.262149,0.034554,0.341484,-27.250147,-39.219799,6.799020,,,,,,,
1558975038.543596,-1.253342,1.411426,0.415010,0.037608,1.153592,0.053516,-0.150767,-0.987327,-0.049537,-0.265401,0.048775,0.378715,-27.664415,-39.114471,5.632773,,,,,,,
1558975038.563583,-1.236864,1.411580,0.417978,0.021914,0.885102,-0.007787,-0.149787,-0.987352,-0.051965,-0.242852,0.046205,0.358453,-27.765970,-39.101757,5.205142,,,,,,,
1558975038.583571,-1.226078,1.411222,0.423744,0.053487,0.810001,0.068389,-0.149551,-0.987295,-0.053697,-0.189133,0.065176,0.306596,-27.852779,-39.099239,4.739411,,,,,,,
1558975038.603562,-1.226722,1.409668,0.439196,0.101905,0.673490,0.134383,-0.151029,-0.987047,-0.054118,-0.180865,0.067186,0.325160,-28.024681,-39.030769,4.266890,,,,,,,
1558975038.623545,-1.233943,1.407855,0.457534,0.120375,0.461986,0.131306,-0.153105,-0.986754,-0.053617,-0.197024,0.063842,0.312239,-28.143574,-38.966763,4.064476,,,,,,,
1558975038.643538,-1.251265,1.406622,0.481986,0.203886,0.277604,0.115728,-0.155165,-0.986554,-0.051339,-0.210924,0.065930,0.296319,-28.279072,-38.883434,3.919454,,,,,,,
1558975038.663529,-1.279840,1.406140,0.514322,0.246941,0.088138,0.092596,-0.157024,-0.986475,-0.047022,-0.212666,0.073908,0.333124,-28.409725,-38.782867,3.970678,,,,,,,
1558975038.683489,-1.304502,1.405810,0.538790,0.145282,-0.086835,0.064149,-0.158450,-0.986421,-0.043221,-0.200498,0.089784,0.372444,-28.460026,-38.734020,4.085628,,,,,,,
1558975038.703505,-1.321645,1.404321,0.552453,0.060572,-0.237424,0.143781,-0.160590,-0.986175,-0.040860,-0.168298,0.106597,0.355939,-28.493465,-38.696297,4.208178,,,,,,,
1558975038.723495,-1.334571,1.399741,0.559539,-0.045318,-0.330744,0.276259,-0.165495,-0.985406,-0.039838,-0.192278,0.109933,0.353864,-28.655106,-38.546761,4.474612,,,,,,,
1558975038.743470,-1.327493,1.393522,0.544246,-0.308600,-0.452019,0.246060,-0.171153,-0.984328,-0.042484,-0.201008,0.079146,0.360218,-28.793755,-38.432358,4.567661,,,,,,,
1558975038.763472,-1.296302,1.387226,0.501249,-0.527231,-0.603165,0.188921,-0.175707,-0.983198,-0.049480,-0.185087,0.076552,0.323604,-28.904713,-38.346581,4.587700,,,,,,,
1558975038.783462,-1.256899,1.380343,0.447392,-0.595724,-0.715911,0.185652,-0.180054,-0.981919,-0.058451,-0.185303,0.087830,0.265787,-28.999985,-38.279579,4.545791,,,,,,,
1558975038.803423,-1.219728,1.373346,0.393837,-0.600216,-0.808976,0.137781,-0.184204,-0.980570,-0.067463,-0.201736,0.167643,0.217136,-29.105392,-38.205582,4.494399,,,,,,,
1558975038.823439,-1.191058,1.367306,0.346386,-0.513390,-0.965925,0.101115,-0.187692,-0.979367,-0.074910,-0.172461,0.182660,0.208775,-29.121838,-38.189415,4.525142,,,,,,,
1558975038.843429,-1.178958,1.361896,0.310246,-0.393151,-1.288895,0.134420,-0.191667,-0.978260,-0.079198,-0.095626,0.165714,0.182103,-29.113377,-38.180214,4.655388,,,,,,,
1558975038.863390,-1.191717,1.356074,0.293874,-0.186431,-1.499110,0.242541,-0.197949,-0.977036,-0.078852,-0.172916,0.084931,0.162394,-29.093086,-38.099678,5.384887,,,,,,,
1558975038.883390,-1.222613,1.350649,0.294003,-0.066333,-1.555760,0.244231,-0.205269,-0.975865,-0.074507,-0.207145,0.040593,0.178205,-29.108179,-38.001408,5.966255,,,,,,,
1558975038.903377,-1.249343,1.347105,0.288316,-0.177218,-1.691799,0.064542,-0.210468,-0.975085,-0.070086,-0.304120,-0.038785,0.247470,-29.046696,-37.866760,7.027639,,,,,,,
1558975038.923354,-1.261411,1.346610,0.262098,-0.329060,-1.988309,-0.128459,-0.211758,-0.974975,-0.067688,-0.299381,-0.032532,0.245713,-28.855213,-37.888767,7.668613,,,,,,,
1558975038.943367,-1.271487,1.347630,0.228655,-0.336063,-2.188089,-0.156000,-0.211479,-0.975202,-0.065258,-0.220284,-0.041842,0.175503,-28.423559,-38.019993,8.577367,,,,,,,
1558975038.963344,-1.282233,1.347849,0.194337,-0.400123,-2.214073,-0.085835,-0.211964,-0.975250,-0.062921,-0.143978,-0.025467,0.108087,-27.783049,-38.199181,9.793580,,,,,,,
1558975038.983351,-1.284182,1.345564,0.150985,-0.548279,-2.231129,0.004633,-0.214223,-0.974742,-0.063138,-0.127315,-0.052174,0.088437,-27.413818,-38.290615,10.454731,,,,,,,
1558975039.003335,-1.278119,1.341235,0.099234,-0.666370,-2.191336,0.047625,-0.217873,-0.973766,-0.065652,-0.172828,-0.068241,0.047906,-26.940437,-38.405323,11.235367,,,,,,,
1558975039.023311,-1.260230,1.337200,0.037259,-0.772296,-2.088432,-0.075322,-0.220404,-0.972840,-0.070739,-0.270700,-0.023589,0.008331,-26.331280,-38.594948,12.003459,,,,,,,
1558975039.043318,-1.239504,1.335788,-0.027645,-0.706266,-2.147138,-0.225302,-0.220189,-0.972512,-0.075738,-0.201396,0.034768,-0.045615,-25.711658,-38.849155,12.515736,,,,,,,
1558975039.063306,-1.226625,1.336578,-0.086621,-0.581134,-2.307454,-0.258766,-0.218473,-0.972696,-0.078309,-0.112719,-0.010901,-0.065139,-25.344559,-38.998745,12.796132,,,,,,,
1558975039.083296,-1.228773,1.336464,-0.133896,-0.515720,-2.425992,-0.129595,-0.218744,-0.972670,-0.077876,-0.086813,-0.112734,-0.077092,-24.145416,-39.397217,13.850924,,,,,,,
1558975039.103282,-1.219658,1.334044,-0.190660,-0.786412,-2.192009,-0.117964,-0.220235,-0.972105,-0.080676,-0.198191,-0.110537,-0.072888,-23.385494,-39.620495,14.502577,,,,,,,
1558975039.123269,-1.179923,1.330639,-0.271972,-1.026704,-1.838945,-0.240759,-0.219915,-0.971301,-0.090622,-0.227350,-0.094572,-0.080521,-23.021301,-39.771194,14.671797,,,,,,,
1558975039.143244,-1.134959,1.328789,-0.354868,-0.842339,-1.825279,-0.350448,-0.217248,-0.970859,-0.101174,-0.185935,-0.038495,-0.082618,-21.904491,-40.374844,14.732777,,,,,,,
1558975039.163223,-1.113122,1.331034,-0.420570,-0.588070,-2.257030,-0.492104,-0.213032,-0.971394,-0.104930,-0.188137,0.001790,-0.067525,-21.699234,-40.475079,14.761471,,,,,,,
1558975039.183236,-1.090191,1.335605,-0.491544,-0.709227,-2.261887,-0.632109,-0.206631,-0.972470,-0.107733,-0.183277,0.044003,-0.080927,-20.137983,-41.060928,15.344439,,,,,,,
1558975039.203212,-1.044926,1.338834,-0.581217,-0.880837,-2.000940,-0.618005,-0.198827,-0.973217,-0.115396,-0.102610,0.089993,-0.134711,-18.629656,-41.664833,15.619455,,,,,,,
1558975039.223192,-0.998034,1.338928,-0.667599,-0.779296,-1.808883,-0.474088,-0.193123,-0.973239,-0.124539,-0.023659,0.114581,-0.172168,-18.344667,-41.790653,15.620632,,,,,,,
1558975039.243205,-0.970286,1.338098,-0.732472,-0.549383,-1.747512,-0.329184,-0.190259,-0.973048,-0.130306,0.013563,0.119303,-0.207524,-16.872990,-42.420876,15.580807,,,,,,,
1558975039.263197,-0.965849,1.337611,-0.772499,-0.309966,-1.711586,-0.180233,-0.190069,-0.972935,-0.131418,0.055609,0.112141,-0.245779,-15.876769,-42.732601,15.774754,,,,,,,
1558975039.283159,-0.982827,1.336621,-0.789678,-0.135494,-1.671045,-0.022762,-0.193074,-0.972706,-0.128707,0.068318,0.099384,-0.258637,-15.703087,-42.771301,15.843571,,,,,,,
1558975039.303172,-1.005263,1.335158,-0.798703,-0.149817,-1.482782,0.003585,-0.197114,-0.972366,-0.125105,0.025407,0.093124,-0.244829,-14.840452,-42.873482,16.389496,,,,,,,
1558975039.323163,-1.015674,1.333366,-0.815324,-0.247899,-1.224421,-0.039930,-0.199887,-0.971945,-0.123965,0.013333,0.069617,-0.250165,-14.239822,-42.950619,16.717104,,,,,,,
1558975039.343151,-1.014309,1.331047,-0.837760,-0.302204,-0.905976,-0.040128,-0.201630,-0.971398,-0.125427,0.022568,0.057137,-0.254303,-13.926241,-43.026169,16.786844,,,,,,,
1558975039.363139,-1.006467,1.328591,-0.861412,-0.311041,-0.688212,-0.058336,-0.202656,-0.970811,-0.128281,0.025959,0.049776,-0.242187,-13.672050,-43.109734,16.781424,,,,,,,
1558975039.383130,-0.993477,1.326763,-0.887373,-0.299976,-0.584763,-0.111788,-0.202459,-0.970371,-0.131870,0.022573,0.054600,-0.241528,-13.388054,-43.227486,16.707312,,,,,,,
1558975039.403118,-0.985100,1.326224,-0.908548,-0.171280,-0.619271,-0.116285,-0.201783,-0.970241,-0.133851,0.048280,0.042385,-0.225692,-12.946116,-43.410038,16.581818,,,,,,,
1558975039.423105,-0.921593,1.319818,-0.982540,-0.012688,-0.605271,-0.098970,-0.197828,-0.968670,-0.150141,0.047865,0.049893,-0.197713,-12.946116,-43.410038,16.581818,,,,,,,
1558975039.443072,-0.931229,1.321391,-0.983661,0.056863,-0.474497,-0.051754,-0.198043,-0.969059,-0.147319,0.062454,0.066777,-0.183003,-16.728195,-42.101631,16.465769,,,,,,,
1558975039.463084,-0.876477,1.317635,-1.043321,0.175348,-0.320639,0.046936,-0.192480,-0.968125,-0.160264,0.080145,0.066560,-0.147079,-16.260948,-42.455563,16.018999,,,,,,,
1558975039.483046,-0.905503,1.319037,-1.018429,0.352234,-0.196616,0.197736,-0.195982,-0.968476,-0.153772,0.077376,0.041657,-0.116065,-16.239185,-42.413189,16.152754,,,,,,,
1558975039.503052,-0.946860,1.320326,-0.978385,0.465296,-0.097755,0.262831,-0.201159,-0.968796,-0.144808,0.034656,0.014572,-0.058256,-16.403637,-42.133568,16.708805,,,,,,,
1558975039.523023,-0.988030,1.321233,-0.937691,0.414215,-0.109165,0.228516,-0.206215,-0.969020,-0.135922,0.011589,0.000484,-0.037067,-16.546555,-41.953251,17.018749,,,,,,,
1558975039.543038,-1.017268,1.322039,-0.910617,0.212004,-0.161164,0.086927,-0.209436,-0.969219,-0.129425,-0.033927,-0.012150,0.007202,-16.682060,-41.748196,17.386732,,,,,,,
1558975039.563014,-1.021270,1.322311,-0.909559,-0.098504,-0.123791,-0.045352,-0.209728,-0.969286,-0.128449,-0.038487,-0.026228,0.032456,-16.663158,-41.670074,17.591059,,,,,,,
1558975039.583011,-1.003539,1.320863,-0.928567,-0.291723,0.026240,-0.061153,-0.208601,-0.968929,-0.132901,-0.021501,-0.024693,0.020886,-16.603567,-41.727306,17.511557,,,,,,,
1558975039.603005,-0.982751,1.318344,-0.948027,-0.222322,0.116865,-0.002578,-0.207823,-0.968303,-0.138561,0.008833,-0.014668,0.000652,-16.574118,-41.845123,17.256485,,,,,,,
1558975039.622996,-0.977870,1.317004,-0.952509,-0.005773,-0.053350,0.027996,-0.208220,-0.967967,-0.140299,-0.008012,-0.019597,0.025172,-16.618019,-41.911240,17.052586,,,,,,,
1558975039.642985,-0.983936,1.317900,-0.949610,0.070490,-0.206081,-0.053478,-0.208345,-0.968192,-0.138553,-0.032866,-0.021478,0.040103,-16.599730,-41.901276,17.094837,,,,,,,
1558975039.662972,-0.987087,1.320240,-0.950733,0.037646,-0.192277,-0.127040,-0.206890,-0.968775,-0.136647,-0.048588,-0.016729,0.043950,-16.473972,-41.900040,17.219074,,,,,,,
1558975039.682963,-0.986570,1.322504,-0.953634,0.038005,-0.069622,-0.097040,-0.204989,-0.969334,-0.135544,-0.022093,-0.001156,0.058441,-16.279018,-41.934048,17.321394,,,,,,,
1558975039.702951,-0.987487,1.324074,-0.953258,0.047707,-0.011468,-0.050566,-0.203843,-0.969718,-0.134518,-0.014404,0.007957,0.068004,-16.215244,-41.942547,17.360579,,,,,,,
1558975039.722938,-0.988032,1.325109,-0.953262,0.016716,-0.041938,-0.037004,-0.203078,-0.969970,-0.133854,-0.020830,0.032776,0.073810,-16.167452,-41.943855,17.401941,,,,,,,
1558975039.742931,-0.988012,1.325362,-0.954699,-0.019643,-0.081880,-0.013927,-0.202870,-0.970032,-0.133723,-0.017055,0.037781,0.067927,-16.113647,-41.953114,17.429512,,,,,,,
1558975039.762895,-1.018580,1.328032,-0.926955,-0.004844,-0.108355,0.007195,-0.204656,-0.970677,-0.126101,-0.005533,0.025868,0.062640,-16.077389,-41.961617,17.442532,,,,,,,
1558975039.782905,-1.023046,1.327810,-0.924738,0.029175,-0.109551,0.033902,-0.205402,-0.970624,-0.125298,-0.005337,0.020001,0.062523,-16.081751,-41.805328,17.809923,,,,,,,
1558975039.802897,-1.028849,1.327409,-0.920427,0.036763,-0.062006,0.047175,-0.206458,-0.970527,-0.124304,-0.011330,0.017143,0.059409,-16.077946,-41.776539,17.880766,,,,,,,
1558975039.822862,-1.035468,1.326922,-0.914901,0.035632,-0.078902,0.054486,-0.207684,-0.970410,-0.123177,-0.011295,0.003872,0.079079,-16.095598,-41.752174,17.921734,,,,,,,
1558975039.842872,-1.037392,1.326133,-0.914762,-0.051693,-0.103856,0.024283,-0.208580,-0.970219,-0.123166,-0.018288,0.002628,0.097242,-16.108339,-41.728432,17.965546,,,,,,,
1558975039.862864,-1.073160,1.327967,-0.882906,-0.154913,-0.116058,-0.012201,-0.211287,-0.970661,-0.114779,-0.019365,-0.008434,0.083117,-16.142561,-41.520733,18.410534,,,,,,,
1558975039.882851,-1.079665,1.328198,-0.878641,-0.162090,-0.033570,-0.008209,-0.211831,-0.970717,-0.113296,-0.009101,-0.007188,0.026168,-16.078978,-41.519173,18.469604,,,,,,,
1558975039.902839,-1.070434,1.327026,-0.888128,-0.099123,0.020021,0.000896,-0.211774,-0.970435,-0.115792,-0.009158,-0.007470,0.028665,-16.069988,-41.562504,18.379744,,,,,,,
1558975039.922815,-1.067759,1.326540,-0.890935,-0.008823,-0.031179,0.009019,-0.211877,-0.970317,-0.116586,-0.005393,-0.006260,0.020913,-16.074493,-41.589817,18.313910,,,,,,,
1558975039.942817,-1.079447,1.327520,-0.880971,0.021892,-0.092690,-0.019301,-0.212386,-0.970554,-0.113653,-0.015031,-0.004467,0.019979,-16.062893,-41.544899,18.425697,,,,,,,
1558975039.962787,-1.080252,1.328312,-0.881663,0.005029,-0.051411,-0.041340,-0.211800,-0.970744,-0.113120,-0.005592,0.000316,0.016211,-16.062893,-41.544899,18.425697,,,,,,,
1558975039.982775,-1.082695,1.329624,-0.879263,0.011627,0.028942,-0.004266,-0.210950,-0.971059,-0.112005,0.015424,0.001607,0.009923,-15.956956,-41.544273,18.518917,,,,,,,
1558975040.002784,-1.092502,1.329901,-0.869291,0.045575,-0.001874,0.007213,-0.211800,-0.971125,-0.109806,-0.006950,0.008066,0.019505,-15.961691,-41.536049,18.533285,,,,,,,
1558975040.022744,-1.096759,1.330551,-0.865677,0.050767,-0.053736,-0.019970,-0.211704,-0.971280,-0.108616,-0.011273,0.014630,0.019932,-15.961691,-41.536049,18.533285,,,,,,,
1558975040.042764,-1.106872,1.331394,-0.857156,0.008155,-0.073625,-0.039409,-0.212059,-0.971480,-0.106103,-0.009178,0.009810,0.022286,-15.952512,-41.471882,18.684261,,,,,,,
1558975040.062750,-1.120193,1.332907,-0.845606,0.002879,-0.060914,-0.038219,-0.212130,-0.971837,-0.102629,-0.001538,0.003148,0.012587,-15.902031,-41.387955,18.912004,,,,,,,
