timestamp(unix),attitude_roll(radians),attitude_pitch(radians),attitude_yaw(radians),rotation_rate_x(radians/s),rotation_rate_y(radians/s),rotation_rate_z(radians/s),gravity_x(G),gravity_y(G),gravity_z(G),user_acc_x(G),user_acc_y(G),user_acc_z(G),magnetic_field_x(microteslas),magnetic_field_y(microteslas),magnetic_field_z(microteslas),latitude(degree),longitude(degree),altitude(meter),speed(m/s),course(degree),timestamp(unix),User Mark
1558972567.651274,1.897551,1.494169,-1.793357,-0.124154,0.088538,0.050976,0.072502,-0.997066,0.024571,-0.005333,0.002666,0.014934,-17.244415,-45.386871,-9.255239,,,,,,,
1558972567.671285,1.876152,1.496213,-1.769330,-0.094256,0.132826,0.085588,0.071067,-0.997220,0.022401,0.009347,0.029355,-0.013368,-17.297581,-45.328743,-9.439065,,,,,,,
1558972567.691271,1.850924,1.496859,-1.743109,-0.054139,-0.011280,-0.009714,0.070990,-0.997268,0.020423,0.020105,0.036712,-0.018775,-17.297581,-45.328743,-9.439065,,,,,,,
1558972567.711256,1.847817,1.495491,-1.741574,0.054258,-0.103934,-0.092723,0.072366,-0.997166,0.020576,0.002982,0.014485,-0.008201,-17.284107,-45.300152,-9.599640,,,,,,,
1558972567.731242,1.857833,1.493019,-1.754131,0.112757,-0.128586,-0.115333,0.074521,-0.996977,0.021998,0.009372,0.012968,-0.012964,-17.192986,-45.360378,-9.478119,,,,,,,
1558972567.751228,1.862927,1.490479,-1.761410,0.017030,-0.102707,-0.109824,0.076832,-0.996776,0.023106,0.012554,0.009945,-0.027333,-17.152245,-45.390495,-9.407495,,,,,,,
1558972567.771214,1.825018,1.490099,-1.725056,-0.135092,-0.041511,-0.028167,0.078018,-0.996746,0.020273,-0.003250,-0.003407,-0.023416,-17.053205,-45.432571,-9.384379,,,,,,,
1558972567.791184,1.763043,1.491930,-1.662823,-0.242482,0.020437,0.023589,0.077334,-0.996892,0.015053,-0.007540,0.003987,-0.011986,-17.070358,-45.379433,-9.607657,,,,,,,
1558972567.811184,1.711249,1.493160,-1.610265,-0.174287,0.036976,0.014193,0.076794,-0.996988,0.010857,-0.005765,0.002725,0.000510,-17.088085,-45.345264,-9.736616,,,,,,,
1558972567.831170,1.708232,1.494077,-1.606029,-0.032643,0.060558,0.024143,0.075921,-0.997059,0.010501,-0.005029,-0.023846,0.027219,-17.119352,-45.288807,-9.942288,,,,,,,
1558972567.851125,1.712712,1.493940,-1.609790,-0.010380,0.013872,-0.016857,0.076008,-0.997048,0.010860,0.016811,-0.012916,0.013371,-17.133596,-45.284615,-9.936830,,,,,,,
1558972567.871140,1.706120,1.492797,-1.603950,-0.013753,-0.071830,-0.084942,0.077208,-0.996960,0.010512,0.014437,-0.010075,0.019059,-17.099731,-45.299610,-9.926843,,,,,,,
1558972567.891127,1.701583,1.489658,-1.601993,0.005197,-0.159739,-0.137018,0.080357,-0.996710,0.010570,0.021099,0.011694,0.011250,-17.007118,-45.341225,-9.895873,,,,,,,
1558972567.911092,1.686460,1.487996,-1.589560,-0.092670,-0.100963,-0.052190,0.082153,-0.996574,0.009545,0.011490,0.001091,0.007133,-16.908289,-45.389244,-9.844975,,,,,,,
1558972567.931073,1.652268,1.488949,-1.555313,-0.158325,0.040143,0.049495,0.081484,-0.996652,0.006653,-0.011615,0.020136,-0.002686,-16.905483,-45.376881,-9.906587,,,,,,,
1558972567.951075,1.626044,1.490390,-1.527926,-0.078496,0.042911,0.060262,0.080197,-0.996769,0.004435,-0.004742,0.040409,-0.027751,-16.968487,-45.313034,-10.089445,,,,,,,
1558972567.971059,1.621800,1.490983,-1.523642,0.016125,-0.015796,0.010664,0.079626,-0.996817,0.004065,-0.025213,0.017935,-0.020636,-17.002445,-45.290527,-10.133228,,,,,,,
1558972567.991029,1.628546,1.491478,-1.530575,0.064140,0.005046,-0.020057,0.079103,-0.996856,0.004573,-0.027925,0.020660,-0.015865,-17.006809,-45.291965,-10.119445,,,,,,,
1558972568.011016,1.648282,1.490992,-1.549575,0.072831,0.061030,-0.014176,0.079480,-0.996817,0.006171,-0.017011,0.013999,-0.002493,-17.012016,-45.303959,-10.056833,,,,,,,
1558972568.031026,1.655513,1.490864,-1.555764,-0.008128,0.046668,-0.006905,0.079561,-0.996807,0.006756,-0.009005,0.019192,-0.014309,-16.994999,-45.315186,-10.034992,,,,,,,
1558972568.051006,1.653912,1.490513,-1.553192,0.013200,0.049698,-0.026076,0.079919,-0.996779,0.006658,-0.005792,0.025786,-0.000799,-16.985489,-45.315590,-10.049252,,,,,,,
1558972568.070981,1.674049,1.489855,-1.572878,0.123750,0.002610,-0.025371,0.080423,-0.996726,0.008334,0.031409,0.039145,0.009229,-16.942478,-45.336544,-10.027344,,,,,,,
1558972568.090982,1.708620,1.489232,-1.608477,0.134171,-0.066080,0.002867,0.080701,-0.996675,0.011193,0.021396,0.025621,-0.003351,-16.929478,-45.372295,-9.886600,,,,,,,
1558972568.110943,1.715720,1.490338,-1.616077,-0.046610,0.022711,0.076172,0.079529,-0.996765,0.011607,-0.006714,0.001022,0.002675,-16.950851,-45.379959,-9.814541,,,,,,,
1558972568.130950,1.696811,1.492271,-1.595660,-0.110323,0.078036,0.093733,0.077823,-0.996918,0.009859,0.001599,-0.001128,0.000364,-17.036951,-45.329212,-9.899594,,,,,,,
1558972568.150938,1.675788,1.493740,-1.573817,-0.083811,0.022852,0.039843,0.076556,-0.997033,0.008067,0.010235,-0.008842,0.011586,-17.096128,-45.283276,-10.007227,,,,,,,
1558972568.170910,1.663958,1.493860,-1.561919,-0.023246,-0.024018,0.010616,0.076526,-0.997042,0.007150,0.008328,-0.000456,0.002204,-17.109501,-45.266411,-10.060549,,,,,,,
1558972568.190911,1.661832,1.493924,-1.560714,0.001173,-0.046354,0.004015,0.076479,-0.997047,0.006982,-0.003130,-0.007271,-0.000787,-17.108685,-45.266346,-10.062219,,,,,,,
1558972568.210895,1.657735,1.494417,-1.557333,-0.001979,-0.025170,0.022366,0.076016,-0.997085,0.006625,0.000827,-0.016892,-0.006534,-17.138128,-45.257053,-10.053895,,,,,,,
1558972568.230854,1.647973,1.494909,-1.547745,-0.033803,-0.000723,0.001222,0.075589,-0.997122,0.005845,0.001041,-0.011652,-0.006990,-17.164022,-45.243813,-10.069291,,,,,,,
1558972568.250867,1.634527,1.494656,-1.534382,-0.020982,-0.008187,-0.017999,0.075911,-0.997103,0.004844,-0.004958,0.003756,-0.012306,-17.151304,-45.238239,-10.115908,,,,,,,
1558972568.270851,1.620108,1.494959,-1.520416,-0.001891,-0.019886,0.001123,0.075673,-0.997126,0.003735,-0.008946,0.005625,-0.019283,-17.157677,-45.227322,-10.153861,,,,,,,
1558972568.290836,1.607811,1.495079,-1.508130,-0.024113,0.014031,-0.014584,0.075592,-0.997135,0.002799,-0.002121,0.012958,-0.008567,-17.177996,-45.210159,-10.195837,,,,,,,
1558972568.310824,1.608983,1.494588,-1.508981,0.020571,0.006397,-0.014622,0.076080,-0.997098,0.002907,0.005616,0.012982,0.005287,-17.159288,-45.210022,-10.227907,,,,,,,
1558972568.330783,1.623219,1.493255,-1.523406,-0.010320,-0.001900,-0.016865,0.077356,-0.996995,0.004059,0.021032,0.014497,0.017715,-17.120272,-45.235744,-10.179458,,,,,,,
1558972568.350794,1.629186,1.492051,-1.529069,-0.061414,0.014280,0.020613,0.078531,-0.996901,0.004591,0.025092,0.003417,0.033419,-17.057976,-45.265896,-10.149948,,,,,,,
1558972568.370780,1.624868,1.493051,-1.524619,-0.116921,0.003065,0.101601,0.077554,-0.996979,0.004198,0.006735,-0.004196,0.024458,-17.043390,-45.268963,-10.160763,,,,,,,
1558972568.390748,1.587106,1.496296,-1.486172,-0.186067,0.037320,0.146716,0.074421,-0.997226,0.001214,-0.037968,-0.002087,-0.023812,-17.137760,-45.219101,-10.223873,,,,,,,
1558972568.410750,1.536303,1.498594,-1.434924,-0.170076,0.004419,0.087754,0.072096,-0.997395,-0.002488,-0.050963,-0.003765,-0.025024,-17.272202,-45.126637,-10.404576,,,,,,,
1558972568.430736,1.519745,1.498999,-1.417847,0.030270,0.020108,-0.026174,0.071642,-0.997424,-0.003661,-0.033693,0.016665,-0.037630,-17.338799,-45.066326,-10.554145,,,,,,,
1558972568.450704,1.556792,1.498218,-1.455552,0.246237,-0.040297,-0.077825,0.072508,-0.997367,-0.001015,-0.005979,0.013633,-0.037391,-17.303398,-45.094040,-10.493673,,,,,,,
1558972568.470694,1.625475,1.496384,-1.525415,0.230296,-0.035998,-0.086338,0.074232,-0.997233,0.004063,-0.007017,0.010569,-0.038868,-17.282019,-45.134945,-10.352104,,,,,,,
1558972568.490693,1.653086,1.494918,-1.552827,0.038910,0.048568,-0.048314,0.075549,-0.997123,0.006231,-0.000995,0.011573,-0.025930,-17.181475,-45.234894,-10.079612,,,,,,,
1558972568.510671,1.651501,1.494409,-1.549723,0.033668,0.093053,-0.006254,0.076065,-0.997084,0.006152,0.007294,0.033049,-0.015796,-17.147585,-45.247643,-10.080123,,,,,,,
1558972568.530662,1.681376,1.494299,-1.578479,0.166528,0.035286,0.000772,0.075957,-0.997075,0.008434,0.013032,0.045217,-0.023662,-17.125793,-45.250671,-10.103505,,,,,,,
1558972568.550649,1.749635,1.493030,-1.646050,0.322031,0.048164,-0.029942,0.076450,-0.996978,0.013820,-0.013843,0.018294,-0.004268,-17.098936,-45.311623,-9.873207,,,,,,,
1558972568.570634,1.834693,1.491049,-1.731055,0.317702,0.005958,-0.030307,0.076905,-0.996822,0.020780,-0.009263,-0.007008,0.009677,-17.078772,-45.369530,-9.639432,,,,,,,
1558972568.590620,1.892685,1.488272,-1.789728,0.236755,-0.030686,-0.079834,0.078197,-0.996597,0.026078,-0.011211,-0.020600,0.019729,-17.043392,-45.441090,-9.360965,,,,,,,
1558972568.610606,1.934826,1.485677,-1.832095,0.145283,0.000478,-0.059323,0.079445,-0.996379,0.030270,0.000709,-0.010578,0.013065,-16.969275,-45.525246,-9.082574,,,,,,,
1558972568.630575,1.954976,1.484378,-1.852528,0.084534,-0.001250,-0.014547,0.080019,-0.996268,0.032349,0.001615,0.008689,0.012664,-16.939741,-45.553959,-8.993309,,,,,,,
1558972568.650552,1.970814,1.484081,-1.868024,0.060113,0.033812,0.021001,0.079770,-0.996243,0.033728,0.000492,-0.000126,-0.001303,-16.932699,-45.571167,-8.919059,,,,,,,
1558972568.670561,1.982401,1.484093,-1.878778,0.032509,0.054034,0.016902,0.079363,-0.996244,0.034645,0.005263,-0.013263,0.007073,-16.946983,-45.574608,-8.874231,,,,,,,
1558972568.690548,1.989669,1.484370,-1.884811,0.014374,0.047805,0.028572,0.078857,-0.996268,0.035109,0.006440,-0.000894,-0.001448,-16.952587,-45.573101,-8.871264,,,,,,,
1558972568.710522,1.986675,1.484482,-1.881420,-0.013396,0.003503,-0.007107,0.078859,-0.996277,0.034827,0.005858,-0.002273,-0.007361,-16.961830,-45.568432,-8.877566,,,,,,,
1558972568.730498,1.976806,1.484242,-1.871742,-0.006939,-0.007071,-0.025269,0.079419,-0.996257,0.034142,-0.002224,-0.000829,-0.004311,-16.933681,-45.571182,-8.917116,,,,,,,
1558972568.750505,1.976019,1.484289,-1.870798,0.009082,0.016120,-0.011153,0.079402,-0.996261,0.034061,-0.004817,-0.005021,-0.002353,-16.927092,-45.571487,-8.928072,,,,,,,
1558972568.770489,1.973732,1.484402,-1.867814,-0.002606,0.029945,0.003917,0.079377,-0.996270,0.033835,-0.000092,0.000421,-0.013266,-16.927801,-45.570724,-8.930609,,,,,,,
1558972568.790465,1.951506,1.483795,-1.845280,-0.020735,0.007799,-0.025140,0.080670,-0.996218,0.032287,0.011585,0.023501,-0.021392,-16.884476,-45.572941,-9.001049,,,,,,,
1558972568.810462,1.940666,1.483106,-1.834572,0.005864,-0.009298,-0.055177,0.081655,-0.996158,0.031659,-0.005209,0.020267,-0.002835,-16.827711,-45.583244,-9.055017,,,,,,,
1558972568.830447,1.946674,1.482022,-1.840489,0.068724,0.012585,-0.044240,0.082468,-0.996062,0.032545,-0.009058,0.014907,0.000108,-16.807026,-45.591660,-9.051043,,,,,,,
1558972568.850418,1.964953,1.480178,-1.858352,0.107067,0.020846,-0.039861,0.083556,-0.995897,0.034753,0.003160,0.010133,-0.002999,-16.740606,-45.636703,-8.946547,,,,,,,
1558972568.870419,1.954393,1.478591,-1.848917,-0.096615,-0.107097,-0.078618,0.085383,-0.995752,0.034460,0.017522,0.006098,0.036692,-16.688005,-45.657139,-8.940534,,,,,,,
1558972568.890392,1.946653,1.478206,-1.840688,0.015577,0.049906,-0.012965,0.086004,-0.995717,0.033939,-0.030889,-0.020885,0.042264,-16.633121,-45.676075,-8.946110,,,,,,,
1558972568.910376,1.972350,1.478438,-1.864746,0.117907,0.096007,0.054903,0.084890,-0.995738,0.036047,0.001841,0.026897,-0.017217,-16.645746,-45.679150,-8.906831,,,,,,,
1558972568.930349,1.980860,1.477758,-1.872675,0.035762,-0.004129,-0.046481,0.085202,-0.995675,0.037038,0.000201,0.024896,-0.020650,-16.643631,-45.688332,-8.863573,,,,,,,
1558972568.950329,1.977233,1.476450,-1.869972,0.017526,-0.054796,-0.064063,0.086531,-0.995553,0.037243,-0.004378,0.019524,-0.002652,-16.620623,-45.699642,-8.848449,,,,,,,
1558972568.970336,1.982914,1.475211,-1.876006,0.062356,0.008474,-0.006837,0.087448,-0.995435,0.038228,0.010818,-0.000994,0.002513,-16.557667,-45.733513,-8.791303,,,,,,,
1558972568.990316,1.995113,1.475002,-1.887904,0.037885,0.024498,0.019988,0.087165,-0.995415,0.039378,0.003624,0.015526,-0.031169,-16.546162,-45.746319,-8.746205,,,,,,,
1558972569.010316,1.997589,1.475351,-1.889948,-0.017453,0.027957,0.017841,0.086751,-0.995449,0.039450,-0.002050,0.021663,-0.041540,-16.556522,-45.746548,-8.725371,,,,,,,
1558972569.030302,1.986806,1.476326,-1.878411,-0.048239,0.045000,-0.002304,0.086284,-0.995541,0.038120,-0.012187,0.003582,-0.021396,-16.568396,-45.733852,-8.769283,,,,,,,
1558972569.050283,1.980421,1.476372,-1.871403,-0.013091,0.017377,-0.011017,0.086485,-0.995545,0.037550,-0.002836,-0.003585,0.002931,-16.568872,-45.719273,-8.844090,,,,,,,
1558972569.070273,1.984920,1.475869,-1.875520,0.049708,0.013870,-0.015271,0.086772,-0.995498,0.038140,-0.005657,0.001327,-0.012628,-16.557377,-45.723007,-8.846300,,,,,,,
1558972569.090259,1.987367,1.475671,-1.877620,0.068885,0.029656,0.006248,0.086860,-0.995479,0.038433,0.002266,0.002437,-0.021282,-16.542852,-45.735065,-8.811070,,,,,,,
1558972569.110244,1.990849,1.475661,-1.880230,0.027438,0.057376,0.020359,0.086734,-0.995478,0.038738,0.006101,0.004145,-0.035961,-16.534647,-45.734539,-8.829180,,,,,,,
1558972569.130229,1.982531,1.476771,-1.870788,-0.028996,0.059807,0.034217,0.086041,-0.995583,0.037574,-0.000882,0.004387,-0.038016,-16.539770,-45.732536,-8.829951,,,,,,,
1558972569.150216,1.965380,1.478004,-1.852330,-0.009757,0.077649,0.017320,0.085538,-0.995698,0.035620,0.007266,-0.015868,-0.026679,-16.573195,-45.691784,-8.977036,,,,,,,
1558972569.170201,1.960120,1.478743,-1.845839,0.033717,0.050012,0.067269,0.085044,-0.995766,0.034891,0.017312,-0.046196,-0.081186,-16.563856,-45.674862,-9.079801,,,,,,,
1558972569.190186,1.979876,1.480711,-1.866238,0.049142,-0.084209,0.134326,0.082540,-0.995945,0.035784,0.024226,-0.059597,-0.127093,-16.598818,-45.664246,-9.069347,,,,,,,
1558972569.210143,1.988315,1.481466,-1.877365,0.014125,-0.137019,-0.000661,0.081548,-0.996013,0.036175,-0.055761,-0.088826,-0.237057,-16.765274,-45.623737,-8.966475,,,,,,,
1558972569.230085,1.977734,1.480938,-1.869116,-0.043068,-0.068076,-0.042753,0.082409,-0.995965,0.035518,-0.113399,-0.142401,-0.356975,-16.763592,-45.631660,-8.929218,,,,,,,
1558972569.250061,1.965874,1.481707,-1.854371,-0.115465,0.296062,0.054628,0.082118,-0.996034,0.034244,-0.111491,-0.148070,-0.384158,-16.763592,-45.631660,-8.929218,,,,,,,
1558972569.270037,1.934134,1.487607,-1.811925,-0.409535,0.652081,0.306561,0.077669,-0.996542,0.029531,-0.079332,-0.016260,-0.542959,-16.746298,-45.600285,-9.119915,,,,,,,
1558972569.290016,1.828312,1.498414,-1.688662,-0.717265,0.966636,0.348829,0.069934,-0.997382,0.018418,-0.051227,0.117850,-0.616975,-16.965239,-45.314499,-10.088334,,,,,,,
1558972569.309997,1.661673,1.503623,-1.501277,-0.600526,1.015156,-0.017884,0.066846,-0.997745,0.006092,-0.061628,0.132602,-0.572208,-16.965239,-45.314499,-10.088334,,,,,,,
1558972569.329995,1.591458,1.498476,-1.411821,-0.088190,0.931542,-0.413304,0.072241,-0.997386,0.001493,-0.153356,-0.016789,-0.299940,-16.819168,-45.033844,-11.491984,,,,,,,
1558972569.349984,1.649929,1.486633,-1.452801,0.308998,0.859322,-0.661371,0.083800,-0.996460,0.006645,-0.135924,-0.081726,-0.218086,-15.899981,-45.235924,-11.995797,,,,,,,
1558972569.369964,1.721466,1.471945,-1.505907,0.274389,1.002152,-0.694197,0.097572,-0.995118,0.014813,-0.112724,-0.070830,-0.218839,-15.489755,-45.381317,-11.983360,,,,,,,
1558972569.389952,1.734937,1.461827,-1.495283,-0.160332,1.350640,-0.347356,0.107291,-0.994069,0.017771,-0.052756,-0.021770,-0.200617,-14.243254,-45.737110,-12.175542,,,,,,,
1558972569.409949,1.676631,1.462690,-1.405216,-0.672100,1.655324,0.153742,0.107292,-0.994162,0.011398,-0.043357,0.021964,-0.198547,-13.826901,-45.726875,-12.683337,,,,,,,
1558972569.429940,1.552897,1.469496,-1.245729,-0.904089,1.756162,0.328548,0.101112,-0.994873,-0.001810,-0.055122,0.074356,-0.153875,-13.552991,-45.488514,-13.788001,,,,,,,
1558972569.449924,1.423700,1.471977,-1.081859,-0.698563,1.668040,0.082310,0.097593,-0.995121,-0.014460,-0.151639,0.034291,0.004679,-13.229423,-45.084717,-15.341059,,,,,,,
1558972569.469910,1.366912,1.469165,-0.991490,-0.335326,1.654214,-0.112911,0.099355,-0.994840,-0.020542,-0.145055,0.041089,0.052739,-12.848650,-44.938835,-16.075165,,,,,,,
1558972569.489896,1.376409,1.465945,-0.969625,-0.039867,1.505715,-0.126908,0.102688,-0.994508,-0.020217,-0.128354,0.084977,0.058852,-12.206841,-44.871628,-16.748943,,,,,,,
1558972569.509882,1.425710,1.465177,-0.990200,0.180998,1.397987,0.001423,0.104315,-0.994428,-0.015242,-0.114981,0.072919,0.146757,-11.467131,-44.907265,-17.170906,,,,,,,
1558972569.529855,1.497708,1.468458,-1.035778,0.269773,1.299533,0.213014,0.101887,-0.994768,-0.007460,-0.084492,0.052019,0.227843,-11.151134,-44.954163,-17.256090,,,,,,,
1558972569.549853,1.565203,1.472585,-1.078728,0.187511,1.176187,0.140235,0.098052,-0.995181,-0.000548,-0.072082,0.047076,0.244094,-10.893604,-44.996841,-17.309277,,,,,,,
1558972569.569839,1.615191,1.472765,-1.107805,0.125457,0.999727,-0.037666,0.097778,-0.995199,0.004344,-0.075073,0.017553,0.382344,-10.499979,-45.047554,-17.420258,,,,,,,
1558972569.589822,1.660262,1.472171,-1.134219,0.150633,0.906643,0.006304,0.098072,-0.995140,0.008798,-0.042392,0.020958,0.425117,-10.135061,-45.097797,-17.506187,,,,,,,
1558972569.609781,1.719737,1.473198,-1.176161,0.218548,0.894830,0.121552,0.096364,-0.995241,0.014460,-0.016118,0.018022,0.444860,-9.986385,-45.124069,-17.523920,,,,,,,
1558972569.629783,1.786626,1.476309,-1.225917,0.192658,0.844404,0.238489,0.092158,-0.995539,0.020205,-0.023601,0.000788,0.483762,-9.707849,-45.193707,-17.500965,,,,,,,
1558972569.649781,1.835260,1.480426,-1.258515,0.022151,0.773378,0.208846,0.087110,-0.995919,0.023590,-0.006024,-0.021354,0.525086,-9.637992,-45.195663,-17.534498,,,,,,,
1558972569.669761,1.837221,1.483124,-1.247536,-0.117815,0.550873,0.066743,0.084471,-0.996159,0.023053,0.003634,0.003026,0.524417,-9.592129,-45.176460,-17.608978,,,,,,,
1558972569.689745,1.832724,1.484635,-1.234898,-0.021718,0.317830,0.069927,0.083119,-0.996290,0.022283,-0.013799,0.032896,0.574946,-9.416718,-45.104202,-17.886683,,,,,,,
1558972569.709706,1.860908,1.485553,-1.258681,0.148112,0.161529,0.051485,0.081582,-0.996369,0.024355,-0.031075,0.018433,0.578856,-9.391492,-45.105206,-17.897423,,,,,,,
1558972569.729720,1.907442,1.483849,-1.304187,0.237158,0.001297,-0.052472,0.081963,-0.996222,0.028684,-0.031457,0.018287,0.574526,-9.391492,-45.105206,-17.897423,,,,,,,
1558972569.749708,1.945986,1.481630,-1.344303,0.157949,-0.119805,-0.027003,0.082854,-0.996027,0.032632,-0.045073,-0.036382,0.569724,-9.330723,-45.260075,-17.534552,,,,,,,
1558972569.769695,1.948446,1.480985,-1.350888,-0.026602,-0.240394,-0.028306,0.083370,-0.995970,0.033072,0.018696,-0.044130,0.552545,-9.374759,-45.293419,-17.424622,,,,,,,
1558972569.789660,1.916588,1.480898,-1.324575,-0.150363,-0.329602,-0.036732,0.084463,-0.995962,0.030429,0.032999,0.010534,0.448620,-9.412316,-45.282776,-17.432037,,,,,,,
1558972569.809650,1.873850,1.482387,-1.289839,-0.150925,-0.465841,0.038834,0.084270,-0.996094,0.026350,0.021458,0.009370,0.428377,-9.475605,-45.248238,-17.487345,,,,,,,
1558972569.829651,1.851876,1.481670,-1.279606,0.057272,-0.679654,-0.134937,0.085515,-0.996031,0.024690,-0.014196,0.001295,0.435621,-9.742455,-45.185440,-17.503082,,,,,,,
1558972569.849609,1.866406,1.473887,-1.310810,0.359328,-0.896266,-0.437845,0.092560,-0.995308,0.028188,-0.023743,-0.027000,0.456584,-9.787147,-45.219345,-17.390224,,,,,,,
1558972569.869616,1.901061,1.461508,-1.365394,0.482425,-1.043939,-0.506422,0.103176,-0.994034,0.035371,-0.019344,-0.051636,0.398574,-9.657978,-45.534561,-16.623011,,,,,,,
1558972569.889607,1.920240,1.450979,-1.407245,0.327465,-1.155987,-0.346404,0.112307,-0.992830,0.040924,-0.041247,-0.040586,0.321777,-9.597601,-45.765957,-16.011263,,,,,,,
1558972569.909576,1.912698,1.445088,-1.423506,0.125979,-1.176898,-0.193024,0.118120,-0.992109,0.042037,-0.069857,-0.027132,0.299974,-9.634943,-45.844398,-15.762486,,,,,,,
1558972569.929578,1.893930,1.441550,-1.427593,0.078210,-1.119513,-0.156213,0.122216,-0.991659,0.040927,-0.118829,0.023047,0.220517,-9.913122,-45.959305,-15.246945,,,,,,,
1558972569.949563,1.881172,1.437591,-1.437056,0.151653,-1.126213,-0.171055,0.126466,-0.991141,0.040563,-0.077699,0.030219,0.157725,-10.094806,-46.023190,-14.931798,,,,,,,
1558972569.969549,1.874341,1.433481,-1.455196,0.189222,-1.346240,-0.151778,0.130627,-0.990587,0.040915,-0.060482,0.038194,0.100885,-10.094806,-46.023190,-14.931798,,,,,,,
1558972569.989536,1.864132,1.429438,-1.475830,0.202171,-1.619026,-0.157582,0.134870,-0.990026,0.040737,-0.078596,0.057347,-0.030224,-10.573631,-46.192894,-14.050337,,,,,,,
1558972570.009501,1.856520,1.424884,-1.502661,0.293312,-1.746361,-0.167269,0.139500,-0.989374,0.040980,-0.141301,0.071817,-0.083705,-10.886287,-46.289761,-13.481250,,,,,,,
1558972570.029490,1.870679,1.419243,-1.551450,0.528797,-1.671481,-0.158890,0.144236,-0.988538,0.044599,-0.191706,0.076016,-0.123777,-11.039829,-46.350094,-13.144887,,,,,,,
1558972570.049492,1.920542,1.412341,-1.633046,0.778551,-1.445458,-0.106347,0.148241,-0.987472,0.054069,-0.131075,0.030563,-0.219551,-11.445251,-46.613258,-11.798624,,,,,,,
1558972570.069460,1.970844,1.405476,-1.711744,0.631951,-1.346359,-0.088434,0.151575,-0.986366,0.064093,-0.124399,0.029929,-0.237403,-11.619879,-46.761230,-11.016514,,,,,,,
1558972570.089462,1.987211,1.399388,-1.756277,0.389209,-1.391702,-0.161663,0.155994,-0.985345,0.068993,-0.123218,0.021784,-0.244866,-11.772902,-46.877895,-10.337251,,,,,,,
1558972570.109448,1.995303,1.393342,-1.791187,0.427936,-1.244904,-0.110047,0.160856,-0.984296,0.072705,-0.079573,-0.043643,-0.329923,-11.956255,-47.053822,-9.272705,,,,,,,
1558972570.129419,2.020116,1.391074,-1.839518,0.409971,-1.065721,0.194865,0.161014,-0.983893,0.077644,-0.087955,-0.065148,-0.376624,-12.092560,-47.120201,-8.743780,,,,,,,
1558972570.149414,2.035019,1.394425,-1.873741,0.041026,-0.887106,0.298774,0.156890,-0.984487,0.078558,-0.091232,-0.053935,-0.397909,-12.361725,-47.136425,-8.266944,,,,,,,
1558972570.169404,2.014661,1.400399,-1.870372,-0.220483,-0.810787,0.229897,0.153142,-0.985517,0.072821,-0.104375,-0.073244,-0.396688,-12.972729,-47.031902,-7.918703,,,,,,,
1558972570.189370,1.993811,1.406341,-1.863080,-0.138962,-0.600800,0.276814,0.149285,-0.986508,0.067207,-0.102150,-0.082966,-0.395576,-13.223240,-46.962204,-7.917974,,,,,,,
1558972570.209375,1.987213,1.413511,-1.866591,-0.134322,-0.447437,0.358359,0.143253,-0.987656,0.063358,-0.087955,-0.083816,-0.409900,-13.589621,-46.862629,-7.887557,,,,,,,
1558972570.229361,1.967913,1.420560,-1.854837,-0.277600,-0.376056,0.229742,0.138025,-0.988736,0.057887,-0.087091,-0.004611,-0.446025,-14.054884,-46.715603,-7.944196,,,,,,,
1558972570.249335,1.929517,1.425261,-1.822923,-0.289866,-0.293780,0.071440,0.135791,-0.989428,0.050914,-0.115543,-0.030713,-0.333171,-14.272863,-46.618542,-8.123659,,,,,,,
1558972570.269332,1.901754,1.426217,-1.798321,-0.115523,-0.099341,-0.056812,0.136257,-0.989567,0.046817,-0.109081,-0.032345,-0.284656,-14.324633,-46.576481,-8.272469,,,,,,,
1558972570.289317,1.889725,1.424939,-1.786171,-0.062795,0.054645,-0.098002,0.138011,-0.989382,0.045571,-0.109614,-0.032454,-0.199029,-14.258123,-46.586227,-8.332268,,,,,,,
1558972570.309303,1.870696,1.424142,-1.763971,-0.199681,0.193858,-0.080765,0.139607,-0.989266,0.043170,-0.026554,-0.033409,-0.091754,-14.154023,-46.594139,-8.464458,,,,,,,
1558972570.329288,1.837263,1.424941,-1.725877,-0.312581,0.211484,0.000455,0.140209,-0.989382,0.038271,-0.013287,-0.027662,-0.069353,-14.079527,-46.578571,-8.671835,,,,,,,
1558972570.349272,1.802747,1.427900,-1.687162,-0.284144,0.167097,0.105750,0.138597,-0.989808,0.032737,0.002181,0.017243,-0.060065,-14.071857,-46.498375,-9.103892,,,,,,,
1558972570.369259,1.779090,1.430632,-1.660964,-0.160904,0.078667,0.071905,0.136686,-0.990193,0.028890,-0.027982,0.004506,-0.022435,-14.140953,-46.425270,-9.366173,,,,,,,
1558972570.389221,1.766312,1.431266,-1.648059,-0.057907,-0.045695,-0.028494,0.136428,-0.990281,0.027019,-0.032561,-0.011840,0.003285,-14.163837,-46.402702,-9.443092,,,,,,,
1558972570.409228,1.760729,1.429468,-1.643339,-0.001268,-0.022884,-0.126454,0.138325,-0.990030,0.026593,-0.042622,-0.039343,0.036288,-14.115128,-46.406075,-9.499297,,,,,,,
1558972570.429216,1.751027,1.427011,-1.633499,-0.086268,0.023006,-0.131422,0.140970,-0.989681,0.025686,-0.020761,-0.027211,0.058802,-13.994032,-46.438557,-9.519712,,,,,,,
1558972570.449188,1.731959,1.425404,-1.612494,-0.146709,0.115352,-0.085745,0.143004,-0.989449,0.023248,-0.028547,-0.008689,0.060095,-13.931566,-46.446632,-9.571778,,,,,,,
1558972570.469169,1.719565,1.424724,-1.596140,-0.081482,0.232428,-0.024784,0.143946,-0.989350,0.021574,0.009680,0.032197,0.057451,-13.780439,-46.441475,-9.812531,,,,,,,
1558972570.489173,1.720962,1.425144,-1.592429,0.001490,0.239470,0.028732,0.143504,-0.989411,0.021713,0.040639,0.053682,0.051285,-13.733929,-46.430565,-9.928697,,,,,,,
1558972570.509155,1.732243,1.424908,-1.599924,0.090718,0.155411,-0.029654,0.143480,-0.989377,0.023368,0.048613,0.043027,0.055673,-13.722646,-46.428299,-9.954866,,,,,,,
1558972570.529132,1.748140,1.422954,-1.614925,0.130755,-0.003461,-0.102675,0.144994,-0.989091,0.025987,0.039363,0.021913,0.049804,-13.628189,-46.473087,-9.875309,,,,,,,
1558972570.549111,1.757658,1.420204,-1.625979,0.087875,-0.104740,-0.123964,0.147412,-0.988682,0.027871,0.014484,0.045231,0.018073,-13.530116,-46.527184,-9.754711,,,,,,,
1558972570.569113,1.763849,1.417714,-1.634103,0.084795,-0.052874,-0.086103,0.149652,-0.988306,0.029255,0.006598,0.035974,0.030742,-13.482939,-46.552326,-9.699932,,,,,,,
1558972570.589100,1.778902,1.417241,-1.649207,0.047572,0.013040,0.037279,0.149652,-0.988234,0.031601,0.002219,0.040968,-0.000778,-13.411710,-46.608669,-9.526548,,,,,,,
1558972570.609085,1.782617,1.418438,-1.652618,-0.002529,0.004890,0.065987,0.148377,-0.988416,0.031908,0.004913,0.045606,-0.016665,-13.445992,-46.602615,-9.507823,,,,,,,
1558972570.629071,1.763051,1.418859,-1.633995,-0.002667,-0.056488,0.018419,0.148565,-0.988480,0.028920,0.005961,0.042038,-0.035404,-13.502763,-46.585770,-9.509939,,,,,,,
1558972570.649046,1.764043,1.418571,-1.636903,0.045123,-0.109653,-0.023690,0.148816,-0.988436,0.029122,-0.005749,0.036577,-0.038246,-13.489059,-46.572124,-9.595836,,,,,,,
1558972570.669015,1.771781,1.418106,-1.646390,0.093135,-0.061234,0.008841,0.149037,-0.988365,0.030364,-0.002949,0.029137,-0.064467,-13.489094,-46.584469,-9.535673,,,,,,,
1558972570.689028,1.782943,1.418325,-1.658739,0.083526,-0.059035,0.032343,0.148476,-0.988399,0.031980,0.003181,0.024562,-0.091138,-13.503878,-46.595505,-9.460526,,,,,,,
1558972570.709014,1.789055,1.418446,-1.666365,0.037718,-0.079969,0.009685,0.148161,-0.988417,0.032861,-0.003263,-0.002428,-0.121316,-13.558519,-46.605648,-9.331545,,,,,,,
1558972570.728982,1.790225,1.418435,-1.669421,0.022763,-0.093624,0.014880,0.148133,-0.988415,0.033037,0.006865,-0.050159,-0.135423,-13.578065,-46.609711,-9.282667,,,,,,,
1558972570.748984,1.796827,1.419416,-1.677716,0.072737,-0.076864,0.088748,0.146967,-0.988564,0.033797,0.022451,-0.069328,-0.148695,-13.597662,-46.608910,-9.257982,,,,,,,
1558972570.768970,1.812668,1.420878,-1.696167,0.142738,-0.151213,0.095566,0.145009,-0.988783,0.035774,0.011393,-0.105455,-0.245491,-13.747166,-46.595524,-9.103268,,,,,,,
1558972570.788955,1.834785,1.421300,-1.722134,0.197022,-0.167401,0.063425,0.143780,-0.988846,0.038863,-0.053066,-0.145980,-0.274062,-13.850145,-46.604664,-8.898081,,,,,,,
1558972570.808940,1.856949,1.422501,-1.745809,0.099613,0.027718,0.142085,0.141744,-0.989024,0.041705,-0.076223,-0.157979,-0.285464,-13.895761,-46.612293,-8.786319,,,,,,,
1558972570.828927,1.862116,1.426960,-1.746638,-0.165630,0.346383,0.254891,0.137301,-0.989673,0.041170,-0.077898,-0.111309,-0.354829,-14.016980,-46.596432,-8.677197,,,,,,,
1558972570.848893,1.835524,1.433871,-1.709318,-0.432024,0.583485,0.247338,0.131743,-0.990640,0.035714,-0.039458,-0.000403,-0.434823,-14.262306,-46.436630,-9.122698,,,,,,,
1558972570.868897,1.791466,1.439868,-1.652112,-0.402917,0.656139,0.162645,0.127388,-0.991441,0.028576,-0.036003,0.003999,-0.404064,-14.338108,-46.323872,-9.566332,,,,,,,
1558972570.888882,1.768364,1.442070,-1.615035,-0.167304,0.689532,-0.005535,0.125874,-0.991726,0.025197,-0.068043,0.008953,-0.349126,-14.351997,-46.231300,-9.984209,,,,,,,
1558972570.908853,1.768369,1.440127,-1.601051,-0.032924,0.686449,-0.181619,0.127763,-0.991475,0.025576,-0.076341,0.045842,-0.318392,-14.101514,-46.195408,-10.494227,,,,,,,
1558972570.928835,1.771549,1.434882,-1.590685,-0.007211,0.681906,-0.302286,0.132775,-0.990778,0.027019,-0.078469,0.057535,-0.301998,-13.935629,-46.220955,-10.602780,,,,,,,
1558972570.948824,1.784189,1.430386,-1.587803,0.043177,0.861565,-0.146785,0.136776,-0.990159,0.029638,-0.063625,0.088135,-0.239767,-13.335234,-46.331917,-10.886783,,,,,,,
1558972570.968800,1.807739,1.430866,-1.590968,-0.021418,1.093851,0.130941,0.135577,-0.990226,0.032739,-0.092440,0.090278,-0.203256,-13.085396,-46.349876,-11.111189,,,,,,,
1558972570.988800,1.822625,1.434971,-1.583477,-0.137438,1.115663,0.172695,0.131137,-0.990790,0.033740,-0.091968,0.055731,-0.160541,-13.033797,-46.325348,-11.272959,,,,,,,
1558972571.008789,1.823931,1.436754,-1.562787,-0.167122,1.056312,-0.038224,0.129383,-0.991030,0.033469,-0.078540,0.013262,-0.042945,-12.836388,-46.226128,-11.889886,,,,,,,
1558972571.028756,1.810572,1.434610,-1.528125,-0.230712,1.070155,-0.194019,0.131881,-0.990741,0.032242,-0.073715,0.023746,0.000717,-12.578272,-46.213081,-12.212116,,,,,,,
1558972571.048736,1.786771,1.435170,-1.480794,-0.376525,1.207703,0.093311,0.132069,-0.990817,0.028975,-0.057042,-0.003797,0.095002,-12.157324,-46.190990,-12.711759,,,,,,,
1558972571.068753,1.753094,1.442545,-1.422472,-0.470697,1.175819,0.354503,0.125781,-0.991787,0.023187,-0.027499,0.011715,0.153113,-11.962284,-46.004658,-13.545210,,,,,,,
1558972571.088738,1.721359,1.450386,-1.368680,-0.322027,1.040712,0.296744,0.118760,-0.992759,0.018017,-0.074769,-0.030434,0.229526,-11.970109,-45.802299,-14.207854,,,,,,,
1558972571.108723,1.710280,1.455828,-1.337428,-0.183773,0.965877,0.218200,0.113601,-0.993398,0.015949,-0.076812,-0.051813,0.254879,-11.952052,-45.725830,-14.466991,,,,,,,
1558972571.128710,1.694903,1.460365,-1.303795,-0.253287,0.861577,0.204334,0.109360,-0.993909,0.013642,-0.080689,-0.036868,0.321425,-11.825457,-45.558041,-15.087111,,,,,,,
1558972571.148694,1.665822,1.465482,-1.258460,-0.251470,0.784463,0.243100,0.104646,-0.994460,0.009974,-0.102388,-0.010301,0.371633,-11.773108,-45.423641,-15.526884,,,,,,,
1558972571.168680,1.650488,1.471821,-1.225991,-0.166098,0.894090,0.341374,0.098500,-0.995106,0.007866,-0.105000,-0.008266,0.390403,-11.763218,-45.356918,-15.728118,,,,,,,
1558972571.188666,1.638282,1.479244,-1.195201,-0.200154,0.903806,0.357454,0.091217,-0.995812,0.006165,-0.042541,0.023034,0.407272,-11.791189,-45.154503,-16.279936,,,,,,,
1558972571.208627,1.600746,1.486387,-1.141058,-0.285718,0.780585,0.357274,0.084272,-0.996440,0.002525,-0.008222,-0.007940,0.477364,-11.821803,-44.995987,-16.691416,,,,,,,
1558972571.228609,1.534797,1.494616,-1.060746,-0.337298,0.673171,0.444819,0.076058,-0.997100,-0.002739,0.020439,0.004729,0.503563,-11.859426,-44.902939,-16.913818,,,,,,,
1558972571.248603,1.440566,1.503286,-0.953494,-0.348217,0.590783,0.446157,0.066887,-0.997722,-0.008760,0.019615,0.039470,0.519731,-12.109713,-44.568062,-17.607941,,,,,,,
1558972571.268594,1.346031,1.507937,-0.849531,-0.226070,0.387856,0.180603,0.061238,-0.998025,-0.014001,0.025340,0.034875,0.559716,-12.226048,-44.407639,-17.929935,,,,,,,
1558972571.288574,1.341998,1.508218,-0.840015,0.112196,0.204971,-0.060029,0.060908,-0.998043,-0.014184,0.025610,0.025875,0.586053,-12.224555,-44.304802,-18.183565,,,,,,,
1558972571.308550,1.453369,1.506781,-0.949170,0.425949,0.076328,-0.162436,0.063530,-0.997952,-0.007495,0.043282,-0.017246,0.599459,-12.050609,-44.422630,-18.011387,,,,,,,
1558972571.328545,1.588308,1.502455,-1.084729,0.396912,-0.069568,-0.284500,0.068278,-0.997666,0.001196,0.080404,-0.024093,0.589548,-12.007688,-44.470619,-17.921394,,,,,,,
1558972571.348549,1.645910,1.495993,-1.145922,0.127104,-0.230968,-0.309749,0.074523,-0.997204,0.005608,0.104890,-0.006016,0.582176,-11.685060,-44.771881,-17.376293,,,,,,,
1558972571.368536,1.641216,1.490458,-1.147596,0.000925,-0.380324,-0.257897,0.080053,-0.996775,0.005647,0.123713,0.040659,0.535583,-11.468901,-44.894131,-17.204033,,,,,,,
1558972571.388520,1.642986,1.485896,-1.159491,0.119389,-0.577442,-0.184954,0.084578,-0.996398,0.006116,0.119432,0.026763,0.506671,-11.407088,-44.961773,-17.067932,,,,,,,
1558972571.408505,1.667307,1.483307,-1.198240,0.189781,-0.813375,-0.083594,0.086971,-0.996175,0.008420,0.108037,0.024816,0.483691,-11.434052,-45.004021,-16.938063,,,,,,,
1558972571.428484,1.682719,1.480806,-1.234207,0.168539,-1.151603,-0.147705,0.089307,-0.995954,0.010037,0.036716,0.032331,0.399035,-11.608222,-45.088303,-16.591906,,,,,,,
1558972571.448478,1.702393,1.475035,-1.279935,0.316132,-1.342898,-0.320241,0.094788,-0.995418,0.012546,-0.028611,0.032055,0.330349,-11.936117,-45.246750,-15.914091,,,,,,,
1558972571.468461,1.745193,1.467773,-1.351052,0.427502,-1.437468,-0.260201,0.101281,-0.994698,0.017844,-0.050790,0.018059,0.291375,-11.936117,-45.246750,-15.914091,,,,,,,
1558972571.488433,1.773910,1.463374,-1.410705,0.275652,-1.575961,-0.102569,0.105012,-0.994236,0.021627,-0.099839,0.000614,0.152994,-12.340920,-45.603893,-14.525292,,,,,,,
1558972571.508435,1.767270,1.462008,-1.435780,0.083965,-1.556843,-0.007519,0.106485,-0.994088,0.021195,-0.111032,-0.008323,0.113662,-12.733419,-45.675175,-13.951191,,,,,,,
1558972571.528412,1.742539,1.462515,-1.440873,-0.005221,-1.459039,0.053134,0.106480,-0.994143,0.018469,-0.141911,0.012698,0.039743,-12.946135,-45.684788,-13.722074,,,,,,,
1558972571.548388,1.712146,1.463656,-1.439970,0.001080,-1.492923,0.035732,0.105869,-0.994266,0.015065,-0.188312,0.066013,-0.086324,-13.608500,-45.663513,-13.139624,,,,,,,
1558972571.568390,1.703962,1.462833,-1.461824,0.217304,-1.495256,-0.058070,0.106800,-0.994178,0.014307,-0.186008,0.071418,-0.138651,-13.993010,-45.681408,-12.664974,,,,,,,
1558972571.588370,1.741695,1.459655,-1.529170,0.468838,-1.430086,-0.125574,0.109298,-0.993830,0.018863,-0.197966,0.055018,-0.167789,-14.217106,-45.751930,-12.150392,,,,,,,
1558972571.608355,1.796365,1.454401,-1.612396,0.524391,-1.393462,-0.178562,0.113190,-0.993234,0.025974,-0.188630,-0.002265,-0.234867,-14.465784,-45.944057,-11.085204,,,,,,,
1558972571.628339,1.848323,1.449139,-1.692041,0.523412,-1.333095,-0.103250,0.116713,-0.992609,0.033249,-0.181167,-0.013357,-0.283966,-14.573809,-46.064644,-10.423532,,,,,,,
1558972571.648332,1.895696,1.445291,-1.765469,0.452288,-1.232172,-0.013726,0.118627,-0.992135,0.039958,-0.201955,-0.028007,-0.327220,-14.751417,-46.195446,-9.558961,,,,,,,
1558972571.668318,1.927256,1.443365,-1.820285,0.303686,-1.080166,0.035654,0.119098,-0.991892,0.044348,-0.201205,-0.087973,-0.389807,-15.026022,-46.288452,-8.636825,,,,,,,
1558972571.688294,1.940816,1.442234,-1.852373,0.144888,-0.826747,0.008058,0.119531,-0.991747,0.046364,-0.177972,-0.091337,-0.425484,-15.175220,-46.315643,-8.220160,,,,,,,
1558972571.708288,1.927388,1.442375,-1.853912,-0.066598,-0.715687,0.020696,0.120013,-0.991765,0.044707,-0.149721,-0.060328,-0.452040,-15.312973,-46.331570,-7.867395,,,,,,,
1558972571.728275,1.900616,1.443439,-1.839361,-0.096879,-0.542197,0.008453,0.120168,-0.991901,0.041136,-0.142827,-0.064892,-0.427077,-15.467064,-46.307873,-7.703780,,,,,,,
1558972571.748232,1.887186,1.443604,-1.834553,0.000557,-0.372540,0.001613,0.120554,-0.991922,0.039468,-0.129373,-0.078925,-0.419778,-15.524714,-46.299721,-7.636530,,,,,,,
1558972571.768244,1.873623,1.443849,-1.826335,-0.121309,-0.214435,-0.018324,0.120846,-0.991953,0.037757,-0.093075,-0.104345,-0.373740,-15.579077,-46.297729,-7.537263,,,,,,,
1558972571.788232,1.829775,1.444274,-1.785012,-0.317785,-0.095078,-0.058977,0.121977,-0.992007,0.032315,-0.058256,-0.044202,-0.299023,-15.574958,-46.277096,-7.671266,,,,,,,
1558972571.808206,1.784792,1.445065,-1.739894,-0.234407,0.035635,-0.004277,0.122540,-0.992106,0.026631,-0.050945,-0.029241,-0.264790,-15.548267,-46.251614,-7.876367,,,,,,,
1558972571.828202,1.764925,1.446229,-1.717756,-0.113817,0.151349,0.047106,0.121912,-0.992252,0.023969,-0.037729,-0.024899,-0.207211,-15.542542,-46.216675,-8.089869,,,,,,,
1558972571.848188,1.746826,1.448294,-1.695204,-0.205151,0.237517,0.094834,0.120308,-0.992506,0.021399,-0.019295,-0.006853,-0.152106,-15.573359,-46.167088,-8.310718,,,,,,,
1558972571.868173,1.705896,1.451113,-1.649522,-0.332978,0.207525,0.088039,0.118310,-0.992846,0.016082,-0.028833,-0.019223,-0.080092,-15.612519,-46.112926,-8.534904,,,,,,,
1558972571.888158,1.659470,1.452902,-1.598599,-0.273283,0.209248,0.035789,0.117160,-0.993058,0.010416,-0.028797,-0.020186,-0.045389,-15.650190,-46.030796,-8.901381,,,,,,,
1558972571.908143,1.631435,1.453319,-1.565992,-0.146507,0.220142,-0.008847,0.116993,-0.993107,0.007103,-0.022174,0.015706,-0.018044,-15.628801,-45.967064,-9.261039,,,,,,,
1558972571.928127,1.619284,1.452339,-1.549759,-0.062443,0.175189,-0.087148,0.118041,-0.992992,0.005728,0.006058,0.018825,0.001398,-15.557856,-45.956581,-9.430960,,,,,,,
1558972571.948115,1.617941,1.450261,-1.545576,0.005547,0.128307,-0.098219,0.120110,-0.992744,0.005667,-0.007668,0.027672,0.024485,-15.498175,-45.966339,-9.481516,,,,,,,
1558972571.968101,1.625705,1.449003,-1.550674,0.044890,0.139806,-0.044695,0.121310,-0.992592,0.006668,-0.003374,0.030922,0.030701,-15.341192,-46.008835,-9.530599,,,,,,,
1558972571.988086,1.633659,1.448190,-1.555519,0.009858,0.174924,-0.038958,0.122058,-0.992493,0.007683,0.017148,0.015763,0.049019,-15.275808,-46.028915,-9.538663,,,,,,,
1558972572.008056,1.630866,1.447362,-1.549411,-0.058335,0.150958,-0.047784,0.122899,-0.992392,0.007391,0.025646,0.017553,0.058389,-15.223303,-46.036831,-9.584274,,,,,,,
1558972572.028034,1.625187,1.446678,-1.541214,-0.026613,0.096917,-0.024787,0.123617,-0.992307,0.006730,0.032831,0.033170,0.040068,-15.139542,-46.040199,-9.700076,,,,,,,
1558972572.048042,1.632939,1.446321,-1.547438,0.081870,0.070988,-0.018543,0.123915,-0.992263,0.007710,0.020998,0.012527,0.040111,-15.107212,-46.047794,-9.714408,,,,,,,
1558972572.068014,1.650413,1.445679,-1.564175,0.105161,0.027513,-0.028549,0.124396,-0.992183,0.009925,0.022393,0.007701,0.033883,-15.091559,-46.059708,-9.682237,,,,,,,
1558972572.088000,1.662567,1.444733,-1.576434,0.067776,-0.015643,-0.038601,0.125201,-0.992065,0.011522,0.001813,-0.000184,0.028349,-15.039255,-46.102615,-9.558596,,,,,,,
1558972572.107999,1.696412,1.443638,-1.609973,0.062571,0.034119,-0.001829,0.125816,-0.991926,0.015888,0.002998,-0.004457,0.023647,-15.019751,-46.118656,-9.511775,,,,,,,
1558972572.127970,1.704643,1.443774,-1.617481,0.027382,0.024821,0.018339,0.125548,-0.991944,0.016905,0.016252,0.005264,0.008226,-14.996094,-46.161388,-9.340274,,,,,,,
1558972572.147956,1.709663,1.440112,-1.622495,-0.014234,-0.016213,-0.001315,0.129058,-0.991473,0.018038,0.005890,0.014971,-0.001986,-14.907776,-46.201752,-9.281911,,,,,,,
1558972572.167954,1.706865,1.439333,-1.620080,0.008146,-0.008933,-0.002297,0.129874,-0.991371,0.017782,0.004724,0.015099,-0.001058,-14.834533,-46.227592,-9.270558,,,,,,,
1558972572.187927,1.704140,1.439758,-1.617738,0.075173,-0.008196,0.020184,0.129504,-0.991427,0.017372,-0.002215,0.005617,-0.006782,-14.808624,-46.231209,-9.293947,,,,,,,
1558972572.207903,1.712209,1.440618,-1.626128,0.089060,-0.003019,-0.003241,0.128515,-0.991539,0.018296,-0.010397,0.005333,-0.009614,-14.841929,-46.234047,-9.226443,,,,,,,
1558972572.227912,1.718059,1.441907,-1.632616,0.025090,-0.048183,-0.035749,0.127142,-0.991705,0.018860,-0.014806,0.002539,0.002625,-14.908751,-46.215401,-9.212117,,,,,,,
1558972572.247879,1.720681,1.442417,-1.636019,0.018710,-0.031189,-0.003559,0.126591,-0.991771,0.019117,-0.018376,0.002803,0.000383,-14.936885,-46.211117,-9.188004,,,,,,,
1558972572.267870,1.707755,1.444984,-1.623668,0.028213,-0.020567,0.065950,0.124306,-0.992096,0.017132,-0.007484,0.020706,-0.026989,-15.059502,-46.170158,-9.193764,,,,,,,
1558972572.287869,1.701568,1.446959,-1.618059,0.042011,-0.015302,0.101244,0.122466,-0.992342,0.016107,-0.002257,0.017855,-0.034219,-15.129873,-46.140285,-9.228114,,,,,,,
1558972572.307854,1.688503,1.449131,-1.605686,0.085702,-0.019833,0.053191,0.120525,-0.992608,0.014253,0.004902,-0.025123,-0.030824,-15.248532,-46.080338,-9.331768,,,,,,,
1558972572.327840,1.685564,1.449093,-1.603901,0.034520,-0.072505,-0.007144,0.120605,-0.992603,0.013903,0.006699,-0.034969,-0.052065,-15.285559,-46.063190,-9.355841,,,,,,,
1558972572.347828,1.678899,1.449481,-1.599064,-0.066725,-0.088820,0.036392,0.120311,-0.992650,0.013057,-0.027202,-0.045619,-0.078166,-15.297089,-46.064491,-9.330526,,,,,,,
1558972572.367810,1.625364,1.453679,-1.547079,-0.045351,-0.050858,0.052793,0.116676,-0.993150,0.006373,-0.058555,-0.049224,-0.124446,-15.348866,-46.039810,-9.367257,,,,,,,
1558972572.387798,1.635514,1.453770,-1.557851,0.147557,-0.022418,-0.042868,0.116515,-0.993160,0.007551,-0.076858,-0.085499,-0.178175,-15.528589,-45.935268,-9.581819,,,,,,,
1558972572.407754,1.678150,1.450793,-1.601233,0.313771,-0.025570,-0.152733,0.119026,-0.992808,0.012827,-0.093971,-0.148564,-0.221217,-15.473955,-45.983799,-9.436309,,,,,,,
1558972572.427768,1.716040,1.448316,-1.639633,0.164669,0.007104,-0.031896,0.120887,-0.992509,0.017683,-0.135170,-0.177215,-0.314436,-15.349400,-46.082504,-9.154012,,,,,,,
1558972572.447754,1.708751,1.450659,-1.630582,-0.218410,0.143669,0.177296,0.118710,-0.992792,0.016481,-0.196332,-0.133169,-0.440493,-15.373788,-46.086563,-9.092430,,,,,,,
1558972572.467721,1.658570,1.454251,-1.573023,-0.395880,0.517593,0.087847,0.115833,-0.993216,0.010193,-0.230763,-0.079141,-0.520569,-15.464407,-46.006451,-9.341087,,,,,,,
1558972572.487723,1.619954,1.453443,-1.516824,-0.257556,1.036556,-0.153701,0.116942,-0.993122,0.005753,-0.180205,-0.013256,-0.536744,-15.400658,-45.916817,-9.872362,,,,,,,
1558972572.507710,1.618427,1.449596,-1.491513,-0.075884,1.231080,-0.199738,0.120766,-0.992664,0.005757,-0.099297,-0.012646,-0.501347,-15.144012,-45.911644,-10.284793,,,,,,,
1558972572.527688,1.642188,1.445811,-1.490663,0.035861,1.225214,-0.195434,0.124343,-0.992199,0.008892,-0.096236,0.000348,-0.402843,-14.487560,-45.978981,-10.910605,,,,,,,
1558972572.547680,1.668344,1.440910,-1.492089,0.024410,1.268496,-0.272967,0.128906,-0.991577,0.012615,-0.123275,0.000457,-0.370723,-14.138885,-46.030415,-11.148544,,,,,,,
1558972572.567666,1.691743,1.435496,-1.488499,-0.011321,1.417751,-0.253418,0.133902,-0.990861,0.016274,-0.124853,-0.025710,-0.264520,-13.737661,-46.090912,-11.397434,,,,,,,
1558972572.587651,1.705663,1.432572,-1.471011,-0.176874,1.642939,-0.097654,0.136534,-0.990462,0.018526,-0.069593,0.031478,-0.155779,-12.916540,-46.168163,-12.027500,,,,,,,
1558972572.607621,1.685576,1.433094,-1.416583,-0.494088,1.690209,0.003971,0.136364,-0.990534,0.015721,-0.043987,0.039820,-0.100087,-12.567078,-46.132694,-12.523586,,,,,,,
1558972572.627606,1.632841,1.433978,-1.330366,-0.596613,1.573370,-0.029259,0.136130,-0.990655,0.008457,-0.051764,0.072869,0.041455,-12.019936,-45.957451,-13.653976,,,,,,,
1558972572.647608,1.601968,1.432825,-1.270179,-0.248019,1.367414,-0.109957,0.137467,-0.990497,0.004286,-0.077943,0.077777,0.090898,-11.670215,-45.852840,-14.294066,,,,,,,
1558972572.667572,1.636007,1.429067,-1.277822,0.218237,1.321466,-0.217856,0.140955,-0.989973,0.009205,-0.073465,0.053969,0.179348,-11.294373,-45.819351,-14.697675,,,,,,,
1558972572.687577,1.693463,1.424255,-1.310202,0.205196,1.246506,-0.204704,0.144920,-0.989282,0.017867,-0.044365,0.020852,0.277681,-10.428011,-45.974865,-14.851446,,,,,,,
1558972572.707565,1.713780,1.422165,-1.305497,-0.171893,1.250874,-0.021329,0.146574,-0.988975,0.021102,-0.036451,0.034019,0.289628,-10.028353,-46.028778,-14.959309,,,,,,,
1558972572.727539,1.690230,1.427560,-1.256443,-0.490795,1.239387,0.366929,0.141730,-0.989759,0.017008,0.009530,0.060224,0.312154,-9.678501,-45.956081,-15.406568,,,,,,,
1558972572.747515,1.643809,1.439492,-1.185194,-0.540312,1.187172,0.619422,0.130578,-0.991392,0.009551,-0.030740,0.065412,0.367845,-9.698023,-45.646976,-16.288012,,,,,,,
1558972572.767521,1.597521,1.451466,-1.116320,-0.399039,1.046746,0.513561,0.119005,-0.992889,0.003181,-0.034135,0.059188,0.399590,-9.831664,-45.429581,-16.807402,,,,,,,
1558972572.787491,1.568441,1.459464,-1.068460,-0.216342,0.843626,0.331331,0.111102,-0.993809,-0.000262,-0.028353,0.024174,0.429400,-9.926950,-45.205635,-17.346567,,,,,,,
1558972572.807468,1.556254,1.463611,-1.042311,-0.094454,0.602781,0.155097,0.106969,-0.994261,-0.001556,-0.013799,0.025572,0.430892,-9.896925,-45.054501,-17.752190,,,,,,,
1558972572.827462,1.562896,1.466414,-1.038940,0.025401,0.466837,0.144283,0.104189,-0.994557,-0.000823,-0.016756,0.025304,0.460677,-9.835516,-45.009804,-17.899084,,,,,,,
1558972572.847459,1.584897,1.469844,-1.051623,0.068991,0.468783,0.184907,0.100771,-0.994909,0.001421,-0.046587,0.021932,0.491636,-9.815126,-44.999374,-17.936472,,,,,,,
1558972572.867419,1.596034,1.473528,-1.053756,-0.053547,0.429251,0.179092,0.097084,-0.995273,0.002451,-0.064552,0.015445,0.556753,-9.814479,-44.974304,-17.999588,,,,,,,
1558972572.887419,1.568526,1.476073,-1.019208,-0.214603,0.287254,0.080448,0.094581,-0.995517,-0.000215,-0.050727,0.006839,0.606813,-9.811955,-44.898983,-18.188015,,,,,,,
1558972572.907419,1.534523,1.475678,-0.980624,-0.130620,0.182995,-0.074224,0.094913,-0.995480,-0.003444,-0.026279,0.028683,0.622646,-9.769227,-44.834488,-18.369211,,,,,,,
1558972572.927405,1.543006,1.472397,-0.987031,0.120427,0.069432,-0.208566,0.098203,-0.995163,-0.002730,0.034594,0.019363,0.626677,-9.574726,-44.831581,-18.478399,,,,,,,
1558972572.947366,1.586514,1.466898,-1.031313,0.257393,-0.087890,-0.318862,0.103699,-0.994607,0.001630,0.076980,0.039148,0.612765,-9.408266,-44.912033,-18.368206,,,,,,,
1558972572.967376,1.628885,1.459757,-1.077912,0.249418,-0.255942,-0.338627,0.110624,-0.993841,0.006433,0.102739,0.012274,0.615927,-9.155449,-45.067127,-18.114338,,,,,,,
1558972572.987362,1.650083,1.454026,-1.107071,0.138902,-0.478250,-0.243688,0.116139,-0.993190,0.009228,0.072383,0.025600,0.596317,-8.945322,-45.237144,-17.792671,,,,,,,
1558972573.007326,1.648518,1.449122,-1.117996,0.067897,-0.705100,-0.249035,0.121008,-0.992607,0.009424,0.009012,0.013618,0.587576,-8.926629,-45.298721,-17.644793,,,,,,,
1558972573.027333,1.642859,1.443590,-1.129195,0.106660,-0.910417,-0.284066,0.126534,-0.991920,0.009134,0.014961,-0.007424,0.511206,-8.954332,-45.369930,-17.446678,,,,,,,
1558972573.047319,1.638691,1.436972,-1.146366,0.154971,-1.140143,-0.351353,0.133118,-0.991059,0.009052,-0.024307,0.027024,0.433377,-9.035225,-45.487900,-17.094240,,,,,,,
1558972573.067304,1.639041,1.428781,-1.170624,0.215604,-1.181777,-0.413627,0.141209,-0.989933,0.009652,-0.091755,0.086231,0.415672,-9.077762,-45.582047,-16.818693,,,,,,,
1558972573.087289,1.643702,1.420932,-1.199298,0.251614,-1.205117,-0.343357,0.148907,-0.988791,0.010875,-0.112515,0.133490,0.385609,-9.092327,-45.691341,-16.511452,,,,,,,
1558972573.107275,1.652096,1.415337,-1.234517,0.312473,-1.410293,-0.206478,0.154322,-0.987940,0.012574,-0.071238,0.061549,0.313109,-9.160482,-45.835964,-16.066957,,,,,,,
1558972573.127260,1.659971,1.410681,-1.274324,0.336135,-1.671538,-0.232448,0.158798,-0.987209,0.014198,-0.027786,0.047542,0.097786,-9.537949,-46.044083,-15.230470,,,,,,,
1558972573.147246,1.658456,1.404621,-1.308630,0.275067,-1.815049,-0.285117,0.164777,-0.986225,0.014481,-0.065869,0.058933,0.032210,-9.537949,-46.044083,-15.230470,,,,,,,
1558972573.167216,1.650978,1.399433,-1.337908,0.289880,-1.801252,-0.195291,0.169979,-0.985353,0.013659,-0.110408,0.073961,-0.098833,-9.945108,-46.256733,-14.297091,,,,,,,
1558972573.187198,1.662862,1.397397,-1.385373,0.501668,-1.720669,0.010638,0.171801,-0.985004,0.015862,-0.095568,0.029804,-0.310173,-10.463036,-46.440498,-13.296706,,,,,,,
1558972573.207186,1.695801,1.396992,-1.453277,0.607125,-1.691604,0.025948,0.171581,-0.984934,0.021561,-0.094936,0.008356,-0.369599,-10.700024,-46.506317,-12.871272,,,,,,,
1558972573.227180,1.728849,1.395055,-1.521083,0.595540,-1.672579,-0.015518,0.172659,-0.984597,0.027519,-0.123159,-0.072181,-0.481269,-11.340018,-46.719532,-11.475472,,,,,,,
1558972573.247170,1.764571,1.393775,-1.589754,0.605422,-1.539313,0.075448,0.172802,-0.984373,0.033910,-0.127895,-0.089571,-0.498693,-11.619087,-46.818455,-10.771544,,,,,,,
1558972573.267151,1.801219,1.393075,-1.655402,0.546536,-1.315964,0.081809,0.172115,-0.984249,0.040376,-0.164378,-0.098530,-0.539308,-11.911011,-46.899635,-10.077168,,,,,,,
1558972573.287118,1.831652,1.391704,-1.709037,0.434869,-0.983551,0.031519,0.172110,-0.984006,0.045943,-0.179434,-0.081210,-0.542754,-12.371332,-47.024200,-8.869736,,,,,,,
1558972573.307107,1.855676,1.390492,-1.749082,0.316711,-0.643575,0.067775,0.172102,-0.983789,0.050399,-0.172514,-0.064246,-0.518478,-12.506046,-47.071812,-8.416704,,,,,,,
1558972573.327087,1.875916,1.392598,-1.779137,0.167196,-0.387789,0.243063,0.169070,-0.984165,0.053249,-0.161120,-0.047696,-0.442806,-12.692881,-47.097206,-7.983821,,,,,,,
1558972573.347101,1.889166,1.397075,-1.798838,0.068545,-0.277324,0.254717,0.164163,-0.984948,0.054105,-0.124658,-0.041877,-0.332532,-13.058019,-47.043308,-7.707983,,,,,,,
1558972573.367087,1.899563,1.400099,-1.814816,0.103870,-0.270284,0.138439,0.160771,-0.985467,0.054847,-0.126057,-0.070564,-0.290046,-13.251734,-47.005600,-7.606714,,,,,,,
1558972573.387071,1.909734,1.400878,-1.830062,0.081811,-0.219558,0.053495,0.159481,-0.985599,0.056224,-0.124066,-0.134427,-0.206019,-13.410015,-46.988312,-7.434196,,,,,,,
1558972573.407058,1.901470,1.401880,-1.825317,-0.149974,-0.147557,0.029443,0.159006,-0.985768,0.054583,-0.129450,-0.104992,-0.165911,-13.501540,-46.977577,-7.335746,,,,,,,
1558972573.427044,1.871351,1.404728,-1.795706,-0.335769,0.027913,0.087559,0.157896,-0.986242,0.048939,-0.123518,-0.094370,-0.144856,-13.540153,-46.946938,-7.459682,,,,,,,
1558972573.447028,1.834104,1.409270,-1.754926,-0.400162,0.217538,0.142705,0.155282,-0.986983,0.041859,-0.085473,-0.064897,-0.123402,-13.621017,-46.868618,-7.797285,,,,,,,
1558972573.467014,1.795363,1.414090,-1.709681,-0.403005,0.321131,0.136220,0.152146,-0.987747,0.034753,-0.043489,0.020858,-0.101785,-13.740856,-46.737450,-8.354460,,,,,,,
1558972573.486989,1.756625,1.417390,-1.664336,-0.351932,0.277403,0.054701,0.150175,-0.988256,0.028233,0.007372,0.012365,-0.033863,-13.790096,-46.640266,-8.804315,,,,,,,
1558972573.506969,1.727633,1.417805,-1.630087,-0.196518,0.221440,-0.067422,0.150524,-0.988320,0.023803,0.015110,0.021950,-0.023483,-13.770382,-46.592789,-9.082170,,,,,,,
1558972573.526971,1.715164,1.415904,-1.613933,-0.063571,0.158284,-0.129844,0.152669,-0.988028,0.022195,0.016933,0.035788,0.005713,-13.624423,-46.585037,-9.338451,,,,,,,
1558972573.546945,1.713550,1.413839,-1.609105,-0.008287,0.161243,-0.077456,0.154724,-0.987707,0.022239,0.026123,0.033438,0.016412,-13.513917,-46.604706,-9.400680,,,,,,,
1558972573.566914,1.717098,1.413090,-1.609495,0.019273,0.151669,-0.020941,0.155376,-0.987590,0.022895,0.033696,0.037196,0.023003,-13.419102,-46.622417,-9.448558,,,,,,,
1558972573.586910,1.727244,1.412706,-1.617131,0.092577,0.115370,-0.004147,0.155510,-0.987530,0.024530,0.012047,0.015758,0.060096,-13.365435,-46.636982,-9.452732,,,,,,,
1558972573.606912,1.743673,1.411835,-1.632080,0.131863,0.062239,-0.053736,0.155934,-0.987392,0.027229,0.020107,0.001217,0.057747,-13.347021,-46.653381,-9.397689,,,,,,,
1558972573.626891,1.756077,1.409293,-1.644112,0.104138,0.014712,-0.125746,0.158050,-0.986987,0.029623,0.018296,-0.006391,0.064127,-13.274301,-46.695293,-9.291911,,,,,,,
1558972573.646868,1.764411,1.407174,-1.651919,0.065827,0.049898,-0.056043,0.159849,-0.986644,0.031342,-0.005919,-0.000508,0.052292,-13.139040,-46.754230,-9.187218,,,,,,,
1558972573.666869,1.769936,1.407146,-1.655828,0.011569,0.097875,0.028717,0.159701,-0.986639,0.032230,-0.003344,0.010962,0.025250,-13.123657,-46.760929,-9.175114,,,,,,,
1558972573.686855,1.771845,1.407530,-1.654939,-0.013743,0.156099,-0.000640,0.159268,-0.986702,0.032459,0.027179,0.015800,0.023678,-13.114687,-46.763298,-9.175852,,,,,,,
1558972573.706841,1.787018,1.402310,-1.666856,0.036301,0.136745,-0.045638,0.163786,-0.985840,0.035977,0.041231,0.026031,0.029224,-13.093246,-46.759178,-9.227302,,,,,,,
1558972573.726825,1.798226,1.400698,-1.676377,0.136145,0.060081,-0.068713,0.164920,-0.985568,0.038168,0.037747,0.012698,0.046884,-12.797355,-46.869923,-9.079389,,,,,,,
1558972573.746785,1.835299,1.395034,-1.713145,0.176387,-0.008839,-0.071482,0.168778,-0.984594,0.045713,0.029251,0.003347,0.047960,-12.742582,-46.904388,-8.977863,,,,,,,
1558972573.766771,1.846714,1.393316,-1.725462,0.089965,-0.050606,-0.031381,0.169872,-0.984292,0.048097,0.011632,-0.005805,0.046995,-12.546106,-47.027046,-8.605206,,,,,,,
1558972573.786781,1.866663,1.392990,-1.746085,0.001516,-0.041548,0.059387,0.169186,-0.984234,0.051570,-0.000958,-0.006138,0.038884,-12.557848,-47.035076,-8.543952,,,,,,,
1558972573.806762,1.865894,1.395001,-1.745795,-0.051673,-0.005248,0.115209,0.167331,-0.984588,0.050864,-0.013965,-0.015672,0.037438,-12.596945,-47.049080,-8.408222,,,,,,,
1558972573.826739,1.860775,1.397987,-1.740630,-0.104904,-0.000719,0.129089,0.164771,-0.985106,0.049166,-0.036780,0.014418,-0.016405,-12.763571,-46.989948,-8.487234,,,,,,,
1558972573.846738,1.846852,1.402819,-1.726826,-0.100603,-0.014576,0.067042,0.160858,-0.985925,0.045569,-0.019882,0.013604,-0.012565,-12.967369,-46.903679,-8.653893,,,,,,,
1558972573.866699,1.841086,1.403458,-1.721060,-0.020626,-0.000292,0.004252,0.160511,-0.986032,0.044473,-0.022038,0.017938,-0.010598,-12.993629,-46.888634,-8.695907,,,,,,,
1558972573.886706,1.844518,1.403698,-1.724593,0.045320,-0.004830,0.028817,0.160130,-0.986072,0.044959,-0.004810,0.015338,-0.025718,-13.012842,-46.880001,-8.713713,,,,,,,
1558972573.906696,1.851797,1.404159,-1.732181,0.050592,-0.013292,0.043687,0.159362,-0.986148,0.045998,0.009874,0.003406,-0.040016,-13.037402,-46.880184,-8.675914,,,,,,,
1558972573.926680,1.857856,1.405140,-1.738635,0.028156,-0.021577,0.079890,0.158152,-0.986310,0.046689,0.012883,-0.025653,-0.083874,-13.084034,-46.876141,-8.627440,,,,,,,
1558972573.946642,1.861490,1.407603,-1.743383,-0.022183,-0.080391,0.156157,0.155654,-0.986713,0.046567,0.023026,-0.071941,-0.208554,-13.209330,-46.847076,-8.594320,,,,,,,
1558972573.966634,1.859211,1.410935,-1.743084,-0.056242,-0.085518,0.142201,0.152606,-0.987249,0.045276,0.008893,-0.073404,-0.244419,-13.337621,-46.809628,-8.600235,,,,,,,
1558972573.986633,1.858828,1.414115,-1.743541,-0.033671,-0.001016,0.182531,0.149613,-0.987751,0.044326,-0.058625,-0.083279,-0.359710,-13.485136,-46.762260,-8.627811,,,,,,,
1558972574.006623,1.865222,1.419616,-1.747569,-0.078998,0.198148,0.322128,0.144124,-0.988594,0.043704,-0.123326,-0.121086,-0.467029,-13.732879,-46.678696,-8.689340,,,,,,,
1558972574.026590,1.861472,1.427175,-1.737918,-0.232935,0.324769,0.314752,0.137124,-0.989704,0.041020,-0.130288,-0.097881,-0.521565,-13.938648,-46.592686,-8.822301,,,,,,,
1558972574.046569,1.846570,1.429932,-1.715009,-0.123395,0.442006,-0.069459,0.135094,-0.990095,0.038229,-0.160591,-0.035433,-0.589606,-14.122892,-46.478405,-9.126844,,,,,,,
1558972574.066579,1.857870,1.424440,-1.714996,0.198075,0.638625,-0.344908,0.139866,-0.989309,0.041292,-0.173328,-0.052653,-0.530672,-13.835665,-46.521290,-9.345660,,,,,,,
1558972574.086566,1.895256,1.414926,-1.737978,0.334938,0.787884,-0.423444,0.147140,-0.987877,0.049490,-0.154861,-0.036690,-0.515325,-13.481359,-46.633007,-9.306593,,,,,,,
1558972574.106550,1.928093,1.405737,-1.753298,0.210797,0.941905,-0.354807,0.153934,-0.986409,0.057466,-0.139804,0.007191,-0.498491,-12.942055,-46.802261,-9.222197,,,,,,,
1558972574.126537,1.950989,1.399913,-1.754926,0.069705,1.156382,-0.207667,0.157910,-0.985435,0.063107,-0.155881,-0.026497,-0.350445,-12.338326,-46.943413,-9.331616,,,,,,,
1558972574.146493,1.970443,1.397993,-1.748342,-0.076711,1.371948,-0.057318,0.158395,-0.985107,0.066902,-0.152505,-0.038956,-0.315026,-12.048367,-46.979401,-9.527318,,,,,,,
1558972574.166507,1.974924,1.400180,-1.723355,-0.346881,1.488755,0.058889,0.156113,-0.985480,0.066764,-0.114548,-0.038812,-0.232322,-11.737581,-46.967850,-9.962304,,,,,,,
1558972574.186474,1.953230,1.406353,-1.670655,-0.616260,1.507207,0.142126,0.151877,-0.986510,0.061091,-0.089194,-0.011461,-0.157420,-11.550967,-46.904430,-10.466459,,,,,,,
1558972574.206460,1.914789,1.414322,-1.601232,-0.646137,1.512738,0.201943,0.146707,-0.987783,0.052556,-0.106012,0.044423,-0.037083,-11.252846,-46.649429,-11.840677,,,,,,,
1558972574.226463,1.888630,1.422227,-1.544548,-0.459986,1.488559,0.238161,0.140609,-0.988984,0.046259,-0.114715,0.032822,0.023428,-11.169483,-46.549992,-12.301965,,,,,,,
1558972574.246374,1.877562,1.427223,-1.504023,-0.316270,1.415678,0.071025,0.136401,-0.989711,0.043207,-0.092059,-0.027074,0.213598,-10.885048,-46.312046,-13.405505,,,,,,,
1558972574.266359,1.859305,1.428045,-1.458792,-0.333531,1.257987,-0.121607,0.136387,-0.989828,0.040478,-0.030934,-0.027674,0.340335,-10.504342,-46.226963,-13.990139,,,,,,,
1558972574.286343,1.829488,1.428951,-1.405106,-0.416135,1.138163,0.040530,0.136666,-0.989957,0.036165,-0.050881,-0.014224,0.381331,-10.164118,-46.171082,-14.419395,,,,,,,
1558972574.306329,1.791382,1.436314,-1.343507,-0.556036,1.142533,0.352213,0.130829,-0.990971,0.029336,-0.069351,0.015980,0.458335,-9.943776,-46.072838,-14.879933,,,,,,,
1558972574.326315,1.728878,1.446376,-1.258412,-0.661784,1.050130,0.391814,0.122552,-0.992270,0.019536,-0.065164,-0.011514,0.583110,-9.894484,-45.706142,-16.001423,,,,,,,
1558972574.346286,1.652404,1.454665,-1.161129,-0.599142,0.958762,0.300240,0.115485,-0.993264,0.009445,-0.058097,-0.010520,0.593200,-9.897449,-45.490921,-16.601620,,,,,,,
1558972574.366262,1.570819,1.459890,-1.062615,-0.549769,0.719488,0.213645,0.110679,-0.993856,0.000003,-0.012687,0.029821,0.624143,-9.859683,-45.294403,-17.152283,,,,,,,
1558972574.386271,1.493008,1.463836,-0.972703,-0.421697,0.504264,0.228770,0.106433,-0.994285,-0.008296,-0.047672,0.039878,0.638499,-9.790849,-44.948719,-18.076208,,,,,,,
1558972574.406227,1.443660,1.467445,-0.913535,-0.220491,0.489399,0.183947,0.102334,-0.994664,-0.013081,-0.041162,0.032765,0.651997,-9.812840,-44.814869,-18.393831,,,,,,,
1558972574.426241,1.417392,1.468497,-0.878743,-0.157857,0.354559,0.002274,0.100922,-0.994772,-0.015604,-0.048248,0.045813,0.631434,-9.800833,-44.726460,-18.614092,,,,,,,
1558972574.446228,1.401924,1.466012,-0.858343,-0.096481,0.171135,-0.157444,0.103105,-0.994515,-0.017579,0.003417,0.044823,0.630769,-9.590540,-44.648087,-18.909439,,,,,,,
1558972574.466213,1.404396,1.462211,-0.858891,0.011773,0.055294,-0.195834,0.106875,-0.994110,-0.017950,0.002195,0.045761,0.623632,-9.434632,-44.652901,-18.976404,,,,,,,
1558972574.486200,1.416288,1.458671,-0.870203,0.029756,0.031982,-0.171487,0.110557,-0.993721,-0.017219,0.056404,0.018669,0.611015,-9.288061,-44.682808,-18.978294,,,,,,,
1558972574.506185,1.412926,1.455280,-0.867502,-0.085585,-0.083689,-0.174822,0.113826,-0.993335,-0.018121,0.085454,0.055454,0.548974,-9.053831,-44.732246,-18.975025,,,,,,,
1558972574.526170,1.401424,1.450125,-0.859739,-0.054025,-0.255279,-0.301354,0.118656,-0.992728,-0.020291,0.070934,0.062156,0.553281,-8.955414,-44.731518,-19.023380,,,,,,,
1558972574.546137,1.422289,1.442710,-0.888540,0.243548,-0.464220,-0.437639,0.126331,-0.991808,-0.018900,0.001202,0.055178,0.558375,-8.720949,-44.814861,-18.935961,,,,,,,
1558972574.566141,1.485191,1.434653,-0.963689,0.534671,-0.645492,-0.471170,0.135226,-0.990747,-0.011605,0.002393,0.038736,0.533455,-8.517524,-45.031490,-18.509832,,,,,,,
1558972574.586105,1.549651,1.424860,-1.045167,0.512618,-0.911855,-0.546338,0.145386,-0.989370,-0.003075,0.020782,0.034597,0.453255,-8.380523,-45.245293,-18.045162,,,,,,,
1558972574.606112,1.579824,1.414152,-1.096829,0.301182,-1.100962,-0.516288,0.155999,-0.987756,0.001408,-0.025246,0.043787,0.375819,-8.192278,-45.561031,-17.322718,,,,,,,
