timestamp(unix),attitude_roll(radians),attitude_pitch(radians),attitude_yaw(radians),rotation_rate_x(radians/s),rotation_rate_y(radians/s),rotation_rate_z(radians/s),gravity_x(G),gravity_y(G),gravity_z(G),user_acc_x(G),user_acc_y(G),user_acc_z(G),magnetic_field_x(microteslas),magnetic_field_y(microteslas),magnetic_field_z(microteslas),latitude(degree),longitude(degree),altitude(meter),speed(m/s),course(degree),timestamp(unix),User Mark
1558972886.923950,0.466822,1.504553,1.314814,-0.163703,-0.010117,0.049723,0.029791,-0.997807,-0.059113,-0.010214,0.016453,0.015350,4.280426,-42.216351,-24.118322,,,,,,,
1558972886.943921,0.437950,1.501667,1.343757,-0.199778,0.014348,0.025373,0.029293,-0.997612,-0.062555,0.006290,0.013572,0.018793,4.220203,-42.190964,-24.173288,,,,,,,
1558972886.963919,0.398262,1.497975,1.384121,-0.232764,0.038899,0.070422,0.028216,-0.997350,-0.067062,0.027463,0.026387,0.007690,4.207282,-42.120647,-24.297852,,,,,,,
1558972886.983905,0.382222,1.493866,1.401294,-0.162522,0.051272,0.109028,0.028665,-0.997042,-0.071308,0.043509,0.023913,0.012196,4.238938,-41.951439,-24.583403,,,,,,,
1558972887.003868,0.336523,1.491896,1.447429,-0.170255,-0.013096,0.155382,0.026027,-0.996889,-0.074398,0.052602,0.017748,0.019176,4.180315,-41.902462,-24.676796,,,,,,,
1558972887.023845,0.315059,1.488168,1.469200,-0.283227,0.025818,0.337157,0.025575,-0.996588,-0.078472,0.063063,0.004416,0.013134,4.171231,-41.796753,-24.856953,,,,,,,
1558972887.043860,0.193103,1.483085,1.592410,-0.420842,0.006690,0.492740,0.016811,-0.996156,-0.085971,0.060231,0.015199,0.000064,3.856480,-41.657780,-25.139465,,,,,,,
1558972887.063835,0.073046,1.477606,1.712270,-0.289010,-0.039442,0.500945,0.006791,-0.995661,-0.092807,-0.016191,0.024912,-0.036710,3.544811,-41.534393,-25.388271,,,,,,,
1558972887.083812,-0.012017,1.472840,1.800425,-0.237808,0.252872,0.360719,-0.001175,-0.995206,-0.097793,-0.026855,-0.011767,0.012786,3.090892,-41.398464,-25.668055,,,,,,,
1558972887.103816,-0.065830,1.465562,1.863899,-0.482466,0.613491,0.326607,-0.006910,-0.994468,-0.104813,0.013456,-0.025445,0.048004,3.002488,-41.313217,-25.815475,,,,,,,
1558972887.123772,-0.095926,1.451070,1.910508,-0.778410,0.932150,0.327285,-0.011440,-0.992841,-0.118892,0.062862,-0.012179,0.014125,3.073950,-41.055424,-26.215233,,,,,,,
1558972887.143779,-0.116414,1.436134,1.950698,-0.629453,0.903862,0.312186,-0.015594,-0.990947,-0.133347,0.054443,0.011180,-0.087692,3.365693,-40.582912,-26.906042,,,,,,,
1558972887.163770,-0.122381,1.425826,1.966651,-0.457868,0.211325,0.077218,-0.017635,-0.989510,-0.143383,0.016857,-0.007987,-0.097859,3.513926,-40.366837,-27.210415,,,,,,,
1558972887.183755,-0.117135,1.415903,1.961538,-0.510546,0.021234,0.005959,-0.018030,-0.988028,-0.153218,-0.082419,-0.009729,-0.048961,3.546509,-40.112408,-27.579929,,,,,,,
1558972887.203741,-0.101900,1.407016,1.949460,-0.404324,0.245720,-0.060136,-0.016586,-0.986618,-0.162203,0.036132,-0.053299,-0.056486,3.624332,-39.773083,-28.057116,,,,,,,
1558972887.223725,-0.093528,1.399441,1.944176,-0.358166,0.071175,0.009762,-0.015925,-0.985355,-0.169772,0.045283,0.033557,-0.047299,3.757492,-39.549732,-28.353760,,,,,,,
1558972887.243710,-0.087976,1.396032,1.937034,-0.037321,-0.170618,-0.101195,-0.015277,-0.984768,-0.173203,0.029727,0.031261,-0.056731,3.766937,-39.423656,-28.527554,,,,,,,
1558972887.263696,-0.080189,1.399717,1.924394,0.273369,-0.202872,-0.078835,-0.013637,-0.985402,-0.169699,-0.041951,0.028889,-0.082696,3.737545,-39.448524,-28.497021,,,,,,,
1558972887.283653,-0.089804,1.407388,1.931700,0.436280,-0.131664,0.046892,-0.014590,-0.986678,-0.162027,0.020495,0.030090,-0.073691,3.661649,-39.644913,-28.233120,,,,,,,
1558972887.303666,-0.102352,1.417120,1.940191,0.530842,-0.207280,-0.000733,-0.015640,-0.988215,-0.152271,-0.011322,0.033762,-0.063961,3.599780,-39.771969,-28.061852,,,,,,,
1558972887.323652,-0.109779,1.429725,1.942796,0.703112,-0.296031,-0.077247,-0.015404,-0.990066,-0.139757,-0.003868,0.028411,-0.079298,3.431146,-40.231232,-27.420994,,,,,,,
1558972887.343620,-0.109409,1.445813,1.934306,0.830588,-0.423700,-0.182997,-0.013612,-0.992200,-0.123913,0.000825,0.024960,-0.025791,3.350263,-40.531693,-26.985060,,,,,,,
1558972887.363621,-0.098187,1.461467,1.918645,0.680597,-0.036997,-0.112154,-0.010696,-0.994030,-0.108586,0.003601,-0.001072,0.017537,3.298258,-40.954399,-26.345671,,,,,,,
1558972887.383607,-0.109410,1.469585,1.931052,0.284069,0.146970,-0.060528,-0.011033,-0.994882,-0.100435,-0.020843,0.008753,-0.003828,3.379271,-41.317951,-25.761272,,,,,,,
1558972887.403575,-0.082483,1.472677,1.908686,0.083307,0.232442,-0.157027,-0.008071,-0.995190,-0.097629,-0.013871,0.005673,-0.004422,3.444199,-41.396538,-25.626152,,,,,,,
1558972887.423576,-0.039871,1.473547,1.870039,0.002401,0.206361,-0.210724,-0.003870,-0.995275,-0.097019,-0.012838,0.011144,0.016011,3.693264,-41.424301,-25.546482,,,,,,,
1558972887.443561,0.012546,1.473235,1.822196,-0.015608,0.216974,-0.245869,0.001222,-0.995245,-0.097399,-0.020173,0.008596,0.004961,4.066984,-41.398270,-25.531918,,,,,,,
1558972887.463533,0.063676,1.473585,1.772425,0.059258,0.006254,-0.232879,0.006176,-0.995279,-0.096862,-0.005734,0.021509,-0.011750,4.281739,-41.382469,-25.522409,,,,,,,
1558972887.483531,0.101414,1.475568,1.736644,0.130057,0.240764,-0.081107,0.009626,-0.995469,-0.094596,0.027620,0.036531,0.005683,4.479538,-41.398876,-25.461786,,,,,,,
1558972887.503517,0.106277,1.478224,1.737247,0.167260,0.261832,0.001333,0.009806,-0.995718,-0.091919,0.050100,0.031180,-0.013504,4.614217,-41.441498,-25.368227,,,,,,,
1558972887.523500,0.133405,1.483464,1.719588,0.293838,0.551830,-0.008602,0.011601,-0.996189,-0.086447,-0.020619,0.023792,-0.032770,4.907859,-41.589836,-25.068590,,,,,,,
1558972887.543487,0.162991,1.488848,1.701578,0.180286,0.621013,-0.088104,0.013283,-0.996644,-0.080772,-0.001366,0.020722,0.021308,5.117760,-41.693527,-24.853455,,,,,,,
1558972887.563472,0.187108,1.489915,1.689274,0.004396,0.600979,0.034343,0.015029,-0.996731,-0.079383,-0.005446,0.051113,-0.010720,5.391824,-41.773987,-24.659649,,,,,,,
1558972887.583457,0.148157,1.490513,1.742350,-0.005022,0.717517,0.180653,0.011838,-0.996779,-0.079319,-0.088285,0.053481,-0.016278,5.735228,-41.803436,-24.531923,,,,,,,
1558972887.603441,0.095869,1.490863,1.807175,0.000911,0.607649,0.242598,0.007643,-0.996807,-0.079482,-0.117262,-0.029987,0.011229,5.833378,-41.818356,-24.483311,,,,,,,
1558972887.623412,0.010633,1.490986,1.907369,-0.058824,0.883806,0.218511,0.000848,-0.996817,-0.079721,-0.057687,0.002096,-0.018592,5.831420,-41.871689,-24.392458,,,,,,,
1558972887.643412,-0.040662,1.488135,1.980648,-0.193285,1.148907,0.313826,-0.003356,-0.996585,-0.082499,-0.086625,-0.005688,-0.033102,6.026005,-41.862556,-24.360815,,,,,,,
1558972887.663384,-0.104772,1.481179,2.066780,-0.413303,1.023540,0.528115,-0.009360,-0.995987,-0.089008,-0.096307,0.008209,-0.082776,6.245118,-41.820354,-24.378109,,,,,,,
1558972887.683360,-0.201330,1.467226,2.174538,-0.715333,0.155259,0.563335,-0.020674,-0.994641,-0.101297,0.019286,-0.070483,-0.115103,6.219442,-41.580811,-24.790934,,,,,,,
1558972887.703367,-0.248831,1.448630,2.214285,-0.919723,-0.588108,0.358542,-0.030011,-0.992547,-0.118110,-0.022586,-0.049476,-0.047356,5.868226,-41.334190,-25.284069,,,,,,,
1558972887.723331,-0.236542,1.429781,2.210306,-0.970590,1.019614,0.183848,-0.032937,-0.990074,-0.136635,-0.132377,0.190864,0.141258,5.479225,-41.012726,-25.887642,,,,,,,
1558972887.743327,-0.178116,1.402948,2.166185,-1.486882,0.187758,-0.209948,-0.029599,-0.985946,-0.164419,0.124631,-0.119385,-0.120463,5.996679,-40.126678,-27.131630,,,,,,,
1558972887.763322,-0.160524,1.378734,2.145500,-1.043594,-0.119397,0.227337,-0.030510,-0.981613,-0.188430,0.169563,-0.107789,0.040404,6.066788,-39.537403,-27.968254,,,,,,,
1558972887.783287,-0.196719,1.360149,2.178389,-0.741159,-0.245189,0.579767,-0.040868,-0.977896,-0.205061,0.110921,-0.086191,-0.028673,5.880154,-39.109436,-28.602646,,,,,,,
1558972887.803274,-0.230584,1.347490,2.209391,-0.438062,-0.117128,0.338879,-0.050613,-0.975171,-0.215593,-0.015305,0.023602,-0.067808,5.095992,-38.583382,-29.454865,,,,,,,
1558972887.823274,-0.239319,1.342747,2.218648,-0.063215,0.131020,0.074642,-0.053590,-0.974109,-0.219634,-0.001174,0.007846,-0.054368,4.896837,-38.428040,-29.690781,,,,,,,
1558972887.843233,-0.240840,1.343332,2.222267,0.083351,0.008624,0.027679,-0.053788,-0.974241,-0.218999,0.040620,-0.001253,-0.061579,4.919647,-38.420883,-29.696274,,,,,,,
1558972887.863231,-0.247624,1.346793,2.226818,0.223360,-0.158109,-0.002631,-0.054445,-0.975016,-0.215359,0.046373,0.001002,-0.035846,4.883822,-38.520847,-29.572422,,,,,,,
1558972887.883232,-0.255725,1.351851,2.230473,0.283705,-0.280052,-0.049659,-0.054940,-0.976127,-0.210137,0.024530,0.002479,-0.052619,4.777537,-38.661102,-29.406292,,,,,,,
1558972887.903217,-0.254565,1.359282,2.225246,0.353889,-0.058711,-0.225781,-0.052868,-0.977714,-0.203175,-0.064136,0.014869,-0.002941,4.701200,-38.793812,-29.243370,,,,,,,
1558972887.923204,-0.230219,1.365790,2.201570,0.207654,0.094107,-0.333336,-0.046454,-0.979060,-0.198202,-0.005472,-0.017766,0.005590,4.946978,-38.986134,-28.945545,,,,,,,
1558972887.943178,-0.207831,1.369618,2.178885,0.113320,-0.051085,-0.212022,-0.041231,-0.979832,-0.195524,0.031099,-0.004833,-0.004122,5.156601,-39.037949,-28.838928,,,,,,,
1558972887.963173,-0.196973,1.373117,2.164527,0.176570,-0.208833,-0.172901,-0.038435,-0.980525,-0.192597,0.010786,0.015452,-0.030487,5.271358,-39.085571,-28.753550,,,,,,,
1558972887.983159,-0.187033,1.376355,2.150416,0.266138,-0.169162,-0.190599,-0.035928,-0.981156,-0.189849,-0.005500,0.022522,-0.022782,5.304592,-39.206615,-28.582134,,,,,,,
1558972888.003143,-0.173927,1.382987,2.134519,0.317576,-0.080694,-0.224943,-0.032310,-0.982416,-0.183890,0.001304,0.020349,0.001548,5.299250,-39.182003,-28.616859,,,,,,,
1558972888.023128,-0.144093,1.390785,2.102795,0.309908,-0.122854,-0.170910,-0.025709,-0.983842,-0.177185,0.038054,0.012635,0.006210,5.454657,-39.407696,-28.275713,,,,,,,
1558972888.043115,-0.140346,1.397749,2.095098,0.350924,-0.237104,-0.088695,-0.024086,-0.985065,-0.170492,0.034981,0.021777,0.008382,5.627571,-39.611797,-27.954813,,,,,,,
1558972888.063099,-0.144463,1.402734,2.096244,0.172861,-0.008934,-0.103733,-0.024081,-0.985911,-0.165530,-0.017850,0.004755,-0.007199,5.582603,-39.745541,-27.773415,,,,,,,
1558972888.083083,-0.133559,1.404312,2.086703,0.024908,0.008804,-0.071652,-0.022067,-0.986173,-0.164241,0.025287,0.000776,-0.020894,5.618081,-39.814735,-27.666941,,,,,,,
1558972888.103070,-0.134998,1.402275,2.086339,0.046575,-0.147581,0.038971,-0.022574,-0.985834,-0.166199,0.001196,0.022516,-0.032714,5.629580,-39.829510,-27.643333,,,,,,,
1558972888.123054,-0.138825,1.404606,2.087038,0.152028,-0.159871,-0.033662,-0.022892,-0.986222,-0.163835,-0.017636,0.017075,-0.028349,5.557241,-39.790779,-27.713652,,,,,,,
1558972888.143039,-0.142794,1.406444,2.086204,0.098363,-0.298073,-0.044636,-0.023284,-0.986525,-0.161948,-0.007905,-0.005938,-0.016809,5.487940,-39.870270,-27.613035,,,,,,,
1558972888.163009,-0.144964,1.406372,2.081307,-0.066760,-0.338435,-0.048358,-0.023645,-0.986513,-0.161967,-0.012137,0.004564,0.001384,5.283133,-39.877613,-27.642359,,,,,,,
1558972888.182982,-0.137637,1.403203,2.068157,-0.159014,-0.254527,-0.103146,-0.022887,-0.985989,-0.165232,-0.000764,0.010907,-0.007985,5.192339,-39.830769,-27.726971,,,,,,,
1558972888.202965,-0.128279,1.400972,2.053421,-0.095221,-0.279179,-0.106534,-0.021621,-0.985614,-0.167621,0.025878,0.009616,-0.024396,5.131701,-39.716415,-27.901747,,,,,,,
1558972888.222971,-0.126030,1.401222,2.044900,0.062057,-0.334888,-0.051424,-0.021213,-0.985657,-0.167424,0.028476,0.028183,-0.026851,5.021357,-39.667900,-27.990700,,,,,,,
1558972888.242936,-0.119070,1.402188,2.031236,0.111082,-0.311875,-0.041559,-0.019934,-0.985819,-0.166622,0.023779,0.024897,-0.018742,4.906190,-39.698559,-27.967651,,,,,,,
1558972888.262932,-0.124871,1.404500,2.032466,0.127419,-0.168105,0.027091,-0.020616,-0.986205,-0.164242,0.029650,0.022124,-0.038807,4.832047,-39.712341,-27.960989,,,,,,,
1558972888.282908,-0.137956,1.408015,2.043929,0.226676,-0.060720,0.089055,-0.022287,-0.986780,-0.160524,0.034234,0.026896,-0.048140,4.693514,-39.823818,-27.825714,,,,,,,
1558972888.302919,-0.146185,1.411566,2.051297,0.339393,-0.079227,0.124195,-0.023096,-0.987350,-0.156867,0.028376,0.019637,-0.037850,4.609015,-39.937836,-27.676014,,,,,,,
1558972888.322904,-0.173928,1.418394,2.076951,0.376415,-0.134333,0.159997,-0.026272,-0.988409,-0.149523,0.030071,0.006964,-0.032683,4.532256,-40.068291,-27.499571,,,,,,,
1558972888.342891,-0.205873,1.424847,2.108000,0.332052,-0.028396,0.162043,-0.029729,-0.989368,-0.142361,0.007223,-0.011715,-0.021183,4.303626,-40.340275,-27.136269,,,,,,,
1558972888.362875,-0.230578,1.428486,2.133693,0.105701,0.071039,0.124379,-0.032414,-0.989891,-0.138076,-0.000774,-0.021797,0.001724,4.210050,-40.465492,-26.963961,,,,,,,
1558972888.382860,-0.246163,1.427405,2.150385,-0.080711,0.041395,0.144231,-0.034823,-0.989737,-0.138593,0.020006,-0.014642,0.003140,4.138495,-40.527359,-26.881992,,,,,,,
1558972888.402846,-0.266042,1.423583,2.171196,-0.181977,0.033584,0.219878,-0.038565,-0.989184,-0.141521,0.001547,-0.003233,0.007824,3.995983,-40.472137,-26.986555,,,,,,,
1558972888.422830,-0.289957,1.417576,2.195942,-0.286156,0.060503,0.184822,-0.043636,-0.988285,-0.146250,-0.015446,-0.004727,0.006388,3.873274,-40.400078,-27.112120,,,,,,,
1558972888.442816,-0.287782,1.411300,2.196586,-0.298435,0.145974,0.042566,-0.045078,-0.987307,-0.152290,-0.036420,-0.001752,0.030433,3.743436,-40.266762,-27.327827,,,,,,,
1558972888.462801,-0.275219,1.406699,2.185553,-0.207113,0.037547,-0.045946,-0.044395,-0.986566,-0.157214,-0.000084,0.000543,0.010684,3.810483,-40.078938,-27.593384,,,,,,,
1558972888.482763,-0.266729,1.404462,2.175885,-0.057481,-0.110190,-0.063255,-0.043640,-0.986198,-0.159714,-0.008621,-0.002327,-0.011658,3.824856,-40.049484,-27.634125,,,,,,,
1558972888.502771,-0.259455,1.405877,2.165713,0.076625,-0.137391,-0.110384,-0.042119,-0.986432,-0.158678,-0.019404,0.021008,-0.005675,3.831098,-39.976597,-27.738604,,,,,,,
1558972888.522756,-0.251625,1.406585,2.154459,-0.038005,-0.112730,-0.279991,-0.040701,-0.986548,-0.158326,-0.006250,0.018027,0.020371,3.783681,-40.001770,-27.708809,,,,,,,
1558972888.542724,-0.211174,1.406603,2.112659,-0.073727,-0.003782,-0.354780,-0.034262,-0.986551,-0.159826,0.006521,0.001443,0.000386,3.824020,-39.991184,-27.718542,,,,,,,
1558972888.562725,-0.159128,1.408508,2.059917,0.139210,-0.035699,-0.452073,-0.025603,-0.986860,-0.159536,-0.003663,0.013899,-0.017146,4.250374,-39.884300,-27.810297,,,,,,,
1558972888.582683,-0.097312,1.418065,1.993948,0.590117,-0.262465,-0.659938,-0.014782,-0.988359,-0.151419,-0.027180,0.040025,-0.030436,4.689340,-39.999588,-27.573151,,,,,,,
1558972888.602696,-0.009226,1.434545,1.890969,0.807656,-0.866343,-0.820353,-0.001253,-0.990732,-0.135824,-0.044844,0.105036,0.015356,4.948429,-40.233509,-27.184803,,,,,,,
1558972888.622662,0.057746,1.445157,1.817042,0.357379,-0.243594,-0.165623,0.007232,-0.992118,-0.125100,0.123017,-0.109719,-0.036155,5.199978,-40.558544,-26.649582,,,,,,,
1558972888.642645,0.065418,1.450118,1.801121,0.254726,-0.361365,-0.115586,0.007870,-0.992727,-0.120128,0.022098,0.069082,0.014797,5.128564,-40.749168,-26.371172,,,,,,,
1558972888.662652,0.084763,1.456034,1.778916,0.324879,-0.065760,-0.108430,0.009695,-0.993422,-0.114099,0.003901,0.027144,-0.006888,5.104530,-40.779743,-26.328537,,,,,,,
1558972888.682610,0.108786,1.461512,1.753062,0.236442,-0.091721,-0.108749,0.011842,-0.994034,-0.108422,0.004287,0.025071,-0.013435,5.150928,-41.004776,-25.967514,,,,,,,
1558972888.702596,0.116234,1.464104,1.743946,0.079728,-0.107630,0.012685,0.012350,-0.994314,-0.105771,-0.008184,0.057546,-0.016025,5.177520,-41.120495,-25.778551,,,,,,,
1558972888.722607,0.106048,1.465470,1.751344,0.064687,-0.128623,0.058381,0.011128,-0.994458,-0.104541,0.014644,0.031461,-0.007962,5.161055,-41.131092,-25.764952,,,,,,,
1558972888.742577,0.093280,1.466684,1.761944,0.047765,-0.098950,0.050110,0.009680,-0.994585,-0.103473,-0.004706,0.026934,-0.017560,5.020819,-41.178249,-25.717285,,,,,,,
1558972888.762553,0.091474,1.467603,1.762466,0.042699,-0.046155,-0.004907,0.009410,-0.994680,-0.102580,-0.008311,0.009970,-0.006322,4.908509,-41.221569,-25.669525,,,,,,,
1558972888.782562,0.092911,1.468520,1.760683,0.054457,-0.027178,0.003825,0.009472,-0.994774,-0.101658,0.005512,0.010155,-0.005291,4.903775,-41.237167,-25.645370,,,,,,,
1558972888.802544,0.084912,1.470148,1.767274,0.094596,-0.092829,0.067288,0.008522,-0.994939,-0.100116,0.019509,0.001287,-0.002285,4.875294,-41.268684,-25.600063,,,,,,,
1558972888.822520,0.078197,1.472313,1.771953,0.101949,-0.108675,0.099169,0.007681,-0.995154,-0.098024,-0.007223,-0.025903,0.000657,4.783994,-41.336056,-25.508419,,,,,,,
1558972888.842518,0.062600,1.474001,1.786495,0.059716,-0.020779,0.060473,0.006046,-0.995319,-0.096455,-0.004963,-0.017910,-0.000347,4.693036,-41.378811,-25.455944,,,,,,,
1558972888.862480,0.048095,1.475642,1.801004,0.100178,-0.006157,0.085201,0.004568,-0.995476,-0.094901,0.004572,-0.027732,-0.004189,4.629550,-41.418240,-25.403395,,,,,,,
1558972888.882487,0.034304,1.477678,1.814449,0.148051,-0.020169,0.072293,0.003189,-0.995668,-0.092929,-0.003189,-0.022780,-0.011640,4.546173,-41.481438,-25.315178,,,,,,,
1558972888.902473,0.026280,1.481131,1.821669,0.179900,-0.073275,0.013089,0.002353,-0.995983,-0.089514,-0.003253,-0.015934,-0.011499,4.499599,-41.545963,-25.217501,,,,,,,
1558972888.922457,0.024625,1.485295,1.821253,0.218121,-0.111554,-0.004329,0.002103,-0.996347,-0.085372,-0.008542,-0.029974,-0.000734,4.448483,-41.641861,-25.067947,,,,,,,
1558972888.942443,0.032856,1.488745,1.811119,0.139465,-0.077320,-0.006201,0.002692,-0.996636,-0.081915,0.011651,-0.018470,-0.005335,4.386033,-41.769562,-24.865683,,,,,,,
1558972888.962404,0.040951,1.489569,1.801887,0.035142,-0.061934,0.006681,0.003322,-0.996703,-0.081070,0.003621,-0.018007,-0.011108,4.409921,-41.805748,-24.800560,,,,,,,
1558972888.982413,0.039065,1.488495,1.802327,-0.035089,-0.058408,-0.002951,0.003211,-0.996615,-0.082146,-0.000342,-0.018537,-0.016319,4.398990,-41.798561,-24.814613,,,,,,,
1558972889.002398,0.035202,1.486556,1.806216,-0.040133,0.020874,-0.017142,0.002961,-0.996454,-0.084088,-0.002015,-0.008307,-0.014834,4.360488,-41.744709,-24.911865,,,,,,,
1558972889.022369,0.043187,1.484816,1.798213,0.001267,-0.016350,-0.024940,0.003707,-0.996306,-0.085795,0.003968,-0.001009,-0.015676,4.378311,-41.697556,-24.987598,,,,,,,
1558972889.042367,0.050544,1.484300,1.790201,0.056528,-0.038822,-0.014436,0.004365,-0.996261,-0.086279,0.003402,0.001694,-0.012507,4.404518,-41.662769,-25.040953,,,,,,,
1558972889.062353,0.053360,1.485187,1.786593,0.070369,-0.036779,-0.013338,0.004560,-0.996338,-0.085383,0.000872,0.006958,-0.006032,4.399990,-41.681152,-25.011143,,,,,,,
1558972889.082328,0.060858,1.486541,1.778790,0.058730,-0.009215,0.000795,0.005118,-0.996453,-0.084000,0.008843,0.010689,0.001069,4.404758,-41.701691,-24.976046,,,,,,,
1558972889.102322,0.065579,1.487733,1.773583,0.049027,-0.041915,0.011149,0.005437,-0.996552,-0.082790,0.004496,0.008210,0.003872,4.427753,-41.728802,-24.926649,,,,,,,
1558972889.122308,0.063966,1.489041,1.774252,0.027788,-0.039732,-0.016605,0.005220,-0.996660,-0.081497,-0.000643,0.013551,0.010406,4.393282,-41.766529,-24.869497,,,,,,,
1558972889.142281,0.064758,1.489735,1.772816,-0.002004,-0.027923,0.000567,0.005240,-0.996716,-0.080803,0.000467,0.005124,0.007042,4.384425,-41.789295,-24.832787,,,,,,,
1558972889.162278,0.064052,1.489965,1.772955,-0.001990,-0.027936,-0.007974,0.005168,-0.996735,-0.080578,-0.003993,0.007447,0.002468,4.371755,-41.799622,-24.817635,,,,,,,
1558972889.182264,0.066672,1.489834,1.769515,0.021326,-0.053410,0.003544,0.005388,-0.996724,-0.080694,0.007643,0.014089,-0.008509,4.352496,-41.801449,-24.817944,,,,,,,
1558972889.202231,0.062461,1.490512,1.772616,0.045817,-0.034458,0.040045,0.005006,-0.996779,-0.080042,0.002806,0.001967,0.002008,4.336922,-41.801430,-24.820704,,,,,,,
1558972889.222222,0.056863,1.491631,1.777575,0.056394,-0.059898,0.029132,0.004494,-0.996868,-0.078955,0.006599,0.011608,0.004630,4.298026,-41.824894,-24.787916,,,,,,,
1558972889.242214,0.061336,1.492608,1.770913,-0.023611,-0.129297,-0.008965,0.004788,-0.996945,-0.077961,0.009754,0.015240,0.014057,4.247342,-41.861439,-24.734913,,,,,,,
1558972889.262204,0.056809,1.491390,1.774068,-0.095707,-0.030580,0.015410,0.004504,-0.996849,-0.079195,0.000547,0.016502,0.011171,4.219461,-41.852001,-24.755640,,,,,,,
1558972889.282188,0.052367,1.489528,1.777979,-0.051107,-0.048736,0.047300,0.004249,-0.996700,-0.081068,0.011483,0.017101,-0.007524,4.195347,-41.811821,-24.827534,,,,,,,
1558972889.302121,0.038633,1.489239,1.790432,0.003110,-0.071222,0.044993,0.003146,-0.996676,-0.081406,-0.004825,0.005541,-0.004730,4.130723,-41.787811,-24.878736,,,,,,,
1558972889.322114,0.027505,1.488468,1.800740,-0.023281,-0.006616,0.038116,0.002262,-0.996613,-0.082204,-0.002841,0.004822,-0.018412,4.075430,-41.785667,-24.891459,,,,,,,
1558972889.342081,0.018215,1.487804,1.810762,-0.017814,0.032448,0.026751,0.001510,-0.996558,-0.082884,0.001618,0.003287,-0.009783,4.045537,-41.767696,-24.926468,,,,,,,
1558972889.362058,0.014443,1.487660,1.814490,0.020350,-0.016379,0.024178,0.001199,-0.996546,-0.083033,0.002707,-0.005804,-0.001379,4.024645,-41.751251,-24.957378,,,,,,,
1558972889.382069,0.007653,1.487985,1.820915,0.011831,-0.017392,0.024161,0.000633,-0.996573,-0.082715,0.000069,-0.007608,-0.004596,4.004168,-41.760860,-24.944593,,,,,,,
1558972889.402048,0.004119,1.487380,1.824419,-0.040215,0.009280,0.006225,0.000343,-0.996523,-0.083319,-0.001274,-0.009855,-0.009531,3.982649,-41.764172,-24.942501,,,,,,,
1558972889.422040,0.004412,1.485470,1.824623,-0.053964,0.033651,-0.002094,0.000376,-0.996362,-0.085222,0.001058,0.000375,-0.021010,3.981606,-41.722542,-25.012238,,,,,,,
1558972889.442024,0.005618,1.484611,1.823898,0.011973,0.016395,-0.000072,0.000484,-0.996288,-0.086077,0.001744,0.001263,-0.020902,3.995703,-41.693272,-25.058756,,,,,,,
1558972889.461993,0.006503,1.485006,1.823501,0.040787,0.033137,-0.012700,0.000557,-0.996322,-0.085684,-0.000862,0.000640,-0.003504,4.004301,-41.681892,-25.076303,,,,,,,
1558972889.481992,0.013607,1.485628,1.817298,0.019532,0.051242,0.003470,0.001157,-0.996375,-0.085057,0.008745,0.004035,0.004796,4.045569,-41.699036,-25.041155,,,,,,,
1558972889.501980,0.014593,1.485855,1.817601,-0.007026,0.069357,0.007892,0.001238,-0.996395,-0.084830,0.006132,0.006679,0.007652,4.078403,-41.709873,-25.017769,,,,,,,
1558972889.521966,0.019846,1.485607,1.812952,-0.012527,0.003814,-0.017296,0.001688,-0.996374,-0.085069,0.005346,0.001668,-0.003294,4.108349,-41.708469,-25.015209,,,,,,,
1558972889.541950,0.025881,1.485408,1.806928,0.009812,0.004771,-0.005526,0.002207,-0.996357,-0.085256,0.005712,0.003177,-0.004969,4.138507,-41.697464,-25.028585,,,,,,,
1558972889.561935,0.027513,1.485213,1.805375,0.008737,0.004786,0.000879,0.002351,-0.996340,-0.085446,0.001799,0.006579,-0.007038,4.151354,-41.692104,-25.035379,,,,,,,
1558972889.581920,0.026261,1.485210,1.807021,0.012008,0.031202,0.006472,0.002245,-0.996340,-0.085452,-0.002061,0.010836,-0.009259,4.154714,-41.690865,-25.036890,,,,,,,
1558972889.601907,0.024853,1.484336,1.809503,0.028069,0.066016,0.017494,0.002146,-0.996265,-0.086326,0.004705,0.018283,-0.019433,4.167498,-41.677513,-25.056986,,,,,,,
1558972889.621874,0.019971,1.484844,1.815732,0.066358,0.062662,0.030304,0.001714,-0.996308,-0.085829,-0.001241,0.016252,-0.004702,4.186776,-41.669121,-25.067726,,,,,,,
1558972889.641876,0.018910,1.486241,1.817787,0.048237,0.044755,0.007698,0.001597,-0.996427,-0.084439,0.004690,0.014433,0.007199,4.190998,-41.702484,-25.011475,,,,,,,
1558972889.661861,0.019053,1.487108,1.818635,0.025841,0.044915,0.036506,0.001593,-0.996500,-0.083576,0.009195,0.017603,0.004810,4.217509,-41.735893,-24.951220,,,,,,,
1558972889.681842,0.012937,1.487768,1.825453,0.018330,0.026987,0.037396,0.001073,-0.996555,-0.082926,0.003932,0.011631,0.006937,4.222765,-41.750332,-24.926168,,,,,,,
1558972889.701826,0.006720,1.488507,1.832160,0.028931,0.015310,0.041562,0.000552,-0.996616,-0.082195,0.004803,0.008381,0.005855,4.213692,-41.769096,-24.896246,,,,,,,
1558972889.721817,-0.001089,1.489475,1.840199,-0.002962,0.017560,0.020206,-0.000088,-0.996695,-0.081232,-0.002994,0.005149,0.017649,4.187863,-41.797516,-24.852869,,,,,,,
1558972889.741789,-0.001415,1.488740,1.841345,-0.051812,0.050576,0.015144,-0.000116,-0.996635,-0.081965,0.004846,0.005760,-0.003149,4.191720,-41.797771,-24.851788,,,,,,,
1558972889.761786,-0.005130,1.488042,1.845623,-0.001957,0.004887,0.031828,-0.000424,-0.996578,-0.082660,0.008404,0.005397,-0.007138,4.191720,-41.797771,-24.851788,,,,,,,
1558972889.781772,-0.012776,1.488679,1.853173,0.021468,0.000515,0.017926,-0.001048,-0.996630,-0.082019,-0.005819,-0.001035,0.007800,4.178561,-41.784081,-24.877007,,,,,,,
1558972889.801754,-0.017313,1.488932,1.858196,-0.022048,0.037735,0.015045,-0.001416,-0.996651,-0.081761,0.000134,-0.003166,0.007298,4.161016,-41.799713,-24.853689,,,,,,,
1558972889.821741,-0.022351,1.488399,1.864190,-0.018855,0.048323,0.038637,-0.001839,-0.996607,-0.082283,0.004098,-0.003606,0.001519,4.165069,-41.796803,-24.857904,,,,,,,
1558972889.841727,-0.034725,1.488314,1.877692,0.071610,0.057404,0.067622,-0.002860,-0.996600,-0.082340,0.001563,0.010318,-0.018582,4.164102,-41.781971,-24.882980,,,,,,,
1558972889.861712,-0.052509,1.490188,1.896791,0.149334,0.065459,0.073100,-0.004226,-0.996753,-0.080410,-0.000046,0.005542,-0.008457,4.131635,-41.812077,-24.837782,,,,,,,
1558972889.881694,-0.067325,1.492724,1.913399,0.086709,0.106969,0.044620,-0.005247,-0.996954,-0.077816,-0.006548,-0.001246,0.017636,4.106383,-41.888809,-24.712368,,,,,,,
1558972889.901670,-0.075968,1.493503,1.924945,-0.050425,0.160534,0.040753,-0.005860,-0.997014,-0.076993,0.002519,0.002691,0.018690,4.132621,-41.936089,-24.627655,,,,,,,
1558972889.921667,-0.078727,1.492483,1.930645,-0.064380,0.120428,0.031816,-0.006153,-0.996935,-0.077991,0.006549,0.002154,0.006900,4.168355,-41.924496,-24.641369,,,,,,,
1558972889.941630,-0.084214,1.491947,1.937522,-0.012474,0.041932,0.028971,-0.006626,-0.996893,-0.078489,0.001224,0.000631,0.007765,4.205785,-41.911884,-24.656462,,,,,,,
1558972889.961636,-0.093131,1.492172,1.946772,0.009782,0.009037,0.022268,-0.007304,-0.996911,-0.078203,-0.008977,-0.000526,0.004533,4.195657,-41.913651,-24.655186,,,,,,,
1558972889.981622,-0.099796,1.492157,1.954042,-0.037990,0.046271,-0.000890,-0.007827,-0.996909,-0.078168,-0.006379,-0.003976,0.007901,4.182060,-41.918892,-24.648582,,,,,,,
1558972890.001597,-0.096720,1.490746,1.952216,-0.096448,0.070881,-0.006039,-0.007722,-0.996798,-0.079591,-0.005980,-0.002470,0.007401,4.185519,-41.909946,-24.663197,,,,,,,
1558972890.021572,-0.092301,1.488815,1.949117,-0.092231,0.056052,-0.011515,-0.007548,-0.996641,-0.081542,-0.003133,-0.002123,0.000792,4.234451,-41.849602,-24.757137,,,,,,,
1558972890.041577,-0.084651,1.487407,1.942051,-0.061482,0.015713,-0.019351,-0.007042,-0.996525,-0.082995,0.004143,0.000416,0.002810,4.257766,-41.817307,-24.807667,,,,,,,
1558972890.061561,-0.078442,1.486640,1.935689,-0.008394,-0.017307,-0.001475,-0.006587,-0.996461,-0.083799,0.014994,0.004991,-0.011813,4.294303,-41.781658,-24.861370,,,,,,,
1558972890.081547,-0.074513,1.486473,1.931394,0.015012,-0.017419,0.006014,-0.006270,-0.996447,-0.083990,0.005599,0.005480,-0.006937,4.295276,-41.774677,-24.872934,,,,,,,
1558972890.101532,-0.077345,1.486753,1.934272,0.040606,0.008910,0.031909,-0.006486,-0.996470,-0.083693,0.005174,0.005839,-0.004396,4.297263,-41.772095,-24.876926,,,,,,,
1558972890.121516,-0.086888,1.487626,1.944195,0.069362,0.022529,0.051280,-0.007209,-0.996543,-0.082761,0.006187,0.013450,-0.005572,4.276708,-41.792152,-24.846760,,,,,,,
1558972890.141493,-0.104052,1.489347,1.962050,0.086414,0.039386,0.074943,-0.008450,-0.996685,-0.080919,0.002164,0.014538,0.010454,4.236505,-41.840790,-24.771677,,,,,,,
1558972890.161460,-0.121355,1.490748,1.980136,0.041709,0.026894,0.045961,-0.009680,-0.996798,-0.079374,-0.005289,-0.001890,0.015745,4.209209,-41.879490,-24.710859,,,,,,,
1558972890.181453,-0.131984,1.491522,1.990817,-0.014802,-0.014072,0.019901,-0.010422,-0.996859,-0.078502,-0.005508,-0.000074,0.015835,4.177499,-41.918892,-24.649359,,,,,,,
1558972890.201444,-0.140591,1.491185,1.998967,-0.043552,-0.021333,0.011269,-0.011144,-0.996833,-0.078743,-0.009654,0.001136,0.008095,4.134259,-41.923698,-24.648472,,,,,,,
1558972890.221424,-0.145168,1.489922,2.003368,-0.063682,0.002008,-0.001334,-0.011686,-0.996731,-0.079936,-0.009569,0.003918,-0.002767,4.101561,-41.913120,-24.671915,,,,,,,
1558972890.241416,-0.143633,1.488785,2.001813,-0.045613,-0.006545,-0.002469,-0.011726,-0.996639,-0.081076,-0.003670,0.005794,-0.001397,4.093826,-41.888832,-24.714411,,,,,,,
1558972890.261413,-0.143459,1.488304,2.001464,0.000137,-0.008885,0.007154,-0.011780,-0.996599,-0.081553,0.002122,0.011385,-0.001882,4.085499,-41.858055,-24.767872,,,,,,,
1558972890.281391,-0.144647,1.488455,2.002163,0.013886,-0.033260,0.013337,-0.011856,-0.996612,-0.081390,0.007736,0.008651,-0.002183,4.078091,-41.858540,-24.768278,,,,,,,
1558972890.301383,-0.146678,1.488359,2.003770,-0.022236,-0.016172,0.003862,-0.012035,-0.996604,-0.081460,0.003353,0.006492,0.001244,4.064352,-41.862038,-24.764626,,,,,,,
1558972890.321368,-0.142770,1.487257,1.999513,-0.062713,-0.019114,0.014477,-0.011873,-0.996513,-0.082593,0.009767,0.000816,-0.004703,4.049872,-41.841431,-24.801792,,,,,,,
1558972890.341353,-0.146925,1.485923,2.003063,-0.048961,-0.041372,0.022816,-0.012410,-0.996400,-0.083858,0.001088,0.001527,-0.006642,4.028341,-41.806053,-24.864880,,,,,,,
1558972890.361337,-0.153282,1.484716,2.008560,-0.016983,-0.033103,0.010110,-0.013127,-0.996297,-0.084965,-0.008877,0.003133,-0.012447,3.992385,-41.786198,-24.904022,,,,,,,
1558972890.381323,-0.157725,1.484073,2.012804,0.013998,0.000556,0.008323,-0.013605,-0.996242,-0.085540,-0.004477,0.000408,-0.012132,3.950969,-41.766872,-24.943012,,,,,,,
1558972890.401309,-0.159255,1.484644,2.014432,0.041690,0.001454,-0.000188,-0.013645,-0.996291,-0.084957,0.001484,0.000213,-0.001682,3.944973,-41.772026,-24.935335,,,,,,,
1558972890.421292,-0.160870,1.485685,2.015884,0.055455,-0.018694,0.004968,-0.013616,-0.996380,-0.083911,0.005255,-0.001255,0.001361,3.944579,-41.782711,-24.917490,,,,,,,
1558972890.441250,-0.160361,1.486788,2.014718,0.010725,-0.034343,-0.014436,-0.013398,-0.996473,-0.082833,0.001740,-0.003328,0.009041,3.938403,-41.822758,-24.851196,,,,,,,
1558972890.461264,-0.156680,1.486419,2.010990,-0.040217,0.016676,-0.004380,-0.013151,-0.996442,-0.083245,0.002698,-0.002337,0.004693,3.939213,-41.824600,-24.847960,,,,,,,
1558972890.481241,-0.154826,1.485845,2.009447,-0.029580,0.010265,-0.012974,-0.013084,-0.996394,-0.083834,-0.002602,0.002223,0.006365,3.950191,-41.812344,-24.866838,,,,,,,
1558972890.501218,-0.145188,1.485595,1.999623,-0.015801,-0.015200,-0.029222,-0.012312,-0.996373,-0.084203,0.011290,0.003575,-0.003993,3.957747,-41.802631,-24.881964,,,,,,,
1558972890.521199,-0.137482,1.485663,1.991568,0.013953,-0.020608,-0.006831,-0.011653,-0.996378,-0.084228,0.007274,0.004481,0.000457,4.001253,-41.785809,-24.903252,,,,,,,
1558972890.541178,-0.138023,1.486401,1.991657,0.042684,-0.019689,0.001741,-0.011598,-0.996441,-0.083494,0.004899,0.002239,0.001356,4.001253,-41.785809,-24.903252,,,,,,,
1558972890.561159,-0.137912,1.487805,1.991427,0.022555,0.004714,-0.007651,-0.011396,-0.996558,-0.082109,0.001676,-0.001336,0.013337,3.999505,-41.813042,-24.857779,,,,,,,
1558972890.581165,-0.130755,1.487663,1.984557,-0.050821,0.019875,-0.022512,-0.010827,-0.996546,-0.082329,0.004372,0.000605,0.001137,4.024986,-41.837433,-24.812584,,,,,,,
1558972890.601158,-0.123297,1.486205,1.977747,-0.066729,0.043229,-0.011625,-0.010391,-0.996424,-0.083849,0.000885,0.002894,-0.004362,4.024986,-41.837433,-24.812584,,,,,,,
1558972890.621145,-0.120327,1.484846,1.975587,-0.006078,0.036568,-0.011640,-0.010304,-0.996309,-0.085223,-0.003444,0.009569,-0.009046,4.086282,-41.763126,-24.927477,,,,,,,
1558972890.641129,-0.118268,1.485288,1.973787,0.040660,0.003545,-0.018324,-0.010077,-0.996346,-0.084808,-0.001932,0.012765,-0.000550,4.090117,-41.757236,-24.936710,,,,,,,
1558972890.661114,-0.115371,1.486050,1.971195,0.035379,0.022619,-0.004266,-0.009744,-0.996411,-0.084082,0.001458,0.021130,0.000738,4.116187,-41.775276,-24.902193,,,,,,,
1558972890.681100,-0.119141,1.486796,1.975524,0.039636,0.024719,0.001096,-0.009972,-0.996474,-0.083306,-0.004783,0.022277,0.001519,4.129758,-41.799149,-24.859844,,,,,,,
1558972890.701083,-0.122178,1.487803,1.978914,0.051314,0.016204,0.003160,-0.010103,-0.996558,-0.082281,-0.000120,0.017340,0.003698,4.128045,-41.804443,-24.851229,,,,,,,
1558972890.721069,-0.124857,1.488755,1.982052,0.041717,0.020513,0.023478,-0.010205,-0.996636,-0.081311,0.005155,0.015512,0.003354,4.134256,-41.843098,-24.785053,,,,,,,
1558972890.741055,-0.132227,1.489663,1.989744,0.041669,0.009957,0.032985,-0.010685,-0.996710,-0.080337,0.002827,0.015692,0.006561,4.124743,-41.873501,-24.735243,,,,,,,
1558972890.761035,-0.140029,1.490669,1.997485,0.050101,-0.013334,0.038106,-0.011172,-0.996792,-0.079258,0.007464,0.011791,0.004505,4.111261,-41.895542,-24.700140,,,,,,,
1558972890.781024,-0.153177,1.491762,2.010269,0.066029,-0.022923,0.043365,-0.012046,-0.996878,-0.078028,0.008979,0.007926,0.001246,4.076872,-41.926586,-24.653116,,,,,,,
1558972890.801010,-0.164644,1.492725,2.021364,0.055397,-0.019700,0.041251,-0.012783,-0.996954,-0.076938,0.003018,0.000952,-0.003262,4.022232,-41.968201,-24.591211,,,,,,,
1558972890.820972,-0.175776,1.493226,2.032327,0.028845,-0.001593,0.040336,-0.013551,-0.996993,-0.076299,0.002397,-0.002397,-0.007365,3.985850,-41.988308,-24.562790,,,,,,,
1558972890.840979,-0.183621,1.493250,2.040145,0.016058,-0.006815,0.037072,-0.014145,-0.996995,-0.076166,0.008789,-0.004943,-0.012380,3.968891,-41.996449,-24.551619,,,,,,,
1558972890.860955,-0.189320,1.493102,2.045969,0.029961,0.014254,0.038351,-0.014607,-0.996983,-0.076229,0.013462,-0.008601,-0.026264,3.955432,-41.986622,-24.570593,,,,,,,
1558972890.880949,-0.190584,1.492511,2.047643,0.023619,0.018480,0.014897,-0.014815,-0.996937,-0.076790,0.010268,-0.004787,-0.044640,3.925107,-42.006687,-24.541142,,,,,,,
1558972890.900915,-0.174702,1.490154,2.032328,0.024740,0.031131,-0.003135,-0.014002,-0.996750,-0.079328,0.023676,0.003434,-0.074496,3.933595,-41.989307,-24.569500,,,,,,,
1558972890.920895,-0.163489,1.489637,2.022423,-0.089960,0.088738,-0.052855,-0.013195,-0.996708,-0.079990,0.089214,0.007863,-0.145779,4.021699,-41.913754,-24.683985,,,,,,,
1558972890.940904,-0.140484,1.485595,2.002652,-0.276881,0.223977,-0.042101,-0.011916,-0.996373,-0.084261,0.118865,0.024693,-0.230772,4.098123,-41.857937,-24.765987,,,,,,,
1558972890.960883,-0.120173,1.479424,1.988207,-0.312751,0.335194,-0.013307,-0.010939,-0.995828,-0.090588,0.121840,0.025369,-0.283085,4.207134,-41.753803,-24.922997,,,,,,,
1558972890.980862,-0.097140,1.473494,1.972980,-0.317708,0.416513,-0.078727,-0.009422,-0.995270,-0.096691,0.067985,0.024475,-0.427174,4.497159,-41.519226,-25.261932,,,,,,,
1558972891.000860,-0.047959,1.464898,1.932914,-0.557782,0.508482,-0.225362,-0.005067,-0.994398,-0.105578,0.080659,0.044050,-0.509549,4.833981,-41.311905,-25.538103,,,,,,,
1558972891.020823,0.011208,1.448819,1.887053,-0.951718,0.802266,-0.239948,0.001364,-0.992570,-0.121667,0.111643,0.081193,-0.583960,5.201629,-41.039524,-25.902435,,,,,,,
1558972891.040829,0.056301,1.427422,1.861536,-1.079655,1.092647,-0.180686,0.008040,-0.989740,-0.142657,0.110994,0.151742,-0.703840,6.009445,-40.350689,-26.794483,,,,,,,
1558972891.060815,0.090295,1.408077,1.851714,-0.874827,1.254436,-0.123456,0.014608,-0.986790,-0.161342,0.102076,0.168065,-0.722630,6.576337,-39.914204,-27.310141,,,,,,,
1558972891.080791,0.117454,1.393685,1.850940,-0.627573,1.376915,-0.050553,0.020646,-0.984357,-0.174973,0.105544,0.184857,-0.726684,7.167764,-39.541855,-27.700191,,,,,,,
1558972891.100766,0.137861,1.382390,1.860670,-0.573804,1.592425,0.058318,0.025739,-0.982304,-0.185517,0.042910,0.214878,-0.665053,8.384643,-39.008560,-28.111666,,,,,,,
1558972891.120770,0.149598,1.370071,1.885450,-0.708147,1.926339,0.225824,0.029716,-0.979922,-0.197153,0.024438,0.219439,-0.643270,9.041607,-38.768665,-28.239605,,,,,,,
1558972891.140743,0.147951,1.356291,1.931291,-0.754122,2.280982,0.428831,0.031379,-0.977082,-0.210539,-0.005393,0.188340,-0.575884,9.729627,-38.502556,-28.374695,,,,,,,
1558972891.160714,0.140647,1.344483,1.987568,-0.599493,2.437898,0.586333,0.031455,-0.974500,-0.222171,-0.111854,0.141950,-0.496762,11.167740,-38.023281,-28.491182,,,,,,,
1558972891.180692,0.128157,1.338338,2.052621,-0.275573,2.609793,0.752656,0.029443,-0.973103,-0.228481,-0.194345,0.094181,-0.370914,11.403308,-37.971043,-28.467533,,,,,,,
1558972891.200711,0.112499,1.337527,2.124759,-0.089856,2.812990,0.856183,0.025950,-0.972916,-0.229698,-0.235469,0.066117,-0.289985,12.542473,-37.926544,-28.044594,,,,,,,
1558972891.220695,0.096229,1.336450,2.202574,-0.223231,3.062157,0.902234,0.022311,-0.972666,-0.231133,-0.340563,-0.002828,-0.107062,13.914471,-38.168648,-27.051384,,,,,,,
1558972891.240680,0.084229,1.330345,2.278198,-0.456239,3.060091,0.821954,0.020035,-0.971231,-0.237297,-0.354034,-0.035209,-0.054863,14.888034,-38.247509,-26.414209,,,,,,,
1558972891.260666,0.076063,1.323928,2.349125,-0.302123,2.998004,0.841769,0.018570,-0.969682,-0.243662,-0.383529,-0.046553,0.029245,15.617347,-38.259975,-25.971298,,,,,,,
1558972891.280651,0.064806,1.323396,2.419243,0.053552,2.722388,0.855430,0.015859,-0.969552,-0.244370,-0.430364,-0.085990,0.128465,16.674393,-38.464863,-24.993093,,,,,,,
1558972891.300622,0.051725,1.328306,2.484247,0.250572,2.381908,0.758376,0.012415,-0.970743,-0.239800,-0.486368,-0.122870,0.249352,17.160242,-38.723476,-24.253948,,,,,,,
1558972891.320621,0.041532,1.334146,2.540904,0.240445,2.165108,0.647392,0.009734,-0.972129,-0.234246,-0.480636,-0.152978,0.362115,17.701256,-39.103416,-23.234114,,,,,,,
1558972891.340606,0.030189,1.338460,2.595973,0.170980,2.084090,0.651899,0.006950,-0.973131,-0.230147,-0.515632,-0.205198,0.519423,18.277742,-39.520435,-22.052094,,,,,,,
1558972891.360584,0.018638,1.343005,2.648510,0.265202,1.885799,0.561462,0.004209,-0.974167,-0.225788,-0.548917,-0.263763,0.672367,18.566435,-39.754837,-21.379341,,,,,,,
1558972891.380575,0.011883,1.350855,2.688617,0.451331,1.431089,0.377894,0.002593,-0.975910,-0.218157,-0.556990,-0.274837,0.725694,18.825142,-39.995827,-20.692595,,,,,,,
1558972891.400563,0.011812,1.360092,2.712039,0.441688,1.004890,0.194442,0.002470,-0.977884,-0.209134,-0.542632,-0.285605,0.855084,19.226858,-40.459007,-19.381235,,,,,,,
1558972891.420543,0.019107,1.368938,2.722253,0.450747,0.786904,0.064245,0.003830,-0.979696,-0.200454,-0.553010,-0.297374,0.933532,19.400394,-40.630867,-18.841257,,,,,,,
1558972891.440531,0.034983,1.377998,2.718081,0.449821,0.435754,-0.088587,0.006702,-0.981472,-0.191489,-0.546039,-0.293568,0.954428,19.640778,-40.815689,-18.181173,,,,,,,
1558972891.460516,0.057856,1.386286,2.697915,0.402783,-0.004956,-0.211352,0.010609,-0.983026,-0.183158,-0.498096,-0.250983,0.925758,19.811337,-40.910770,-17.777950,,,,,,,
1558972891.480487,0.084733,1.393752,2.666086,0.393230,-0.351709,-0.280873,0.014905,-0.984369,-0.175489,-0.492231,-0.194587,0.871992,20.026505,-40.985802,-17.359119,,,,,,,
1558972891.500468,0.113526,1.401702,2.625138,0.465554,-0.717894,-0.333432,0.019064,-0.985738,-0.167206,-0.479742,-0.133159,0.796738,20.124315,-41.009350,-17.189554,,,,,,,
1558972891.520473,0.146792,1.411465,2.572318,0.578394,-1.061027,-0.379332,0.023206,-0.987334,-0.156952,-0.442045,-0.078859,0.713867,20.132505,-41.048100,-17.087162,,,,,,,
1558972891.540457,0.182057,1.421754,2.511836,0.573250,-1.322056,-0.361549,0.026885,-0.988914,-0.146037,-0.395903,-0.021478,0.611904,20.077942,-41.083332,-17.066681,,,,,,,
1558972891.560426,0.212647,1.430926,2.450715,0.514792,-1.601802,-0.324771,0.029423,-0.990234,-0.136274,-0.392552,-0.004212,0.561064,19.962687,-41.120884,-17.111389,,,,,,,
1558972891.580411,0.233128,1.440184,2.395068,0.572520,-1.803842,-0.222029,0.030089,-0.991482,-0.126718,-0.318739,0.032590,0.331094,19.695517,-41.170570,-17.300478,,,,,,,
1558972891.600412,0.246990,1.453520,2.341875,0.841973,-2.041887,-0.126936,0.028607,-0.993131,-0.113457,-0.309582,0.024396,0.273293,19.138039,-41.317318,-17.574150,,,,,,,
1558972891.620371,0.269019,1.471778,2.275839,1.001968,-2.260450,-0.111818,0.026275,-0.995102,-0.095301,-0.308211,0.010238,0.226832,18.680090,-41.502190,-17.631180,,,,,,,
1558972891.640378,0.295550,1.487744,2.202760,0.729268,-2.305482,-0.082573,0.024162,-0.996553,-0.079359,-0.277733,0.027834,0.115248,17.615522,-41.945805,-17.677059,,,,,,,
1558972891.660367,0.298002,1.496708,2.156168,0.361466,-2.118469,-0.012748,0.021733,-0.997257,-0.070758,-0.211690,0.034671,0.035144,17.054319,-42.093880,-17.874319,,,,,,,
1558972891.680338,0.275661,1.503586,2.136936,0.396517,-2.110094,0.056757,0.018280,-0.997742,-0.064624,-0.174942,0.015717,-0.003293,16.489338,-42.190807,-18.173422,,,,,,,
1558972891.700325,0.249294,1.514717,2.117989,0.648928,-2.371369,0.107841,0.013829,-0.998428,-0.054318,-0.148091,-0.044602,-0.044605,15.221051,-42.462460,-18.641201,,,,,,,
1558972891.720321,0.222372,1.528110,2.094957,0.606895,-2.539248,0.084847,0.009412,-0.999089,-0.041623,-0.159146,-0.073222,-0.084673,14.210683,-42.746712,-18.788589,,,,,,,
1558972891.740305,0.182678,1.535187,2.085893,0.181860,-2.327788,0.042757,0.006467,-0.999366,-0.035009,-0.145094,-0.077279,-0.135127,13.452698,-42.906101,-18.982283,,,,,,,
1558972891.760278,0.131143,1.535154,2.095224,-0.083190,-2.024163,-0.005796,0.004660,-0.999365,-0.035330,-0.118552,-0.078730,-0.166819,12.342609,-42.968380,-19.586071,,,,,,,
1558972891.780278,0.109476,1.532542,2.075428,-0.136667,-2.131797,-0.073063,0.004179,-0.999268,-0.038018,-0.110593,-0.061843,-0.220558,11.559493,-42.915447,-20.171225,,,,,,,
1558972891.800253,0.120024,1.527804,2.020721,-0.313507,-2.225112,-0.187269,0.005146,-0.999076,-0.042669,-0.116901,-0.042184,-0.301722,10.956091,-42.851196,-20.639156,,,,,,,
1558972891.820218,0.153042,1.516530,1.945538,-0.667086,-2.002500,-0.295389,0.008269,-0.998528,-0.053606,-0.084181,0.025338,-0.404112,10.038252,-42.581196,-21.640490,,,,,,,
1558972891.840217,0.175294,1.499938,1.887139,-0.808626,-1.673043,-0.307296,0.012347,-0.997491,-0.069714,-0.012607,0.075768,-0.479251,9.469094,-42.186687,-22.646313,,,,,,,
1558972891.860217,0.182199,1.485625,1.849831,-0.567440,-1.463891,-0.257057,0.015414,-0.996375,-0.083660,0.023084,0.122703,-0.508670,9.101875,-41.881268,-23.352753,,,,,,,
1558972891.880203,0.198649,1.477350,1.803409,-0.260958,-1.513139,-0.305327,0.018414,-0.995637,-0.091475,0.055682,0.139527,-0.532030,8.502290,-41.534290,-24.183657,,,,,,,
1558972891.900165,0.225463,1.473760,1.747153,-0.053049,-1.401098,-0.282735,0.021659,-0.995296,-0.094432,0.075600,0.152049,-0.526509,8.029839,-41.400509,-24.571438,,,,,,,
1558972891.920172,0.243078,1.471684,1.704610,-0.081010,-1.122823,-0.192547,0.023816,-0.995092,-0.096041,0.084918,0.155081,-0.508619,7.803994,-41.368099,-24.698454,,,,,,,
1558972891.940157,0.243075,1.468418,1.685875,-0.147254,-0.828477,-0.092627,0.024598,-0.994764,-0.099195,0.099303,0.158674,-0.489000,7.218158,-41.256500,-25.060629,,,,,,,
1558972891.960132,0.235030,1.467624,1.679828,0.065031,-0.657190,-0.019285,0.023983,-0.994682,-0.100158,0.085605,0.115074,-0.437959,6.890847,-41.205956,-25.235313,,,,,,,
1558972891.980127,0.235073,1.471646,1.666713,0.273706,-0.648782,-0.024376,0.023056,-0.995089,-0.096265,0.074433,0.088808,-0.400515,6.733115,-41.229752,-25.239027,,,,,,,
1558972892.000113,0.244032,1.476086,1.645761,0.178308,-0.539455,-0.055436,0.022849,-0.995518,-0.091767,0.059838,0.055440,-0.313934,6.294104,-41.411400,-25.054262,,,,,,,
1558972892.020097,0.248506,1.476206,1.633500,-0.069964,-0.283382,-0.047839,0.023230,-0.995530,-0.091548,0.058267,0.060395,-0.287816,6.115311,-41.445427,-25.042271,,,,,,,
1558972892.040083,0.242568,1.473688,1.636933,-0.135265,-0.045125,0.009907,0.023288,-0.995289,-0.094117,0.062222,0.058933,-0.270599,6.070786,-41.420658,-25.094028,,,,,,,
1558972892.060068,0.229971,1.471888,1.649845,-0.064855,0.020099,0.050090,0.022509,-0.995113,-0.096147,0.066251,0.060420,-0.206572,6.019404,-41.329994,-25.255375,,,,,,,
1558972892.080052,0.219652,1.472486,1.660376,0.059605,-0.000622,0.060668,0.021386,-0.995171,-0.095794,0.058295,0.044671,-0.155854,5.992569,-41.323360,-25.272606,,,,,,,
1558972892.100037,0.214385,1.474196,1.665483,0.070273,-0.009186,0.026430,0.020519,-0.995338,-0.094242,0.043064,0.034461,-0.118038,5.955544,-41.350319,-25.237238,,,,,,,
1558972892.119994,0.212067,1.474569,1.668339,-0.028507,0.052626,0.017333,0.020223,-0.995374,-0.093926,0.033641,0.033460,-0.068107,5.924559,-41.390827,-25.178062,,,,,,,
1558972892.139988,0.200978,1.472557,1.682017,-0.156967,0.181279,0.070776,0.019580,-0.995178,-0.096107,0.028974,0.039063,-0.052743,5.945961,-41.359787,-25.223982,,,,,,,
1558972892.159983,0.177018,1.469083,1.710879,-0.212154,0.255637,0.122691,0.017880,-0.994832,-0.099951,0.024661,0.037861,-0.044413,5.970057,-41.301037,-25.314392,,,,,,,
1558972892.179979,0.154505,1.466059,1.737966,-0.127174,0.192799,0.104007,0.016089,-0.994520,-0.103301,0.005731,0.039076,-0.043107,5.991579,-41.232357,-25.421041,,,,,,,
1558972892.199963,0.139087,1.466343,1.756538,0.082338,0.131438,0.097182,0.014455,-0.994550,-0.103256,0.008998,0.034238,-0.028931,6.004935,-41.179214,-25.503899,,,,,,,
1558972892.219949,0.126727,1.470169,1.771296,0.219568,0.106411,0.101323,0.012697,-0.994941,-0.099653,0.003935,0.024253,-0.012805,5.991798,-41.236645,-25.414034,,,,,,,
1558972892.239913,0.115576,1.474687,1.784113,0.200325,0.073719,0.083912,0.011066,-0.995385,-0.095321,-0.007770,0.023797,0.017166,5.969810,-41.327415,-25.271364,,,,,,,
1558972892.259918,0.102943,1.477854,1.798940,0.117461,0.131256,0.099343,0.009537,-0.995684,-0.092318,0.041427,-0.007017,0.022280,5.929710,-41.483601,-25.023689,,,,,,,
1558972892.279886,0.076702,1.480234,1.828267,0.115265,0.144060,0.172064,0.006930,-0.995902,-0.090173,0.051450,-0.027276,0.035516,5.919643,-41.517544,-24.969728,,,,,,,
1558972892.299863,0.054098,1.485578,1.852799,0.071311,0.050230,0.180738,0.004602,-0.996371,-0.084991,0.017553,-0.059888,0.039809,5.801425,-41.628597,-24.812075,,,,,,,
1558972892.319875,0.017028,1.485432,1.890802,-0.064901,0.049845,0.151798,0.001452,-0.996359,-0.085248,-0.012728,-0.063242,0.022870,5.731149,-41.730469,-24.656794,,,,,,,
1558972892.339854,-0.011637,1.483011,1.921072,-0.138187,0.084004,0.117902,-0.001020,-0.996149,-0.087667,-0.025851,-0.059316,0.012654,5.683490,-41.719090,-24.687065,,,,,,,
1558972892.359839,-0.056502,1.481604,1.967839,-0.066783,0.098391,0.094616,-0.005030,-0.996025,-0.088932,-0.031835,-0.041237,-0.007687,5.509624,-41.679192,-24.793648,,,,,,,
1558972892.379829,-0.081247,1.482148,1.994464,0.050340,0.091382,0.060482,-0.007185,-0.996073,-0.088241,-0.013933,-0.043600,0.004058,5.490429,-41.677635,-24.800512,,,,,,,
1558972892.399813,-0.095228,1.483766,2.010158,0.089667,0.072144,0.057126,-0.008265,-0.996215,-0.086526,-0.010290,-0.049546,0.019083,5.447508,-41.714489,-24.747961,,,,,,,
1558972892.419799,-0.133144,1.487370,2.048708,0.024632,0.014270,0.004215,-0.011062,-0.996522,-0.082592,-0.036820,-0.057708,0.042812,5.429593,-41.778496,-24.643715,,,,,,,
1558972892.439783,-0.122991,1.486642,2.038461,-0.083917,-0.003215,-0.053692,-0.010312,-0.996461,-0.083420,-0.026538,-0.037764,0.027085,5.351381,-41.853127,-24.533937,,,,,,,
1558972892.459769,-0.107712,1.484022,2.023481,-0.156190,0.035232,-0.043773,-0.009317,-0.996237,-0.086164,-0.021811,-0.029275,0.013105,5.373472,-41.826687,-24.574160,,,,,,,
1558972892.479740,-0.111148,1.481057,2.028071,-0.085818,0.073979,-0.038003,-0.009941,-0.995976,-0.089066,-0.024117,-0.002269,-0.007583,5.392120,-41.712330,-24.763731,,,,,,,
1558972892.499739,-0.101735,1.481451,2.019266,0.082115,-0.004066,-0.038615,-0.009062,-0.996011,-0.088765,-0.007845,0.003229,-0.000423,5.451986,-41.694733,-24.780251,,,,,,,
1558972892.519694,-0.110777,1.485654,2.027406,0.149024,-0.053045,-0.041161,-0.009401,-0.996378,-0.084518,-0.016722,0.004861,0.022095,5.466391,-41.734531,-24.709978,,,,,,,
1558972892.539709,-0.100849,1.487543,2.016730,0.039523,-0.019734,-0.062283,-0.008372,-0.996536,-0.082735,-0.010076,0.005570,0.039080,5.443303,-41.844933,-24.527695,,,,,,,
1558972892.559667,-0.083748,1.488160,1.999539,-0.086013,0.006312,-0.050391,-0.006905,-0.996588,-0.082253,0.004906,0.006979,0.024422,5.478129,-41.840939,-24.526751,,,,,,,
1558972892.579661,-0.073359,1.486449,1.989569,-0.073213,0.024246,-0.028856,-0.006175,-0.996445,-0.084021,0.004863,0.008621,0.016181,5.525427,-41.838985,-24.519480,,,,,,,
1558972892.599664,-0.065207,1.485744,1.981134,-0.028683,-0.035198,-0.040066,-0.005535,-0.996385,-0.084770,-0.003055,0.006837,0.010612,5.572522,-41.786976,-24.597391,,,,,,,
1558972892.619648,-0.053071,1.485327,1.967572,-0.021349,-0.081781,-0.063994,-0.004528,-0.996350,-0.085246,-0.000889,0.002896,0.000559,5.586504,-41.768513,-24.625549,,,,,,,
1558972892.639628,-0.038240,1.485065,1.950950,-0.010725,-0.092421,-0.073697,-0.003274,-0.996327,-0.085563,0.000496,0.008458,-0.003655,5.593619,-41.759861,-24.638609,,,,,,,
1558972892.659619,-0.011746,1.485184,1.922372,0.005177,-0.110468,-0.069590,-0.001004,-0.996337,-0.085503,0.008405,0.012420,0.003594,5.637565,-41.736362,-24.668390,,,,,,,
1558972892.679605,0.009477,1.485455,1.898756,-0.001238,-0.117829,-0.066465,0.000808,-0.996361,-0.085234,0.011353,0.018516,0.005736,5.687208,-41.733047,-24.662603,,,,,,,
1558972892.699589,0.030682,1.485433,1.875553,-0.033077,-0.083819,-0.054424,0.002616,-0.996359,-0.085220,0.015192,0.020239,0.010223,5.685511,-41.728172,-24.671247,,,,,,,
1558972892.719574,0.049484,1.484510,1.855124,-0.084186,-0.082473,-0.040575,0.004263,-0.996280,-0.086074,0.017237,0.018771,0.011718,5.759803,-41.700432,-24.700897,,,,,,,
1558972892.739532,0.062780,1.482929,1.839989,-0.078935,-0.101518,-0.034350,0.005506,-0.996142,-0.087581,0.005786,0.024935,0.000042,5.769834,-41.670368,-24.749237,,,,,,,
1558972892.759544,0.066143,1.481520,1.834638,-0.066116,-0.080421,-0.018123,0.005893,-0.996018,-0.088962,0.009778,0.026093,-0.007320,5.766354,-41.633583,-24.811878,,,,,,,
1558972892.779529,0.066501,1.479434,1.833718,-0.071284,-0.008438,0.034874,0.006063,-0.995829,-0.091033,0.015589,0.026423,-0.014557,5.750605,-41.561050,-24.936825,,,,,,,
1558972892.799515,0.056550,1.477661,1.843429,-0.064994,-0.025344,0.061407,0.005256,-0.995666,-0.092853,0.008004,0.021331,-0.008328,5.718634,-41.518414,-25.015081,,,,,,,
1558972892.819499,0.043707,1.475651,1.855597,-0.050115,-0.033886,0.055998,0.004151,-0.995477,-0.094911,0.002777,0.007165,-0.018279,5.673465,-41.476433,-25.094883,,,,,,,
1558972892.839475,0.024096,1.473503,1.875066,-0.022333,0.001912,0.060635,0.002340,-0.995271,-0.097112,-0.012854,-0.002288,-0.015040,5.597597,-41.434509,-25.181023,,,,,,,
1558972892.859450,-0.000622,1.473292,1.899838,0.007523,0.005945,0.035079,-0.000061,-0.995250,-0.097350,-0.016343,-0.004033,-0.002015,5.494773,-41.423950,-25.221010,,,,,,,
1558972892.879436,-0.008494,1.473413,1.907708,0.009611,-0.013115,0.019952,-0.000826,-0.995262,-0.097225,-0.006529,-0.003807,-0.002140,5.494773,-41.423950,-25.221010,,,,,,,
1558972892.899411,-0.010590,1.474039,1.908921,0.011608,-0.060714,0.004550,-0.001023,-0.995323,-0.096601,0.003068,0.004798,0.003156,5.418737,-41.438107,-25.214205,,,,,,,
1558972892.919422,-0.009292,1.474562,1.906198,0.008355,-0.073363,0.017237,-0.000893,-0.995373,-0.096082,0.007683,0.005429,0.006604,5.377038,-41.457882,-25.190617,,,,,,,
1558972892.939402,-0.013418,1.475062,1.908804,0.008306,-0.087099,0.020308,-0.001283,-0.995421,-0.095579,0.006364,0.006468,0.009856,5.377038,-41.457882,-25.190617,,,,,,,
1558972892.959378,-0.011421,1.475519,1.905227,-0.019326,-0.066846,0.036491,-0.001086,-0.995465,-0.095128,0.008853,0.005383,0.004994,5.327307,-41.479469,-25.165634,,,,,,,
1558972892.979381,-0.020440,1.474629,1.913719,-0.057471,-0.006373,0.051986,-0.001962,-0.995380,-0.095999,0.000635,-0.005933,0.000723,5.264400,-41.474224,-25.187504,,,,,,,
1558972892.999365,-0.030956,1.473747,1.923951,-0.028785,-0.037224,0.020753,-0.002999,-0.995294,-0.096850,-0.007835,-0.015371,0.000414,5.264400,-41.474224,-25.187504,,,,,,,
1558972893.019351,-0.033451,1.473628,1.925115,-0.017099,-0.074379,-0.044718,-0.003245,-0.995283,-0.096962,-0.004812,-0.009035,-0.000114,5.170382,-41.452530,-25.242630,,,,,,,
1558972893.039336,-0.023170,1.472571,1.913545,-0.033021,-0.046770,-0.015642,-0.002272,-0.995180,-0.098041,0.010542,-0.000029,-0.012250,5.164510,-41.450390,-25.247353,,,,,,,
1558972893.059321,-0.023851,1.471159,1.914183,-0.016940,0.016666,0.039432,-0.002372,-0.995040,-0.099444,0.004158,-0.002762,-0.015988,5.181080,-41.397106,-25.331240,,,,,,,
1558972893.079306,-0.035959,1.470962,1.926848,0.033117,0.019555,0.026689,-0.003583,-0.995021,-0.099605,-0.012820,-0.004705,-0.008977,5.168505,-41.382549,-25.357580,,,,,,,
1558972893.099262,-0.041462,1.471958,1.931958,0.044713,-0.035539,-0.018668,-0.004090,-0.995119,-0.098592,-0.009841,-0.002485,0.005651,5.117081,-41.396244,-25.345654,,,,,,,
1558972893.119272,-0.034954,1.472268,1.924649,-0.007391,-0.028956,-0.041067,-0.003438,-0.995150,-0.098308,-0.007762,-0.000501,0.006069,5.106511,-41.418213,-25.311865,,,,,,,
1558972893.139261,-0.025917,1.471795,1.915530,-0.040312,0.006135,-0.016203,-0.002561,-0.995103,-0.098806,0.007521,0.006334,0.001654,5.137212,-41.404819,-25.327566,,,,,,,
1558972893.159228,-0.025225,1.471004,1.915024,-0.029681,0.010334,0.001995,-0.002513,-0.995025,-0.099594,-0.000554,0.008651,-0.000625,5.155571,-41.382309,-25.360611,,,,,,,
1558972893.179231,-0.022743,1.470636,1.912364,-0.006325,-0.021541,-0.026050,-0.002274,-0.994988,-0.099967,-0.002426,0.006890,-0.002862,5.158154,-41.375526,-25.371141,,,,,,,
1558972893.199216,-0.018137,1.470276,1.907277,0.012845,-0.016352,-0.022782,-0.001820,-0.994952,-0.100334,0.001027,0.009173,-0.007667,5.168133,-41.360714,-25.393257,,,,,,,
1558972893.219201,-0.015991,1.470646,1.905068,0.020326,-0.000514,-0.007677,-0.001599,-0.994989,-0.099970,0.000103,0.012384,0.000331,5.178662,-41.361488,-25.389845,,,,,,,
1558972893.239173,-0.015214,1.470958,1.904149,0.009652,-0.002550,0.007241,-0.001516,-0.995020,-0.099661,0.003439,0.013743,0.002615,5.180562,-41.366005,-25.382105,,,,,,,
1558972893.259152,-0.012583,1.470934,1.901663,-0.014819,0.004991,0.015833,-0.001254,-0.995018,-0.099689,0.010990,0.005150,0.001682,5.184829,-41.371502,-25.372271,,,,,,,
1558972893.279133,-0.015001,1.470604,1.904103,0.005345,-0.007781,0.028538,-0.001500,-0.994985,-0.100014,0.009649,0.007512,-0.004753,5.191758,-41.360844,-25.388224,,,,,,,
1558972893.299114,-0.020625,1.471280,1.909217,0.044644,-0.037595,0.020810,-0.002049,-0.995052,-0.099331,0.006840,0.006069,-0.003177,5.177407,-41.365265,-25.383944,,,,,,,
1558972893.319126,-0.025131,1.471879,1.912957,0.008492,-0.033203,0.003742,-0.002482,-0.995112,-0.098725,-0.006018,-0.006948,0.000458,5.121059,-41.398289,-25.341507,,,,,,,
1558972893.339099,-0.025100,1.471406,1.912569,-0.032908,-0.006588,-0.015254,-0.002490,-0.995065,-0.099196,-0.005810,-0.007193,-0.000810,5.105853,-41.391865,-25.355072,,,,,,,
1558972893.359097,-0.021365,1.470869,1.908979,-0.014739,0.015514,-0.015028,-0.002131,-0.995011,-0.099738,-0.001210,-0.002440,-0.006295,5.111814,-41.382263,-25.369539,,,,,,,
1558972893.379082,-0.018812,1.470884,1.906635,0.032052,0.003647,-0.010834,-0.001876,-0.995013,-0.099729,0.002014,0.006671,-0.006030,5.139139,-41.366966,-25.388950,,,,,,,
1558972893.399067,-0.015923,1.471856,1.903480,0.033053,-0.019626,-0.019597,-0.001573,-0.995109,-0.098766,-0.000045,0.009209,0.007992,5.147593,-41.389912,-25.349815,,,,,,,
1558972893.419051,-0.014045,1.472191,1.901296,0.008583,-0.007845,-0.002422,-0.001383,-0.995142,-0.098436,0.003916,0.010554,0.004946,5.150512,-41.396355,-25.338697,,,,,,,
1558972893.439037,-0.013666,1.472180,1.901048,-0.006277,0.013400,0.015919,-0.001345,-0.995141,-0.098447,0.002871,0.018167,0.004926,5.156767,-41.400826,-25.330118,,,,,,,
1558972893.459021,-0.017204,1.472216,1.904919,0.000113,0.015484,0.018080,-0.001693,-0.995145,-0.098406,-0.001664,0.016111,0.004594,5.149139,-41.403004,-25.328117,,,,,,,
1558972893.479007,-0.021686,1.472401,1.909596,0.017087,0.000606,0.024357,-0.002130,-0.995163,-0.098214,0.002176,0.017349,0.005471,5.145006,-41.404419,-25.326639,,,,,,,
1558972893.498982,-0.025754,1.473235,1.913333,0.045734,-0.025964,0.028395,-0.002508,-0.995245,-0.097374,0.006323,0.018591,0.004005,5.118837,-41.427311,-25.294491,,,,,,,
1558972893.518977,-0.030641,1.474209,1.917771,0.047865,-0.019614,0.041268,-0.002954,-0.995339,-0.096392,0.008539,0.018166,-0.001203,5.092155,-41.453671,-25.256660,,,,,,,
1558972893.538950,-0.042142,1.474688,1.929172,0.010645,-0.004610,0.048856,-0.004043,-0.995385,-0.095875,-0.004243,0.017053,0.001881,5.061767,-41.471806,-25.232986,,,,,,,
1558972893.558926,-0.056603,1.474383,1.943409,0.002092,-0.016194,0.047672,-0.005446,-0.995356,-0.096110,-0.006578,0.016260,-0.001561,4.990445,-41.480324,-25.233185,,,,,,,
1558972893.578913,-0.064702,1.474243,1.951029,0.027572,-0.038532,0.043207,-0.006233,-0.995342,-0.096201,0.007790,0.013088,-0.008794,4.967914,-41.480225,-25.237806,,,,,,,
1558972893.598887,-0.070406,1.474013,1.955383,0.082718,-0.098007,0.048018,-0.006798,-0.995320,-0.096392,0.009911,0.012181,-0.028760,4.901217,-41.481972,-25.247967,,,,,,,
1558972893.618893,-0.079424,1.474587,1.962418,0.182767,-0.099590,0.048082,-0.007621,-0.995375,-0.095758,0.007042,-0.002992,-0.038672,4.847602,-41.492489,-25.241035,,,,,,,
1558972893.638875,-0.089737,1.478342,1.970550,0.278532,-0.113846,0.040547,-0.008274,-0.995729,-0.091951,0.012409,-0.014540,-0.041716,4.726552,-41.590073,-25.103012,,,,,,,
1558972893.658871,-0.102465,1.482802,1.981792,0.269115,-0.055636,0.057110,-0.008989,-0.996131,-0.087420,0.017305,-0.020699,-0.042509,4.726552,-41.590073,-25.103012,,,,,,,
1558972893.678847,-0.118634,1.487145,1.997492,0.188411,-0.007686,0.030813,-0.009889,-0.996503,-0.082966,0.020158,-0.037005,-0.047268,4.641245,-41.744156,-24.862020,,,,,,,
1558972893.698843,-0.120590,1.489153,2.000285,0.036512,0.063846,-0.027345,-0.009811,-0.996669,-0.080961,0.052337,-0.069203,-0.085665,4.607444,-41.862133,-24.669193,,,,,,,
1558972893.718827,-0.102014,1.487951,1.983736,-0.116478,0.130107,-0.079148,-0.008427,-0.996570,-0.082322,0.061589,-0.071637,-0.116607,4.647781,-41.873672,-24.642025,,,,,,,
1558972893.738812,-0.039349,1.479157,1.924550,-0.172597,0.197958,-0.141542,-0.003600,-0.995804,-0.091440,0.065657,-0.065017,-0.250067,4.769667,-41.817947,-24.713259,,,,,,,
1558972893.758797,0.009186,1.475136,1.880922,-0.231741,0.295367,-0.239948,0.000877,-0.995428,-0.095511,0.054085,-0.054697,-0.312036,5.142921,-41.532333,-25.116753,,,,,,,
1558972893.778782,0.077347,1.469153,1.819944,-0.332322,0.403523,-0.366044,0.007840,-0.994839,-0.101165,0.042346,-0.052067,-0.327912,5.404208,-41.426460,-25.236454,,,,,,,
1558972893.798769,0.159712,1.459106,1.745168,-0.540780,0.395959,-0.502942,0.017726,-0.993769,-0.110040,0.021535,0.000117,-0.342841,6.180487,-41.085014,-25.613646,,,,,,,
1558972893.818744,0.232807,1.440400,1.680717,-1.067155,0.522266,-0.589702,0.029998,-0.991511,-0.126519,0.024262,0.048761,-0.344688,6.843068,-40.647175,-26.138390,,,,,,,
1558972893.838738,0.275658,1.409951,1.651435,-1.591070,0.792456,-0.581130,0.043590,-0.987092,-0.154106,0.017002,0.075090,-0.350075,7.228735,-40.303902,-26.562691,,,,,,,
1558972893.858723,0.299251,1.375468,1.645675,-1.599192,0.947996,-0.502777,0.057218,-0.980984,-0.185463,0.049761,0.195461,-0.510688,8.565198,-38.879330,-28.235981,,,,,,,
1558972893.878708,0.318732,1.347249,1.645344,-1.158667,0.949025,-0.386041,0.069469,-0.975117,-0.210524,0.050373,0.241017,-0.582155,9.469700,-37.961689,-29.179970,,,,,,,
1558972893.898693,0.338888,1.328997,1.645231,-0.712528,1.051540,-0.241637,0.079603,-0.970909,-0.225832,0.026278,0.256828,-0.578124,9.888352,-37.605255,-29.500870,,,,,,,
