timestamp(unix),attitude_roll(radians),attitude_pitch(radians),attitude_yaw(radians),rotation_rate_x(radians/s),rotation_rate_y(radians/s),rotation_rate_z(radians/s),gravity_x(G),gravity_y(G),gravity_z(G),user_acc_x(G),user_acc_y(G),user_acc_z(G),magnetic_field_x(microteslas),magnetic_field_y(microteslas),magnetic_field_z(microteslas),latitude(degree),longitude(degree),altitude(meter),speed(m/s),course(degree),timestamp(unix),User Mark
1558973833.673486,-0.116234,1.140218,-1.375098,0.002553,0.054910,0.066351,-0.048407,-0.908724,-0.414580,-0.011972,-0.012708,-0.010789,-4.972590,-46.683041,-0.155886,,,,,,,
1558973833.693457,-0.118377,1.138919,-1.372022,-0.083714,0.034198,0.050070,-0.049434,-0.908181,-0.415648,-0.000935,0.000177,-0.003252,-5.029318,-46.676891,-0.177082,,,,,,,
1558973833.713456,-0.118580,1.136953,-1.371441,-0.086961,0.000333,0.011308,-0.049730,-0.907357,-0.417409,0.006929,0.001503,0.004964,-5.069630,-46.672131,-0.261002,,,,,,,
1558973833.733440,-0.118901,1.136444,-1.371473,-0.007171,-0.020191,-0.002704,-0.049918,-0.907143,-0.417852,0.000007,0.015572,0.018591,-5.079553,-46.670654,-0.325270,,,,,,,
1558973833.753425,-0.118878,1.137660,-1.371892,0.098245,-0.018658,-0.020755,-0.049778,-0.907654,-0.416757,0.007969,0.010284,0.017008,-5.073545,-46.671410,-0.309946,,,,,,,
1558973833.773410,-0.118642,1.140728,-1.372777,0.149286,-0.037960,-0.026238,-0.049350,-0.908937,-0.414002,0.008777,0.004137,0.005586,-5.042094,-46.675426,-0.196770,,,,,,,
1558973833.793365,-0.118921,1.143394,-1.373508,0.125756,-0.066359,-0.014786,-0.049177,-0.910046,-0.411580,0.000242,-0.005939,-0.007472,-5.005510,-46.679771,-0.025129,,,,,,,
1558973833.813372,-0.122613,1.145200,-1.371323,0.052201,-0.074350,0.038463,-0.050496,-0.910793,-0.409764,-0.008602,-0.022725,-0.003566,-5.008755,-46.679405,0.054873,,,,,,,
1558973833.833339,-0.127463,1.145316,-1.367245,-0.014779,-0.031660,0.077254,-0.052469,-0.910841,-0.409410,-0.013693,-0.020068,-0.003844,-5.044976,-46.675411,0.107550,,,,,,,
1558973833.853347,-0.134643,1.144662,-1.359838,-0.034783,0.041397,0.090754,-0.055487,-0.910570,-0.409613,-0.018289,-0.003782,0.014868,-5.204699,-46.657875,0.103497,,,,,,,
1558973833.873333,-0.137500,1.145302,-1.354860,0.051746,0.125476,0.073480,-0.056577,-0.910835,-0.408875,-0.013369,-0.003808,0.026429,-5.294942,-46.647739,0.096262,,,,,,,
1558973833.893308,-0.138498,1.149565,-1.348378,0.278155,0.374882,0.130499,-0.056449,-0.912586,-0.404969,-0.007012,0.002155,0.044633,-5.363440,-46.639736,0.160503,,,,,,,
1558973833.913284,-0.141470,1.156710,-1.336052,0.406802,0.364813,0.211646,-0.056731,-0.915484,-0.398334,-0.001054,-0.012830,-0.016370,-5.581674,-46.611004,0.562422,,,,,,,
1558973833.933288,-0.146371,1.162981,-1.324176,0.289543,0.295605,0.170319,-0.057844,-0.917990,-0.392363,0.021559,-0.005213,-0.050233,-5.728853,-46.589546,0.807323,,,,,,,
1558973833.953247,-0.147716,1.165350,-1.316443,0.089197,0.207801,0.124476,-0.058052,-0.918926,-0.390134,-0.011711,-0.018970,-0.026843,-5.880104,-46.567207,0.988375,,,,,,,
1558973833.973229,-0.149951,1.164825,-1.311269,-0.068671,0.095486,0.094448,-0.058996,-0.918719,-0.390480,0.026235,-0.006192,-0.021614,-6.021766,-46.548347,1.023312,,,,,,,
1558973833.993242,-0.150046,1.161592,-1.310234,-0.176411,-0.000225,0.034724,-0.059476,-0.917438,-0.393409,0.009962,0.002765,-0.006600,-6.079130,-46.542526,0.945751,,,,,,,
1558973834.013211,-0.149718,1.157846,-1.311368,-0.183975,-0.053097,-0.006359,-0.059860,-0.915941,-0.396824,0.004333,-0.015425,0.033847,-6.092793,-46.544048,0.766039,,,,,,,
1558973834.033188,-0.149507,1.155665,-1.312718,-0.150871,-0.030043,-0.023194,-0.060073,-0.915063,-0.398811,-0.005494,-0.006659,0.032112,-6.079178,-46.548634,0.570732,,,,,,,
1558973834.053196,-0.147620,1.153248,-1.315042,-0.111369,0.001448,-0.031402,-0.059646,-0.914086,-0.401110,-0.005234,-0.007865,0.021075,-6.061045,-46.551876,0.493853,,,,,,,
1558973834.073179,-0.145076,1.151733,-1.317372,-0.104933,0.020455,-0.021607,-0.058825,-0.913470,-0.402631,0.005694,-0.005002,0.013303,-6.040005,-46.555344,0.418983,,,,,,,
1558973834.093155,-0.143631,1.149500,-1.318551,-0.117748,0.018441,0.000784,-0.058535,-0.912560,-0.404733,0.005114,-0.000954,0.016824,-6.013323,-46.559658,0.308832,,,,,,,
1558973834.113135,-0.143872,1.147536,-1.318034,-0.107216,0.002592,0.042279,-0.058890,-0.911755,-0.406491,0.001349,-0.000187,0.011853,-6.028271,-46.558319,0.199572,,,,,,,
1558973834.133134,-0.145974,1.146058,-1.315911,-0.087026,-0.003841,0.052910,-0.059940,-0.911146,-0.407700,-0.000378,0.008910,0.012070,-6.059248,-46.554455,0.161184,,,,,,,
1558973834.153120,-0.148382,1.145033,-1.313382,-0.033714,0.009577,0.024256,-0.061060,-0.910724,-0.408477,-0.006201,0.005588,0.007080,-6.127318,-46.545727,0.091751,,,,,,,
1558973834.173102,-0.148824,1.144621,-1.312692,-0.005002,-0.001151,0.019906,-0.061296,-0.910554,-0.408821,0.002244,-0.002883,-0.010032,-6.150808,-46.542645,0.084814,,,,,,,
1558973834.193088,-0.148951,1.143276,-1.313102,-0.062634,-0.048422,0.014068,-0.061529,-0.909997,-0.410024,0.004858,-0.004081,-0.010080,-6.157640,-46.541794,0.045013,,,,,,,
1558973834.213074,-0.151272,1.141557,-1.312077,-0.090368,-0.063066,0.020313,-0.062716,-0.909283,-0.411426,-0.010861,-0.006504,0.003864,-6.173609,-46.539677,-0.044918,,,,,,,
1558973834.233038,-0.154856,1.139889,-1.309291,-0.083821,-0.010236,0.030436,-0.064424,-0.908587,-0.412697,-0.020369,-0.000471,0.000756,-6.219000,-46.533592,-0.080833,,,,,,,
1558973834.253042,-0.156517,1.138147,-1.307441,-0.068815,0.019337,0.025404,-0.065356,-0.907858,-0.414152,-0.020352,-0.000803,-0.004488,-6.262596,-46.527611,-0.136438,,,,,,,
1558973834.273028,-0.158451,1.136111,-1.305135,-0.065594,0.026713,0.022277,-0.066449,-0.907003,-0.415850,-0.014682,0.001165,-0.013731,-6.341912,-46.516399,-0.248541,,,,,,,
1558973834.293013,-0.159111,1.134337,-1.303908,-0.067718,0.032020,0.029801,-0.066978,-0.906254,-0.417394,-0.001046,-0.003734,-0.006816,-6.386149,-46.509903,-0.321173,,,,,,,
1558973834.312997,-0.158240,1.132386,-1.304069,-0.067746,0.018260,0.016857,-0.066893,-0.905428,-0.419197,0.008177,0.007387,-0.012077,-6.409893,-46.505981,-0.405230,,,,,,,
1558973834.332982,-0.155969,1.130013,-1.306161,-0.079487,-0.001799,-0.008970,-0.066274,-0.904418,-0.421469,0.012152,0.020796,-0.012979,-6.400412,-46.506035,-0.529741,,,,,,,
1558973834.352966,-0.153956,1.127696,-1.308401,-0.065669,-0.013519,-0.022951,-0.065747,-0.903427,-0.423672,0.006329,0.029769,-0.004505,-6.374806,-46.508236,-0.634912,,,,,,,
1558973834.372951,-0.153081,1.126866,-1.309725,-0.008211,-0.018041,-0.017610,-0.065491,-0.903071,-0.424470,0.004623,0.030207,0.001343,-6.355062,-46.510033,-0.698168,,,,,,,
1558973834.392916,-0.152392,1.127247,-1.310683,0.061052,-0.003632,-0.034499,-0.065146,-0.903234,-0.424175,0.001074,0.026708,0.004634,-6.325683,-46.513744,-0.717310,,,,,,,
1558973834.412908,-0.150353,1.129371,-1.312778,0.100516,0.008809,-0.058905,-0.063993,-0.904144,-0.422408,0.008284,0.007583,0.011001,-6.296787,-46.518318,-0.673605,,,,,,,
1558973834.432889,-0.147772,1.131542,-1.315397,0.080271,0.003633,-0.056837,-0.062614,-0.905069,-0.420630,0.012595,0.001612,0.009482,-6.247679,-46.525978,-0.597256,,,,,,,
1558973834.452865,-0.146135,1.133346,-1.317084,0.058924,-0.000438,-0.026999,-0.061687,-0.905835,-0.419116,0.004680,-0.000141,0.014865,-6.159245,-46.539173,-0.475992,,,,,,,
1558973834.472846,-0.145833,1.134712,-1.317367,0.051438,-0.000364,-0.003517,-0.061381,-0.906412,-0.417910,0.005457,0.003001,0.011797,-6.143003,-46.541809,-0.425180,,,,,,,
1558973834.492855,-0.145342,1.135729,-1.317963,0.035445,-0.015101,-0.018619,-0.061042,-0.906842,-0.417028,0.003135,0.003460,-0.001673,-6.134734,-46.543301,-0.378763,,,,,,,
1558973834.512831,-0.145175,1.136443,-1.318708,0.018375,-0.025577,-0.015530,-0.060879,-0.907142,-0.416397,-0.006184,-0.005013,0.005188,-6.099039,-46.548424,-0.321487,,,,,,,
1558973834.532829,-0.146071,1.136705,-1.318090,0.003517,-0.000092,0.010326,-0.061217,-0.907252,-0.416108,-0.009736,-0.003240,0.005249,-6.095363,-46.549015,-0.304924,,,,,,,
1558973834.552793,-0.146882,1.136872,-1.316832,0.004669,0.028447,0.014872,-0.061533,-0.907323,-0.415907,-0.005774,0.000707,0.006621,-6.111753,-46.546932,-0.294527,,,,,,,
1558973834.572798,-0.147251,1.137041,-1.316040,0.007824,0.012562,0.006181,-0.061663,-0.907394,-0.415733,0.002597,0.000030,0.000190,-6.142109,-46.543030,-0.279524,,,,,,,
1558973834.592783,-0.146781,1.137245,-1.316478,0.001417,-0.002231,-0.013184,-0.061441,-0.907479,-0.415579,0.004403,0.000161,0.004233,-6.145144,-46.542648,-0.275711,,,,,,,
1558973834.612760,-0.146072,1.137283,-1.317240,-0.014565,-0.002132,-0.002520,-0.061141,-0.907496,-0.415588,0.008071,-0.005728,0.004394,-6.122556,-46.545689,-0.265018,,,,,,,
1558973834.632752,-0.145876,1.137162,-1.317461,-0.011425,-0.010579,0.014483,-0.061076,-0.907445,-0.415709,0.006297,0.011205,0.010130,-6.119478,-46.546028,-0.276398,,,,,,,
1558973834.652708,-0.146340,1.137321,-1.317200,0.016270,-0.010743,0.001692,-0.061248,-0.907511,-0.415538,0.003707,0.014460,0.008449,-6.122475,-46.545631,-0.276430,,,,,,,
1558973834.672722,-0.147207,1.137486,-1.316836,0.026834,-0.035111,0.001467,-0.061586,-0.907581,-0.415336,-0.002730,0.007831,-0.001732,-6.123301,-46.545593,-0.264757,,,,,,,
1558973834.692706,-0.148441,1.138067,-1.316461,0.019332,-0.046686,0.009891,-0.062020,-0.907825,-0.414738,0.003396,0.002307,0.007039,-6.131550,-46.544674,-0.234116,,,,,,,
1558973834.712683,-0.149165,1.138770,-1.316509,0.017180,-0.050891,0.017321,-0.062226,-0.908119,-0.414062,0.013672,0.002113,0.009094,-6.130776,-46.544834,-0.222172,,,,,,,
1558973834.732655,-0.149749,1.139670,-1.317207,0.022450,-0.080558,-0.011787,-0.062346,-0.908495,-0.413218,0.010908,0.002993,0.013285,-6.119137,-46.546604,-0.164680,,,,,,,
1558973834.752640,-0.151257,1.140934,-1.317513,0.039573,-0.071195,-0.051185,-0.062796,-0.909023,-0.411987,-0.019571,0.000194,0.014847,-6.084311,-46.551353,-0.097233,,,,,,,
1558973834.772616,-0.153690,1.142381,-1.316546,0.048158,-0.040555,-0.028460,-0.063597,-0.909625,-0.410533,-0.025027,-0.006467,0.008037,-6.092596,-46.550369,-0.028814,,,,,,,
1558973834.792616,-0.155753,1.143175,-1.315118,0.018329,-0.022347,0.027209,-0.064331,-0.909955,-0.409687,-0.016220,-0.013889,0.004994,-6.096091,-46.549915,0.019772,,,,,,,
1558973834.812615,-0.159647,1.142628,-1.311497,-0.031718,-0.013584,0.057150,-0.066005,-0.909728,-0.409925,-0.018437,-0.005052,-0.009677,-6.163486,-46.541008,0.056820,,,,,,,
1558973834.832600,-0.162946,1.141297,-1.308176,-0.048707,-0.000813,0.056192,-0.067554,-0.909174,-0.410900,-0.012143,0.003794,0.000179,-6.222367,-46.533203,0.022804,,,,,,,
1558973834.852583,-0.164022,1.140860,-1.306802,0.004632,0.015759,0.015823,-0.068061,-0.908992,-0.411219,0.004462,0.008357,0.004557,-6.289696,-46.524155,-0.019878,,,,,,,
1558973834.872569,-0.162546,1.142199,-1.307855,0.082418,0.017393,-0.032145,-0.067256,-0.909550,-0.410117,0.010371,0.003468,0.007681,-6.283995,-46.524925,0.008337,,,,,,,
1558973834.892553,-0.160568,1.144631,-1.309877,0.112200,-0.002890,-0.061143,-0.066091,-0.910558,-0.408065,0.006780,-0.006938,0.005049,-6.224293,-46.532818,0.111036,,,,,,,
1558973834.912538,-0.158366,1.146859,-1.312315,0.067448,-0.006851,-0.039865,-0.064872,-0.911477,-0.406204,0.004020,-0.019172,0.000595,-6.173799,-46.539299,0.188017,,,,,,,
1558973834.932522,-0.158937,1.147726,-1.311910,0.008823,-0.006464,0.013475,-0.064979,-0.911833,-0.405387,-0.007698,-0.009661,0.001792,-6.138964,-46.543526,0.266211,,,,,,,
1558973834.952508,-0.160531,1.147451,-1.310214,-0.032692,0.006481,0.042392,-0.065665,-0.911720,-0.405531,-0.001595,-0.010430,0.006682,-6.172811,-46.538998,0.275166,,,,,,,
1558973834.972465,-0.162342,1.146568,-1.308106,-0.050787,0.004455,0.038088,-0.066530,-0.911357,-0.406205,-0.003524,-0.005071,0.000367,-6.206620,-46.534615,0.254080,,,,,,,
1558973834.992447,-0.163468,1.145813,-1.306961,-0.033716,0.002205,0.007119,-0.067099,-0.911046,-0.406809,-0.005670,-0.003322,0.005350,-6.251009,-46.528923,0.203850,,,,,,,
1558973835.012457,-0.163581,1.145763,-1.307037,0.010989,-0.009693,-0.016447,-0.067152,-0.911025,-0.406846,-0.006700,-0.002198,0.002779,-6.259197,-46.527847,0.197784,,,,,,,
1558973835.032438,-0.162920,1.146545,-1.308022,0.046161,-0.007802,-0.042024,-0.066768,-0.911347,-0.406188,-0.004964,-0.007461,0.005050,-6.250047,-46.529045,0.205204,,,,,,,
1558973835.052414,-0.161504,1.147616,-1.309835,0.037629,-0.018345,-0.053875,-0.066036,-0.911787,-0.405318,0.000072,-0.007494,-0.011765,-6.198085,-46.535629,0.276155,,,,,,,
1558973835.072400,-0.159702,1.147808,-1.312320,-0.002810,-0.016024,-0.057088,-0.065277,-0.911866,-0.405263,-0.005340,0.001725,-0.008875,-6.153285,-46.541527,0.284271,,,,,,,
1558973835.092374,-0.158487,1.150941,-1.312765,0.177294,0.057057,-0.031688,-0.064334,-0.913148,-0.402519,-0.004071,0.013749,0.033730,-6.125772,-46.544674,0.354042,,,,,,,
1558973835.112364,-0.158774,1.152145,-1.312262,0.073698,-0.024779,0.012288,-0.064275,-0.913638,-0.401415,-0.019846,-0.017743,-0.052061,-6.102705,-46.546272,0.508633,,,,,,,
1558973835.132340,-0.161990,1.150339,-1.309257,-0.159517,-0.006491,0.113702,-0.065832,-0.912902,-0.402834,-0.030603,-0.034989,-0.030912,-6.131814,-46.542866,0.469000,,,,,,,
1558973835.152354,-0.165942,1.145864,-1.303600,-0.197548,0.103710,0.161703,-0.068098,-0.911067,-0.406596,-0.029269,-0.012853,0.015833,-6.245419,-46.529076,0.311502,,,,,,,
1558973835.172339,-0.169737,1.143527,-1.296406,-0.061086,0.156868,0.140969,-0.070000,-0.910101,-0.408432,-0.001152,0.025259,0.025634,-6.429873,-46.504879,0.101616,,,,,,,
1558973835.192324,-0.171896,1.143654,-1.291122,0.065504,0.107502,0.088283,-0.070862,-0.910153,-0.408167,0.007782,0.027829,0.013223,-6.530676,-46.490841,0.097824,,,,,,,
1558973835.212308,-0.173792,1.145129,-1.287495,0.084543,0.051317,0.046122,-0.071403,-0.910763,-0.406708,0.021949,0.007794,-0.000915,-6.607655,-46.479820,0.149197,,,,,,,
1558973835.232294,-0.173572,1.146175,-1.286949,0.033344,0.009272,0.023256,-0.071149,-0.911195,-0.405785,0.020948,-0.004317,0.001336,-6.628078,-46.476620,0.223137,,,,,,,
1558973835.252265,-0.174388,1.145975,-1.286187,-0.026340,-0.015792,0.016562,-0.071512,-0.911112,-0.405907,0.014459,-0.004720,0.009026,-6.633486,-46.475815,0.230572,,,,,,,
1558973835.272263,-0.175527,1.145285,-1.285377,-0.048774,-0.026128,0.047416,-0.072084,-0.910828,-0.406444,0.001390,0.002610,0.012935,-6.650500,-46.473434,0.219254,,,,,,,
1558973835.292248,-0.178343,1.144247,-1.282760,-0.033874,-0.019840,0.063503,-0.073396,-0.910399,-0.407169,-0.003173,0.005843,0.011387,-6.670236,-46.470695,0.198559,,,,,,,
1558973835.312232,-0.180813,1.143823,-1.280476,0.000209,-0.025343,0.037854,-0.074470,-0.910223,-0.407366,-0.006966,0.010245,-0.001859,-6.753627,-46.458824,0.153826,,,,,,,
1558973835.332216,-0.183043,1.143831,-1.278728,0.015162,-0.020170,0.015496,-0.075377,-0.910227,-0.407192,-0.007920,0.008356,-0.001026,-6.799305,-46.452152,0.156052,,,,,,,
1558973835.352202,-0.184820,1.144021,-1.276934,0.002484,0.013736,0.026488,-0.076069,-0.910305,-0.406888,-0.002727,-0.018512,-0.007342,-6.823585,-46.448532,0.173021,,,,,,,
1558973835.372168,-0.186133,1.142519,-1.275383,-0.052905,0.003455,0.025279,-0.076856,-0.909683,-0.408131,-0.008257,0.002731,-0.012035,-6.861937,-46.442936,0.157835,,,,,,,
1558973835.392159,-0.186256,1.141325,-1.275280,-0.056073,0.000265,0.001758,-0.077108,-0.909186,-0.409188,-0.000911,-0.004434,0.002481,-6.861937,-46.442936,0.157835,,,,,,,
1558973835.412154,-0.185112,1.140822,-1.276375,-0.008112,0.004195,-0.029128,-0.076724,-0.908976,-0.409726,-0.000974,0.006007,-0.001987,-6.883158,-46.440041,0.042465,,,,,,,
1558973835.432140,-0.183568,1.140783,-1.278461,-0.000742,-0.028639,-0.047587,-0.076098,-0.908960,-0.409879,-0.000990,0.002756,-0.005984,-6.849588,-46.445019,0.027538,,,,,,,
1558973835.452124,-0.183237,1.140742,-1.279598,-0.020971,-0.018985,-0.024021,-0.075968,-0.908943,-0.409941,-0.005376,-0.006600,0.002089,-6.825331,-46.448586,0.028696,,,,,,,
1558973835.472091,-0.183919,1.140149,-1.278929,-0.036901,0.012876,0.021113,-0.076346,-0.908696,-0.410418,-0.007119,0.002553,0.000338,-6.822118,-46.449070,0.012691,,,,,,,
1558973835.492072,-0.185022,1.139176,-1.277186,-0.043231,0.039364,0.041648,-0.076962,-0.908289,-0.411203,-0.000095,0.003016,0.003549,-6.856848,-46.443951,-0.017607,,,,,,,
1558973835.512070,-0.184641,1.138359,-1.276560,-0.032541,0.040322,0.012838,-0.076941,-0.907947,-0.411961,0.003791,0.005741,0.001195,-6.884703,-46.439808,-0.049139,,,,,,,
1558973835.532059,-0.182992,1.138283,-1.277893,0.000368,-0.001119,-0.017428,-0.076274,-0.907915,-0.412156,0.011562,0.008135,0.008546,-6.886077,-46.439529,-0.095844,,,,,,,
1558973835.552049,-0.181694,1.138493,-1.279401,0.003532,-0.011712,-0.021798,-0.075705,-0.908003,-0.412066,0.007162,-0.004442,-0.005429,-6.844926,-46.445633,-0.087721,,,,,,,
1558973835.572005,-0.181349,1.137898,-1.280127,-0.045506,-0.021986,0.003687,-0.075660,-0.907754,-0.412624,0.002555,-0.004951,-0.006367,-6.836303,-46.446899,-0.087685,,,,,,,
1558973835.592019,-0.182754,1.136906,-1.279103,-0.068901,-0.008101,0.018750,-0.076404,-0.907337,-0.413403,-0.008283,-0.005596,0.006329,-6.846426,-46.445263,-0.146370,,,,,,,
1558973835.612002,-0.183900,1.135747,-1.277590,-0.051760,0.029877,0.029805,-0.077070,-0.906849,-0.414349,-0.012713,-0.001873,0.009716,-6.891010,-46.438519,-0.188610,,,,,,,
1558973835.631986,-0.184628,1.135355,-1.276093,-0.010166,0.044426,0.009693,-0.077436,-0.906684,-0.414642,-0.013353,0.000556,0.011825,-6.904540,-46.436401,-0.212854,,,,,,,
1558973835.651956,-0.183846,1.135412,-1.275851,-0.000551,0.050703,0.000152,-0.077103,-0.906708,-0.414652,-0.000504,-0.002777,-0.003500,-6.933109,-46.432114,-0.219179,,,,,,,
1558973835.671957,-0.183162,1.135233,-1.275867,-0.007067,0.015870,0.009422,-0.076849,-0.906632,-0.414864,0.005438,0.000154,-0.002876,-6.932757,-46.432102,-0.232679,,,,,,,
1558973835.691922,-0.182541,1.135420,-1.276510,0.012056,-0.009644,-0.020702,-0.076560,-0.906711,-0.414744,0.006156,0.004978,0.007228,-6.927801,-46.432838,-0.233492,,,,,,,
1558973835.711898,-0.180366,1.136408,-1.279247,0.045057,-0.031029,-0.068926,-0.075497,-0.907128,-0.414028,0.000348,0.005104,0.003506,-6.878707,-46.440296,-0.198996,,,,,,,
1558973835.731911,-0.178825,1.137675,-1.282056,0.039673,-0.052149,-0.074470,-0.074655,-0.907660,-0.413013,-0.005027,-0.001886,0.003879,-6.813007,-46.450172,-0.147285,,,,,,,
1558973835.751885,-0.178033,1.138467,-1.283896,0.010960,-0.028695,-0.041171,-0.074200,-0.907992,-0.412365,-0.011600,-0.011869,0.005581,-6.779510,-46.455135,-0.126705,,,,,,,
1558973835.771866,-0.179339,1.138420,-1.283253,-0.029511,-0.016796,-0.000516,-0.074746,-0.907973,-0.412309,-0.007667,0.000441,0.002794,-6.754379,-46.458866,-0.096245,,,,,,,
1558973835.791865,-0.179645,1.137589,-1.283402,-0.041247,-0.026253,-0.003819,-0.075007,-0.907624,-0.413028,-0.004858,0.003571,-0.000378,-6.771777,-46.456272,-0.122356,,,,,,,
1558973835.811850,-0.180146,1.136619,-1.284041,-0.021126,-0.065494,-0.021260,-0.075372,-0.907217,-0.413857,-0.001380,0.012731,-0.001030,-6.772408,-46.456081,-0.155197,,,,,,,
1558973835.831834,-0.179703,1.136372,-1.286268,0.029965,-0.085912,-0.065188,-0.075229,-0.907113,-0.414110,-0.000470,0.013405,-0.008635,-6.739868,-46.460754,-0.173096,,,,,,,
1558973835.851818,-0.178212,1.137204,-1.290006,0.094839,-0.111582,-0.084596,-0.074477,-0.907462,-0.413480,0.005797,0.015510,-0.014667,-6.672333,-46.470596,-0.144217,,,,,,,
1558973835.871803,-0.176859,1.138853,-1.294458,0.135126,-0.168901,-0.104331,-0.073654,-0.908154,-0.412106,0.005127,0.013989,-0.021961,-6.600796,-46.480907,-0.107632,,,,,,,
1558973835.891788,-0.176326,1.140825,-1.299360,0.146677,-0.220772,-0.115495,-0.073120,-0.908978,-0.410381,0.003754,0.011074,-0.028538,-6.469227,-46.499523,0.027460,,,,,,,
1558973835.911758,-0.175153,1.142670,-1.305493,0.137073,-0.234489,-0.133785,-0.072346,-0.909745,-0.408814,0.003300,0.003801,-0.040359,-6.341472,-46.516953,0.128279,,,,,,,
1558973835.931730,-0.173951,1.143651,-1.311919,0.109334,-0.247012,-0.124319,-0.071701,-0.910152,-0.408023,0.006607,-0.001912,-0.054486,-6.241715,-46.530338,0.160536,,,,,,,
1558973835.951743,-0.172376,1.143375,-1.318861,0.106058,-0.268132,-0.123457,-0.071101,-0.910038,-0.408382,0.009623,0.018391,-0.070317,-6.082583,-46.551193,0.213711,,,,,,,
1558973835.971708,-0.173143,1.146901,-1.324923,0.198527,-0.339531,-0.185990,-0.070861,-0.911494,-0.405164,0.009078,0.059962,-0.096804,-5.982550,-46.563980,0.249418,,,,,,,
1558973835.991711,-0.168252,1.151125,-1.337591,0.399891,-0.352444,-0.339695,-0.068233,-0.913223,-0.401707,0.013942,0.069793,-0.128658,-5.788087,-46.586555,0.498198,,,,,,,
1558973836.011682,-0.161737,1.162062,-1.352858,0.523384,-0.381717,-0.412506,-0.064002,-0.917625,-0.392261,0.000175,0.067420,-0.178860,-5.352439,-46.632427,0.908388,,,,,,,
1558973836.031669,-0.154490,1.173929,-1.368966,0.533997,-0.380681,-0.389000,-0.059478,-0.922276,-0.381927,-0.015214,0.071294,-0.229294,-5.056727,-46.655853,1.310751,,,,,,,
1558973836.051665,-0.149343,1.185497,-1.383558,0.583861,-0.420018,-0.365848,-0.055920,-0.926686,-0.371653,-0.014209,0.086979,-0.248586,-4.776397,-46.672329,1.713776,,,,,,,
1558973836.071651,-0.139693,1.200419,-1.400807,0.768781,-0.234051,-0.467482,-0.050400,-0.932191,-0.358441,-0.054474,0.123048,-0.277515,-4.214953,-46.685307,2.602576,,,,,,,
1558973836.091620,-0.121249,1.218649,-1.421828,0.886730,0.025352,-0.469175,-0.041718,-0.938634,-0.342382,-0.071716,0.111288,-0.331446,-3.868371,-46.679600,3.179296,,,,,,,
1558973836.111620,-0.104933,1.236976,-1.438099,0.872716,0.037265,-0.326008,-0.034319,-0.944797,-0.325853,-0.057417,0.120960,-0.350508,-5.441841,-47.746830,-0.467113,,,,,,,
1558973836.131605,-0.089298,1.254855,-1.454776,0.856691,-0.015616,-0.403398,-0.027709,-0.950504,-0.309473,-0.016038,0.083027,-0.315038,-5.040118,-47.789795,0.569549,,,,,,,
1558973836.151554,-0.059889,1.271156,-1.482854,0.720285,0.218558,-0.498421,-0.017667,-0.955443,-0.294647,-0.045291,0.060759,-0.305588,-4.720279,-47.811699,1.162953,,,,,,,
1558973836.171520,-0.028818,1.283262,-1.509063,0.517146,0.346709,-0.336143,-0.008171,-0.958946,-0.283471,-0.085258,0.087883,-0.308204,-4.372222,-47.830044,1.662129,,,,,,,
1558973836.191525,-0.006118,1.292729,-1.524066,0.462897,0.441338,-0.154848,-0.001679,-0.961588,-0.274493,-0.101241,0.120264,-0.200818,-3.947886,-47.837627,2.359571,,,,,,,
1558973836.211491,0.008720,1.303012,-1.530562,0.552079,0.412467,-0.062168,0.002307,-0.964360,-0.264585,-0.012592,0.078388,-0.070376,-3.865143,-47.820854,2.796159,,,,,,,
1558973836.231494,0.027379,1.314920,-1.540847,0.614210,0.476440,-0.182150,0.006929,-0.967442,-0.252998,-0.007585,0.039906,-0.049614,-3.828120,-47.799595,3.183741,,,,,,,
1558973836.251451,0.059876,1.325658,-1.563094,0.474195,0.589093,-0.266596,0.014523,-0.970104,-0.242255,-0.033230,0.010036,-0.053536,-3.618853,-47.767704,3.839529,,,,,,,
1558973836.271465,0.091464,1.331142,-1.582112,0.181612,0.688048,-0.150577,0.021680,-0.971420,-0.236375,-0.077115,-0.016129,0.016587,-3.443982,-47.755329,4.142345,,,,,,,
1558973836.291448,0.105478,1.331983,-1.582419,-0.024249,0.670488,0.094578,0.024905,-0.971619,-0.235236,-0.046984,-0.048171,0.060446,-3.420819,-47.752617,4.192560,,,,,,,
1558973836.311405,0.104624,1.331186,-1.567399,-0.056165,0.718358,0.186828,0.024784,-0.971430,-0.236027,-0.015919,-0.045461,0.096226,-3.642375,-47.745258,4.088404,,,,,,,
1558973836.331405,0.109527,1.331314,-1.557133,0.032463,0.746250,0.064387,0.025928,-0.971461,-0.235779,-0.021152,0.009532,0.079712,-3.847522,-47.736168,4.005763,,,,,,,
1558973836.351384,0.127127,1.333237,-1.559967,0.133780,0.744465,-0.066870,0.029836,-0.971915,-0.233433,-0.025060,0.009986,0.077366,-3.847522,-47.736168,4.005763,,,,,,,
1558973836.371378,0.156175,1.335621,-1.574568,0.131823,0.736880,-0.198265,0.036243,-0.972474,-0.230178,-0.022510,-0.020904,0.087569,-3.863742,-47.727116,4.097047,,,,,,,
1558973836.391372,0.192788,1.337021,-1.598195,0.122029,0.631097,-0.287900,0.044384,-0.972799,-0.227360,-0.035976,0.011266,0.090977,-3.747947,-47.732376,4.143091,,,,,,,
1558973836.411341,0.232678,1.339429,-1.627218,0.218789,0.594638,-0.295645,0.052875,-0.973354,-0.223129,-0.026737,0.017238,0.121674,-3.582700,-47.740135,4.199450,,,,,,,
1558973836.431318,0.259019,1.341908,-1.641472,0.084308,0.626454,0.010966,0.058115,-0.973919,-0.219326,-0.068598,-0.026584,0.031780,-3.319451,-47.739784,4.414302,,,,,,,
1558973836.451326,0.252950,1.341088,-1.624247,-0.169798,0.497050,0.232662,0.056983,-0.973733,-0.220448,-0.060386,0.009667,0.033162,-3.487253,-47.733616,4.351168,,,,,,,
1558973836.471298,0.242795,1.339996,-1.603563,-0.087546,0.520722,0.095232,0.054997,-0.973484,-0.222048,-0.077244,0.034488,0.061723,-3.724129,-47.726383,4.232561,,,,,,,
1558973836.491285,0.251146,1.340970,-1.601418,0.104165,0.515366,0.014193,0.056613,-0.973706,-0.220661,-0.116581,0.001065,0.054386,-3.864741,-47.722992,4.143837,,,,,,,
1558973836.511280,0.252277,1.346169,-1.593237,0.148837,0.484415,-0.024494,0.055599,-0.974877,-0.215692,-0.091732,-0.011375,0.045099,-4.053011,-47.694424,4.290269,,,,,,,
1558973836.531265,0.268283,1.348833,-1.599540,0.128708,0.518360,-0.014576,0.058355,-0.975467,-0.212270,-0.116445,-0.068081,0.109655,-4.066099,-47.683800,4.394779,,,,,,,
1558973836.551250,0.264183,1.353052,-1.582607,-0.074304,0.716383,0.224180,0.056409,-0.976387,-0.208533,-0.146390,-0.119591,0.169791,-4.284903,-47.648239,4.569068,,,,,,,
1558973836.571234,0.237992,1.351059,-1.540713,-0.268505,0.707263,0.513269,0.051388,-0.975955,-0.211829,-0.066875,-0.098218,0.182365,-4.677818,-47.631824,4.349607,,,,,,,
1558973836.591196,0.200811,1.348272,-1.489531,-0.258170,0.589806,0.463041,0.044020,-0.975344,-0.216257,-0.022078,-0.001845,0.212366,-5.103089,-47.608746,4.117941,,,,,,,
1558973836.611204,0.183351,1.345735,-1.460980,-0.135645,0.496790,0.186796,0.040689,-0.974780,-0.219426,-0.017160,-0.021222,0.308277,-5.619479,-47.579311,3.771209,,,,,,,
1558973836.631167,0.183350,1.345432,-1.450622,0.009286,0.506470,0.100525,0.040742,-0.974713,-0.219716,0.046431,-0.080097,0.392156,-5.750440,-47.572136,3.662862,,,,,,,
1558973836.651159,0.182586,1.345716,-1.440157,-0.032495,0.433782,0.117946,0.040524,-0.974776,-0.219475,0.066180,-0.107972,0.423073,-5.850941,-47.563084,3.620985,,,,,,,
1558973836.671158,0.180981,1.344407,-1.431102,-0.106268,0.316780,0.077264,0.040402,-0.974483,-0.220794,0.142200,-0.210591,0.613540,-6.046663,-47.548904,3.482972,,,,,,,
1558973836.691120,0.178691,1.342754,-1.422574,-0.092505,0.298754,0.087779,0.040182,-0.974111,-0.222472,0.199289,-0.266597,0.723967,-6.116957,-47.547329,3.380225,,,,,,,
1558973836.711127,0.169365,1.340588,-1.408195,-0.184621,0.165128,0.175041,0.038461,-0.973619,-0.224916,0.206717,-0.253493,0.720445,-6.196812,-47.543610,3.285729,,,,,,,
1558973836.731111,0.150490,1.336057,-1.388428,-0.283283,-0.055266,0.177123,0.034870,-0.972575,-0.229961,0.214153,-0.176580,0.716152,-6.456158,-47.529488,2.976233,,,,,,,
1558973836.751080,0.139200,1.332669,-1.380019,-0.077023,-0.216236,-0.008956,0.032729,-0.971781,-0.233602,0.206986,-0.092184,0.675023,-6.563077,-47.527340,2.769424,,,,,,,
1558973836.771081,0.143074,1.334845,-1.390469,0.226006,-0.385041,-0.145920,0.033332,-0.972292,-0.231380,0.172494,-0.102735,0.634410,-6.514055,-47.532207,2.801488,,,,,,,
1558973836.791066,0.151738,1.340066,-1.410016,0.309538,-0.590654,-0.222557,0.034568,-0.973500,-0.226061,0.097604,-0.110683,0.537432,-6.293477,-47.538872,3.168526,,,,,,,
1558973836.811050,0.169301,1.345760,-1.441858,0.363622,-0.711629,-0.350722,0.037598,-0.974786,-0.219952,0.000442,-0.083625,0.455029,-6.077058,-47.547131,3.454168,,,,,,,
1558973836.831035,0.188224,1.352695,-1.476434,0.433665,-0.731936,-0.253704,0.040487,-0.976310,-0.212554,-0.038900,-0.073983,0.414611,-5.792873,-47.558086,3.776596,,,,,,,
1558973836.851019,0.188927,1.361673,-1.491000,0.486646,-0.670467,0.042665,0.038989,-0.978213,-0.203908,-0.097567,-0.103879,0.323736,-5.477222,-47.554367,4.263032,,,,,,,
1558973836.871004,0.167572,1.369736,-1.485197,0.308147,-0.853321,0.128319,0.033309,-0.979855,-0.196911,-0.018417,-0.139667,0.239849,-5.433255,-47.497322,4.906690,,,,,,,
1558973836.890986,0.154848,1.374212,-1.491778,0.217488,-1.023403,-0.126414,0.030124,-0.980739,-0.192984,-0.023639,-0.085835,0.198812,-5.452398,-47.464180,5.197556,,,,,,,
1558973836.910965,0.161463,1.380241,-1.520463,0.448472,-1.085058,-0.254937,0.030449,-0.981899,-0.186941,-0.129128,0.070217,0.144552,-5.259110,-47.449558,5.520236,,,,,,,
1558973836.930959,0.170206,1.392775,-1.550527,0.775233,-1.026299,-0.102507,0.029995,-0.984196,-0.174524,-0.129773,0.075215,0.127069,-4.831019,-47.411495,6.197023,,,,,,,
1558973836.950923,0.171838,1.408420,-1.574366,0.775747,-1.184826,-0.083739,0.027643,-0.986846,-0.159282,-0.128275,0.039275,0.023525,-4.656173,-47.344185,6.814665,,,,,,,
1558973836.970899,0.184891,1.420732,-1.613624,0.606278,-1.335365,-0.270019,0.027484,-0.988762,-0.146953,-0.132678,0.037010,-0.029194,-4.225688,-47.194813,8.024027,,,,,,,
1558973836.990911,0.221739,1.431536,-1.679151,0.669976,-1.434155,-0.372340,0.030528,-0.990319,-0.135412,-0.136775,0.013528,0.001394,-3.834525,-47.139118,8.531801,,,,,,,
1558973837.010890,0.268695,1.444106,-1.755888,0.742186,-1.464055,-0.321321,0.033543,-0.991985,-0.121818,-0.131398,-0.017368,-0.011178,-3.237177,-47.042740,9.278625,,,,,,,
1558973837.030863,0.308201,1.455078,-1.825340,0.569494,-1.473505,-0.178485,0.035024,-0.993312,-0.110019,-0.164922,-0.036259,-0.069470,-2.535835,-46.893333,10.206696,,,,,,,
1558973837.050867,0.306301,1.463540,-1.852168,0.391605,-1.389731,0.084815,0.032279,-0.994254,-0.102068,-0.199165,0.000861,-0.092345,-2.227502,-46.816784,10.621621,,,,,,,
1558973837.070833,0.267331,1.471329,-1.839148,0.334425,-1.245507,0.199320,0.026232,-0.995057,-0.095775,-0.183245,0.026475,-0.137882,-2.027468,-46.728313,11.042906,,,,,,,
1558973837.090833,0.223589,1.478022,-1.819585,0.272870,-1.215674,0.140836,0.020542,-0.995700,-0.090336,-0.139209,0.016390,-0.173305,-1.899708,-46.628139,11.480392,,,,,,,
1558973837.110820,0.189330,1.481951,-1.810282,0.121635,-1.275247,0.062206,0.016699,-0.996056,-0.087143,-0.126882,0.028328,-0.188507,-1.707440,-46.573071,11.731408,,,,,,,
1558973837.130798,0.150342,1.483964,-1.795991,0.102674,-1.203233,0.087436,0.012989,-0.996232,-0.085745,-0.114811,0.084764,-0.248300,-1.531400,-46.554253,11.829947,,,,,,,
1558973837.150766,0.120378,1.487385,-1.788547,0.191523,-1.080122,0.025694,0.010005,-0.996523,-0.082712,-0.056041,0.067507,-0.320502,-1.267075,-46.512669,12.023212,,,,,,,
1558973837.170773,0.106812,1.490179,-1.797596,0.086998,-1.174808,-0.044693,0.008585,-0.996752,-0.080071,-0.007471,0.011813,-0.357871,-1.073087,-46.479504,12.169458,,,,,,,
1558973837.190750,0.101403,1.489569,-1.815708,-0.083137,-1.138037,-0.086115,0.008214,-0.996703,-0.080722,-0.007741,0.012252,-0.351163,-0.827607,-46.464409,12.246040,,,,,,,
1558973837.210744,0.088266,1.486196,-1.822856,-0.210347,-0.939585,-0.003177,0.007449,-0.996424,-0.084170,-0.075732,0.004312,-0.378141,-0.325535,-46.501125,12.129761,,,,,,,
1558973837.230717,0.056637,1.481094,-1.807281,-0.264004,-0.723595,0.049027,0.005071,-0.995979,-0.089438,-0.091344,0.034218,-0.350366,-0.152457,-46.560081,11.904931,,,,,,,
1558973837.250712,0.048352,1.477349,-1.810535,-0.131083,-0.500396,-0.077915,0.004510,-0.995637,-0.093202,-0.077783,0.017625,-0.315551,-0.087666,-46.589951,11.788164,,,,,,,
1558973837.270698,0.070729,1.474983,-1.841831,-0.127430,-0.412854,-0.192381,0.006761,-0.995413,-0.095428,0.006102,-0.031564,-0.334016,0.215076,-46.637291,11.597790,,,,,,,
1558973837.290653,0.100500,1.470052,-1.878969,-0.294246,-0.317899,-0.189470,0.010091,-0.994930,-0.100066,-0.013356,-0.010777,-0.322816,0.492994,-46.679203,11.419331,,,,,,,
1558973837.310668,0.117271,1.463080,-1.900381,-0.337483,-0.168517,-0.127281,0.012579,-0.994204,-0.106770,-0.042166,0.019000,-0.294597,0.611282,-46.713013,11.274433,,,,,,,
1558973837.330652,0.124526,1.456764,-1.909635,-0.300009,-0.070307,-0.056914,0.014133,-0.993505,-0.112903,0.004483,-0.013544,-0.179791,0.832080,-46.817951,10.815678,,,,,,,
1558973837.350636,0.116579,1.449834,-1.903238,-0.397080,-0.096105,0.021767,0.014036,-0.992693,-0.119849,0.023089,-0.005400,-0.182931,0.870287,-46.886703,10.510546,,,,,,,
1558973837.370621,0.095332,1.440550,-1.884386,-0.504825,-0.134545,0.091778,0.012363,-0.991530,-0.129289,0.018048,0.003005,-0.174804,0.865986,-46.930294,10.314519,,,,,,,
1558973837.390606,0.075718,1.431376,-1.866416,-0.414005,-0.049463,0.052094,0.010512,-0.990297,-0.138571,-0.023040,0.084199,-0.103953,0.783094,-47.077774,9.626106,,,,,,,
1558973837.410591,0.078788,1.425880,-1.869319,-0.194224,0.035842,-0.092113,0.011366,-0.989518,-0.143962,-0.039656,0.077180,-0.058629,0.790642,-47.139687,9.317549,,,,,,,
1558973837.430574,0.096187,1.422561,-1.885777,-0.165305,0.065205,-0.146259,0.014184,-0.989033,-0.147011,-0.020593,-0.005260,-0.039192,0.864843,-47.161476,9.199941,,,,,,,
1558973837.450543,0.110221,1.417015,-1.898459,-0.335656,0.079923,-0.091805,0.016849,-0.988199,-0.152246,-0.002094,-0.028311,-0.031973,1.011978,-47.205475,8.956051,,,,,,,
1558973837.470526,0.105843,1.408504,-1.892577,-0.464693,0.073413,0.050026,0.017070,-0.986859,-0.160677,0.003132,0.010663,-0.009688,1.040695,-47.254707,8.689155,,,,,,,
1558973837.490504,0.096773,1.399826,-1.881059,-0.404857,0.133320,0.031430,0.016439,-0.985420,-0.169343,0.000178,0.039574,-0.003280,0.979554,-47.333607,8.256002,,,,,,,
1558973837.510511,0.096742,1.393955,-1.878390,-0.218541,0.118520,-0.021945,0.016992,-0.984404,-0.175099,0.014837,0.056258,-0.005977,0.934127,-47.406322,7.833234,,,,,,,
1558973837.530491,0.111738,1.390683,-1.892075,-0.047464,0.020359,-0.034500,0.019975,-0.983823,-0.178024,0.025542,0.037855,-0.004868,0.949146,-47.428265,7.697457,,,,,,,
1558973837.550471,0.116692,1.390493,-1.897449,0.003465,-0.043373,-0.063895,0.020879,-0.983789,-0.178108,0.020366,0.017389,0.001365,0.949146,-47.428265,7.697457,,,,,,,
1558973837.570447,0.135142,1.389026,-1.916905,-0.102957,-0.041774,-0.076784,0.024355,-0.983525,-0.179123,0.006467,-0.042720,-0.017700,1.122631,-47.434475,7.635590,,,,,,,
1558973837.590453,0.125357,1.384769,-1.907936,-0.247779,-0.022936,-0.003047,0.023125,-0.982747,-0.183505,-0.018684,-0.011669,0.005618,1.288040,-47.464909,7.417231,,,,,,,
1558973837.610437,0.115897,1.381577,-1.897479,-0.187832,0.097309,0.038727,0.021751,-0.982151,-0.186831,-0.016273,-0.002285,0.022539,1.288040,-47.464909,7.417231,,,,,,,
1558973837.630422,0.101216,1.381674,-1.879699,-0.100420,0.162477,0.102420,0.018996,-0.982170,-0.187035,-0.017562,0.014366,0.017250,1.009836,-47.500637,7.229212,,,,,,,
1558973837.650408,0.090532,1.380259,-1.865912,-0.081388,0.129629,0.116001,0.017122,-0.981903,-0.188611,0.030745,-0.008973,0.013395,0.979672,-47.504768,7.206188,,,,,,,
1558973837.670392,0.094699,1.378186,-1.868343,-0.117839,0.022975,0.056222,0.018100,-0.981508,-0.190564,0.046078,0.016695,-0.004047,0.893479,-47.524117,7.088832,,,,,,,
1558973837.690377,0.088658,1.375820,-1.862563,-0.110511,-0.021481,0.040855,0.017154,-0.981052,-0.192983,0.006649,0.041141,0.023259,0.830155,-47.546551,6.944656,,,,,,,
1558973837.710360,0.083857,1.375774,-1.856766,-0.033480,0.092260,0.033467,0.016232,-0.981043,-0.193107,-0.016567,0.021891,0.025367,0.821194,-47.550545,6.918314,,,,,,,
1558973837.730333,0.075054,1.375461,-1.846240,-0.023168,0.038453,0.137590,0.014554,-0.980983,-0.193549,0.018634,0.023585,0.011283,0.720517,-47.554596,6.901633,,,,,,,
1558973837.750330,0.072311,1.376292,-1.843621,0.022428,-0.048565,0.067391,0.013964,-0.981144,-0.192775,0.033735,0.024128,0.020259,0.655930,-47.557114,6.890774,,,,,,,
1558973837.770298,0.069364,1.377602,-1.841644,0.082202,-0.027834,0.003578,0.013307,-0.981396,-0.191534,0.023864,0.007916,0.035665,0.614582,-47.546249,6.969069,,,,,,,
1558973837.790285,0.072465,1.379906,-1.845137,0.136613,-0.010214,-0.038915,0.013737,-0.981836,-0.189235,0.005108,-0.002127,0.023128,0.617635,-47.539974,7.011517,,,,,,,
1558973837.810273,0.079775,1.383334,-1.852445,0.149503,0.009752,-0.071810,0.014852,-0.982480,-0.185774,-0.002675,-0.003680,0.009474,0.681435,-47.510033,7.205853,,,,,,,
1558973837.830263,0.088898,1.386023,-1.861636,0.131380,0.003511,-0.067614,0.016311,-0.982978,-0.182998,-0.000137,-0.004174,0.001602,0.745782,-47.483845,7.370205,,,,,,,
1558973837.850240,0.095290,1.388008,-1.867951,0.084521,0.011202,-0.036616,0.017295,-0.983341,-0.180948,0.000421,-0.012875,-0.002249,0.775745,-47.474003,7.430296,,,,,,,
1558973837.870221,0.096853,1.388790,-1.869659,0.057778,-0.012920,-0.003772,0.017503,-0.983483,-0.180155,-0.000841,0.005135,-0.009848,0.818444,-47.454380,7.550092,,,,,,,
1558973837.890223,0.095811,1.389984,-1.868806,0.070541,-0.004493,0.021943,0.017203,-0.983698,-0.179003,-0.000785,0.010187,0.000399,0.812001,-47.450115,7.577512,,,,,,,
1558973837.910193,0.092391,1.391888,-1.864898,0.099388,0.041911,0.053372,0.016418,-0.984038,-0.177197,0.000092,0.012359,0.001904,0.799276,-47.444778,7.612220,,,,,,,
1558973837.930193,0.084299,1.393381,-1.855482,0.078148,0.067421,0.073886,0.014860,-0.984303,-0.175859,-0.003660,0.009221,-0.009718,0.695903,-47.424099,7.749996,,,,,,,
1558973837.950177,0.079267,1.394051,-1.849091,0.018478,0.056129,0.088675,0.013923,-0.984421,-0.175274,0.012963,0.011796,-0.002369,0.625677,-47.421917,7.769311,,,,,,,
1558973837.970162,0.074287,1.394344,-1.842829,0.013156,0.057218,0.090814,0.013028,-0.984473,-0.175054,0.016849,0.020132,0.002828,0.579137,-47.421268,7.776882,,,,,,,
1558973837.990146,0.078253,1.395206,-1.845027,0.030209,0.069836,0.105887,0.013656,-0.984624,-0.174155,0.028397,0.018986,0.006598,0.516953,-47.415955,7.813573,,,,,,,
1558973838.010132,0.073982,1.396288,-1.840051,0.076802,-0.010761,0.092337,0.012833,-0.984812,-0.173149,0.029556,0.035029,0.001809,0.512873,-47.408714,7.857649,,,,,,,
1558973838.030085,0.089945,1.397859,-1.857105,0.077733,-0.106071,-0.026027,0.015457,-0.985084,-0.171381,0.047638,-0.004357,0.002665,0.539944,-47.398758,7.915646,,,,,,,
1558973838.050092,0.099714,1.398978,-1.869961,0.018000,-0.174564,-0.093994,0.017020,-0.985275,-0.170125,0.014001,-0.010803,0.011662,0.700472,-47.383446,7.994366,,,,,,,
1558973838.070085,0.103908,1.399665,-1.877497,0.012713,-0.143815,-0.048862,0.017663,-0.985393,-0.169379,-0.004480,-0.002416,0.018699,0.805564,-47.377102,8.022053,,,,,,,
1558973838.090052,0.103386,1.400448,-1.879495,0.036214,-0.111146,-0.031446,0.017495,-0.985526,-0.168620,-0.012353,0.002860,0.005931,0.851479,-47.369534,8.061878,,,,,,,
1558973838.110029,0.106301,1.400794,-1.884476,0.005458,-0.084586,-0.049367,0.017951,-0.985584,-0.168230,-0.023535,-0.024532,-0.012205,0.907927,-47.359943,8.111895,,,,,,,
1558973838.130039,0.102524,1.399602,-1.881759,-0.088029,-0.023836,-0.042450,0.017435,-0.985382,-0.169464,-0.038141,-0.038513,-0.013687,0.966702,-47.363071,8.086839,,,,,,,
1558973838.150024,0.100507,1.396675,-1.879593,-0.175281,0.024309,0.039082,0.017383,-0.984879,-0.172368,-0.026843,-0.024947,-0.000437,0.925583,-47.379814,7.993011,,,,,,,
1558973838.170009,0.086680,1.393381,-1.864714,-0.179597,0.049840,0.133277,0.015279,-0.984303,-0.175823,-0.005437,0.001759,0.004925,0.840568,-47.416283,7.783397,,,,,,,
1558973838.189967,0.072912,1.390730,-1.849693,-0.114616,0.049451,0.101296,0.013047,-0.983832,-0.178618,0.009292,0.013480,0.009368,0.698873,-47.441940,7.639743,,,,,,,
1558973838.209954,0.069677,1.389675,-1.845642,-0.048603,0.022577,0.032760,0.012541,-0.983642,-0.179696,0.014269,0.008056,0.009789,0.634037,-47.453541,7.573057,,,,,,,
1558973838.229963,0.066998,1.388824,-1.842954,-0.046608,-0.021840,0.024863,0.012116,-0.983489,-0.180564,0.017792,0.000533,-0.001122,0.621528,-47.460552,7.530030,,,,,,,
1558973838.249943,0.062269,1.387538,-1.838905,-0.071205,-0.041747,0.056681,0.011340,-0.983255,-0.181881,0.007886,0.008402,0.000378,0.590151,-47.469650,7.474983,,,,,,,
1558973838.269932,0.054946,1.386230,-1.832064,-0.064749,-0.021700,0.054743,0.010079,-0.983016,-0.183244,-0.007180,0.023391,-0.004470,0.565065,-47.478413,7.421087,,,,,,,
1558973838.289917,0.050381,1.385025,-1.827365,-0.025165,0.020310,0.013539,0.009302,-0.982794,-0.184470,-0.005945,0.016485,-0.007913,0.529363,-47.485912,7.375604,,,,,,,
1558973838.309879,0.050272,1.384910,-1.826392,0.001528,0.045540,0.014869,0.009287,-0.982773,-0.184584,-0.007258,0.019531,-0.017641,0.496280,-47.494129,7.324814,,,,,,,
1558973838.329886,0.046566,1.385219,-1.821954,0.017341,0.019098,0.059470,0.008589,-0.982830,-0.184314,0.003679,0.019909,-0.014996,0.470339,-47.493645,7.329693,,,,,,,
1558973838.349871,0.047716,1.383164,-1.823088,0.038557,-0.012729,0.037771,0.008897,-0.982449,-0.186321,0.018172,0.021008,-0.034901,0.459888,-47.500301,7.287102,,,,,,,
1558973838.369846,0.046297,1.382001,-1.821377,0.042956,0.024217,0.019976,0.008686,-0.982231,-0.187475,-0.008747,0.019859,-0.081828,0.453282,-47.519119,7.163765,,,,,,,
1558973838.389841,0.044485,1.383006,-1.818728,0.065381,0.050541,0.030922,0.008302,-0.982419,-0.186504,-0.011384,0.018094,-0.100239,0.428911,-47.513184,7.204543,,,,,,,
1558973838.409825,0.043371,1.385651,-1.816106,0.170890,0.088036,0.029230,0.007982,-0.982910,-0.183916,-0.012254,0.019744,-0.167860,0.401882,-47.505974,7.253440,,,,,,,
1558973838.429793,0.043803,1.389486,-1.814689,0.183706,0.092168,0.010062,0.007896,-0.983608,-0.180146,-0.033332,0.020931,-0.244140,0.352165,-47.476082,7.449110,,,,,,,
1558973838.449795,0.049387,1.392776,-1.817852,0.166936,0.150322,-0.036371,0.008742,-0.984196,-0.176866,-0.059127,0.021977,-0.267287,0.334636,-47.449242,7.619017,,,,,,,
1558973838.469780,0.063858,1.397610,-1.827963,0.311195,0.287931,-0.104335,0.010997,-0.985041,-0.171970,-0.105906,0.060587,-0.289425,0.360787,-47.410042,7.858079,,,,,,,
1558973838.489739,0.092494,1.405445,-1.848456,0.439713,0.505995,-0.145919,0.015203,-0.986361,-0.163895,-0.118566,0.062258,-0.334259,0.426013,-47.349247,8.213371,,,,,,,
1558973838.509748,0.119235,1.413463,-1.863117,0.371892,0.661938,-0.007822,0.018638,-0.987649,-0.155573,-0.116172,0.057412,-0.359640,0.447193,-47.312130,8.423434,,,,,,,
1558973838.529730,0.127468,1.419391,-1.857554,0.250539,0.706058,0.089659,0.019174,-0.988560,-0.149604,-0.071847,0.020436,-0.336892,0.262523,-47.220573,8.929712,,,,,,,
1558973838.549717,0.149729,1.423894,-1.865071,0.234003,0.768220,-0.104071,0.021835,-0.989229,-0.144737,-0.056808,0.031954,-0.320367,0.108392,-47.178196,9.154119,,,,,,,
1558973838.569702,0.194251,1.428112,-1.893116,0.240875,0.888594,-0.163769,0.027449,-0.989838,-0.139526,-0.072402,0.059876,-0.336639,0.094677,-47.156139,9.267215,,,,,,,
1558973838.589675,0.230810,1.432036,-1.910281,0.204931,1.034881,-0.008657,0.031642,-0.990388,-0.134647,-0.142604,0.117387,-0.352810,0.028120,-47.090225,9.596945,,,,,,,
1558973838.609672,0.252501,1.436689,-1.910571,0.250766,1.083359,0.055903,0.033403,-0.991021,-0.129465,-0.112016,0.092187,-0.281469,-0.212565,-47.048450,9.797445,,,,,,,
1558973838.629643,0.292120,1.441887,-1.928856,0.282907,1.062835,-0.126836,0.037021,-0.991703,-0.123107,-0.087558,0.068103,-0.264512,-0.339366,-47.022636,9.917057,,,,,,,
1558973838.649614,0.352830,1.444326,-1.968221,0.112795,1.098523,-0.185351,0.043586,-0.992013,-0.118363,-0.097327,0.040719,-0.329742,-0.471718,-46.947395,10.262130,,,,,,,
1558973838.669626,0.374380,1.443392,-1.967627,-0.117425,1.127598,0.072046,0.046465,-0.991895,-0.118260,-0.159335,0.064191,-0.291012,-0.624816,-46.945667,10.261847,,,,,,,
1558973838.689600,0.392872,1.442083,-1.962159,-0.022104,1.243168,-0.062363,0.049141,-0.991728,-0.118579,-0.138222,0.012419,-0.141675,-0.843577,-46.961792,10.172037,,,,,,,
1558973838.709577,0.436404,1.440769,-1.981077,-0.061350,1.238993,-0.164929,0.054806,-0.991558,-0.117509,-0.072048,-0.063434,-0.141646,-1.047554,-46.967377,10.127176,,,,,,,
1558973838.729581,0.452691,1.434542,-1.972646,-0.470460,1.208621,-0.000062,0.059412,-0.990732,-0.122151,-0.134821,-0.021170,-0.241649,-1.178817,-47.010845,9.908706,,,,,,,
1558973838.749537,0.432400,1.424827,-1.927465,-0.553421,1.263073,0.072993,0.060952,-0.989365,-0.132064,-0.184685,0.084626,0.002685,-1.389683,-47.088478,9.504506,,,,,,,
1558973838.769536,0.442257,1.418552,-1.909954,-0.211101,1.387908,-0.066468,0.064906,-0.988433,-0.137066,-0.132075,0.008544,0.107296,-1.730453,-47.192921,8.912094,,,,,,,
1558973838.789534,0.474007,1.415075,-1.915667,-0.143439,1.215156,-0.135329,0.070793,-0.987900,-0.137993,-0.099525,0.035523,0.049141,-1.874509,-47.223560,8.718547,,,,,,,
1558973838.809495,0.502084,1.409946,-1.922203,-0.208863,1.039951,-0.192576,0.077076,-0.987091,-0.140391,-0.142567,0.047760,0.075084,-1.910996,-47.240017,8.620933,,,,,,,
1558973838.829480,0.548275,1.406246,-1.946801,0.062008,1.139838,-0.301371,0.085380,-0.986492,-0.139798,-0.207725,0.119259,0.262906,-1.880682,-47.291924,8.338394,,,,,,,
1558973838.849488,0.619596,1.406772,-1.994812,0.299646,1.230589,-0.274688,0.094823,-0.986578,-0.132936,-0.135717,-0.025583,0.354250,-1.775653,-47.273571,8.464556,,,,,,,
1558973838.869471,0.667382,1.408889,-2.019020,0.105261,1.161208,0.005283,0.099773,-0.986922,-0.126615,-0.091579,-0.065813,0.358228,-1.767442,-47.252819,8.581324,,,,,,,
1558973838.889458,0.674506,1.410186,-2.004379,-0.065826,1.020771,0.209858,0.099873,-0.987130,-0.124901,-0.065693,-0.072029,0.381859,-2.098021,-47.229740,8.633746,,,,,,,
1558973838.909443,0.665563,1.413159,-1.976027,0.027492,0.935797,0.261434,0.096939,-0.987601,-0.123480,-0.040222,-0.041650,0.371984,-2.506713,-47.225899,8.545324,,,,,,,
1558973838.929426,0.669299,1.417339,-1.961801,0.115626,0.843288,0.204033,0.094837,-0.988249,-0.119878,0.011547,-0.071108,0.327245,-2.793774,-47.208504,8.552414,,,,,,,
1558973838.949412,0.668526,1.421164,-1.946362,0.035129,0.648181,0.215981,0.092401,-0.988826,-0.116984,0.023550,-0.069463,0.272349,-3.208413,-47.171448,8.611179,,,,,,,
1558973838.969395,0.657531,1.423378,-1.923583,-0.022589,0.558580,0.176642,0.089771,-0.989154,-0.116260,-0.008762,-0.008481,0.270679,-3.510223,-47.157623,8.569051,,,,,,,
1558973838.989380,0.654911,1.425655,-1.909824,0.064717,0.549617,0.144596,0.088094,-0.989486,-0.114708,-0.009160,-0.046876,0.344185,-3.694856,-47.149467,8.536240,,,,,,,
1558973839.009365,0.659555,1.428507,-1.903831,0.087003,0.507149,0.097231,0.086896,-0.989894,-0.112067,0.009982,-0.079625,0.398200,-3.970145,-47.120857,8.570551,,,,,,,
1558973839.029331,0.669805,1.429752,-1.905061,0.022957,0.411159,0.004443,0.087275,-0.990070,-0.110204,0.057668,-0.137967,0.461279,-4.080911,-47.106766,8.595961,,,,,,,
1558973839.049334,0.674315,1.429294,-1.902864,-0.053001,0.295285,0.003273,0.088054,-0.990005,-0.110164,0.085148,-0.142655,0.494380,-4.137737,-47.103313,8.587708,,,,,,,
1558973839.069319,0.670866,1.428552,-1.893731,-0.075428,0.289113,0.038428,0.088131,-0.989900,-0.111043,0.084935,-0.172118,0.589207,-4.229372,-47.115276,8.476738,,,,,,,
1558973839.089277,0.658496,1.427341,-1.876127,-0.177970,0.201983,0.081286,0.087484,-0.989728,-0.113072,0.108851,-0.158923,0.560643,-4.297701,-47.123451,8.396519,,,,,,,
1558973839.109289,0.619000,1.424333,-1.834776,-0.360828,0.001223,0.194524,0.084678,-0.989293,-0.118862,0.112741,-0.160243,0.559628,-4.381920,-47.140545,8.255894,,,,,,,
1558973839.129273,0.562248,1.420915,-1.778729,-0.346394,-0.108675,0.266083,0.079601,-0.988789,-0.126334,0.119221,-0.068111,0.570151,-4.669536,-47.197262,7.759246,,,,,,,
1558973839.149235,0.513237,1.419764,-1.733503,-0.138305,-0.285264,0.245342,0.073875,-0.988616,-0.131073,0.137017,-0.005906,0.533341,-4.842499,-47.212749,7.556347,,,,,,,
1558973839.169243,0.480680,1.420783,-1.709192,-0.000538,-0.520802,0.139636,0.069104,-0.988769,-0.132516,0.136112,-0.027878,0.471917,-5.015795,-47.207714,7.474295,,,,,,,
1558973839.189227,0.468763,1.422518,-1.710390,0.142796,-0.715255,-0.039340,0.066744,-0.989027,-0.131798,0.061506,-0.020327,0.448525,-5.020215,-47.189735,7.584045,,,,,,,
1558973839.209212,0.484146,1.426068,-1.740825,0.325996,-0.726934,-0.137529,0.067129,-0.989545,-0.127648,-0.069342,-0.059420,0.454415,-4.820636,-47.165722,7.857985,,,,,,,
1558973839.229197,0.509450,1.431525,-1.780185,0.368660,-0.681643,-0.094355,0.067703,-0.990317,-0.121192,-0.104675,-0.070229,0.426155,-4.643950,-47.132328,8.159017,,,,,,,
1558973839.249158,0.523239,1.436082,-1.808688,0.242706,-0.756990,-0.030051,0.067112,-0.990940,-0.116338,-0.078175,-0.071713,0.374395,-4.492573,-47.093243,8.463751,,,,,,,
1558973839.269165,0.517058,1.439943,-1.819452,0.197448,-0.879220,0.068034,0.064500,-0.991451,-0.113424,-0.100694,-0.079182,0.380956,-4.269440,-47.032288,8.906628,,,,,,,
1558973839.289149,0.501933,1.443921,-1.821979,0.175082,-0.881212,0.071200,0.060879,-0.991962,-0.110927,-0.099087,-0.095349,0.350475,-4.226051,-47.011650,9.035326,,,,,,,
1558973839.309125,0.496571,1.447191,-1.834683,0.193230,-0.907871,-0.021926,0.058738,-0.992371,-0.108401,-0.096763,-0.009216,0.267306,-4.051895,-46.956081,9.396812,,,,,,,
1558973839.329121,0.494949,1.451190,-1.851255,0.231384,-0.923813,0.054822,0.056676,-0.992856,-0.105002,-0.070683,-0.050052,0.234793,-3.868732,-46.916203,9.669245,,,,,,,
1558973839.349085,0.462279,1.454870,-1.840493,0.050400,-1.213408,0.143723,0.051586,-0.993288,-0.103526,-0.033138,-0.085447,0.199153,-3.813955,-46.891735,9.808720,,,,,,,
1558973839.369062,0.425937,1.453844,-1.831786,-0.127868,-1.462205,-0.063834,0.048212,-0.993169,-0.106261,-0.102258,-0.035472,0.104552,-3.586398,-46.871166,9.991158,,,,,,,
1558973839.389075,0.409784,1.450188,-1.845438,-0.092605,-1.463586,-0.156705,0.047935,-0.992736,-0.110355,-0.168617,-0.001741,0.090931,-3.172785,-46.908131,9.957552,,,,,,,
1558973839.409059,0.400153,1.450551,-1.863315,0.151505,-1.310385,-0.049346,0.046730,-0.992779,-0.110479,-0.185432,0.019726,0.074072,-2.960214,-46.919071,9.971440,,,,,,,
1558973839.429044,0.385546,1.454495,-1.875539,0.210643,-1.414153,0.038323,0.043638,-0.993245,-0.107521,-0.103285,0.000783,-0.106530,-2.501627,-46.876591,10.291695,,,,,,,
1558973839.449029,0.365074,1.457536,-1.885729,0.134632,-1.586179,-0.050932,0.040349,-0.993593,-0.105570,-0.104543,0.039415,-0.159368,-2.214230,-46.837631,10.532095,,,,,,,
1558973839.469012,0.370280,1.459719,-1.923608,0.241220,-1.620816,-0.219866,0.040113,-0.993837,-0.103336,-0.131437,0.053118,-0.160092,-2.011312,-46.825035,10.628386,,,,,,,
1558973839.488970,0.405354,1.465381,-1.990277,0.484231,-1.522719,-0.210191,0.041493,-0.994449,-0.096694,-0.163060,0.048435,-0.202928,-1.201781,-46.743126,11.100795,,,,,,,
1558973839.508982,0.452224,1.473465,-2.067173,0.522665,-1.476374,-0.184094,0.042463,-0.995267,-0.087409,-0.152754,0.048719,-0.295709,-0.683123,-46.628742,11.614025,,,,,,,
1558973839.528938,0.502371,1.479825,-2.146953,0.414190,-1.444090,-0.181736,0.043743,-0.995865,-0.079621,-0.141033,0.041641,-0.332870,-0.423182,-46.569847,11.860110,,,,,,,
1558973839.548933,0.540707,1.484844,-2.213647,0.340790,-1.386487,-0.088358,0.044189,-0.996308,-0.073600,-0.142394,0.024873,-0.334985,0.331165,-46.422203,12.428232,,,,,,,
1558973839.568912,0.563813,1.489281,-2.263706,0.270727,-1.315259,-0.061042,0.043515,-0.996679,-0.068823,-0.122799,0.063391,-0.366267,0.735910,-46.342030,12.706949,,,,,,,
1558973839.588893,0.575408,1.492707,-2.301007,0.196324,-1.253470,0.000346,0.042451,-0.996953,-0.065448,-0.106477,0.061741,-0.381665,0.930743,-46.308083,12.817442,,,,,,,
1558973839.608907,0.561946,1.495640,-2.310875,0.107275,-1.112324,0.064617,0.040008,-0.997177,-0.063539,-0.108810,0.045990,-0.354704,1.394783,-46.236565,13.031750,,,,,,,
1558973839.628879,0.532984,1.496995,-2.302580,0.000164,-0.993387,0.057128,0.037465,-0.997278,-0.063507,-0.107717,0.011850,-0.343170,1.613804,-46.220596,13.063083,,,,,,,
1558973839.648875,0.492239,1.496188,-2.280997,-0.122037,-0.936751,0.038355,0.035228,-0.997218,-0.065690,-0.084819,-0.017568,-0.344817,1.715981,-46.223396,13.040131,,,,,,,
1558973839.668836,0.451121,1.492496,-2.257833,-0.245200,-0.874911,-0.038023,0.034102,-0.996936,-0.070395,-0.043120,0.014407,-0.331079,2.040716,-46.279270,12.792816,,,,,,,
1558973839.688844,0.426543,1.487002,-2.248951,-0.266969,-0.725852,-0.100672,0.034628,-0.996491,-0.076198,-0.074362,-0.002654,-0.269185,2.312645,-46.341717,12.517523,,,,,,,
1558973839.708830,0.409102,1.481514,-2.243821,-0.259002,-0.558853,-0.078782,0.035468,-0.996017,-0.081806,-0.086982,-0.015107,-0.248745,2.447068,-46.372307,12.377937,,,,,,,
1558973839.728814,0.389998,1.475973,-2.234354,-0.285279,-0.448759,-0.060667,0.035997,-0.995508,-0.087572,-0.072236,0.017221,-0.246398,2.756022,-46.462276,11.968837,,,,,,,
1558973839.748798,0.368790,1.469969,-2.220737,-0.306204,-0.334481,-0.053185,0.036285,-0.994921,-0.093888,-0.067413,0.030383,-0.215957,2.900933,-46.529869,11.668222,,,,,,,
1558973839.768783,0.355615,1.464176,-2.212498,-0.275996,-0.210966,-0.050910,0.037051,-0.994321,-0.099760,-0.061343,0.029005,-0.190935,2.964927,-46.563114,11.518564,,,,,,,
1558973839.788768,0.336891,1.459053,-2.197802,-0.265375,-0.196152,-0.002716,0.036860,-0.993763,-0.105242,-0.033610,0.025242,-0.151395,3.093577,-46.653217,11.112997,,,,,,,
1558973839.808753,0.320863,1.453690,-2.185316,-0.288670,-0.169641,-0.027037,0.036849,-0.993151,-0.110875,-0.034530,-0.005308,-0.103297,3.147012,-46.711910,10.848290,,,,,,,
1558973839.828725,0.306573,1.447743,-2.173718,-0.314075,-0.124049,-0.022351,0.037043,-0.992438,-0.117020,-0.028437,-0.020776,-0.070831,3.191642,-46.758091,10.634186,,,,,,,
1558973839.848706,0.295441,1.441591,-2.164577,-0.297957,-0.090349,-0.048706,0.037515,-0.991665,-0.123264,-0.035852,0.004726,-0.049176,3.227937,-46.806309,10.408731,,,,,,,
1558973839.868687,0.289319,1.436163,-2.159671,-0.257372,-0.047218,-0.043991,0.038295,-0.990951,-0.128648,-0.028834,0.009460,-0.041274,3.315708,-46.890987,9.991642,,,,,,,
1558973839.888667,0.285963,1.431252,-2.156993,-0.234918,-0.024105,-0.059766,0.039235,-0.990280,-0.133443,-0.028371,0.001754,-0.034480,3.315708,-46.890987,9.991642,,,,,,,
1558973839.908674,0.282912,1.426303,-2.153879,-0.260424,0.004619,-0.025347,0.040195,-0.989579,-0.138266,-0.014698,-0.007766,-0.029062,3.399403,-46.957047,9.647352,,,,,,,
1558973839.928654,0.268374,1.420824,-2.139408,-0.301025,-0.006682,0.050315,0.039618,-0.988775,-0.144063,-0.020774,0.015417,-0.014232,3.416897,-47.032009,9.268560,,,,,,,
1558973839.948628,0.254027,1.415948,-2.124092,-0.230478,0.075373,0.036210,0.038759,-0.988035,-0.149281,-0.027345,0.017133,-0.001659,3.416897,-47.032009,9.268560,,,,,,,
1558973839.968630,0.238474,1.412456,-2.106815,-0.125015,0.087459,0.007587,0.037247,-0.987490,-0.153217,-0.015198,0.025622,-0.002636,3.343062,-47.107662,8.904134,,,,,,,
1558973839.988615,0.236388,1.410885,-2.103017,-0.063307,0.079742,0.011833,0.037291,-0.987241,-0.154803,-0.002012,0.019483,0.000567,3.236884,-47.152245,8.705198,,,,,,,
1558973840.008595,0.236062,1.410349,-2.101167,-0.010114,0.065706,0.002133,0.037364,-0.987156,-0.155329,0.005101,0.021122,0.000193,3.236884,-47.152245,8.705198,,,,,,,
1558973840.028584,0.246450,1.411597,-2.110592,0.042054,0.045277,-0.046066,0.038675,-0.987355,-0.153738,-0.000330,0.026524,0.018224,3.229527,-47.160950,8.660630,,,,,,,
1558973840.048568,0.251428,1.413131,-2.114493,0.020805,0.062318,-0.034173,0.039063,-0.987597,-0.152077,-0.011292,0.001192,0.011696,3.289453,-47.134892,8.779131,,,,,,,
1558973840.068554,0.247240,1.413876,-2.108864,-0.037803,0.081778,0.050313,0.038246,-0.987713,-0.151525,-0.008125,-0.003116,0.012609,3.255414,-47.128010,8.828625,,,,,,,
1558973840.088538,0.238993,1.416020,-2.098481,-0.031325,0.117716,0.073087,0.036493,-0.988046,-0.149778,-0.004663,0.017587,0.021680,3.114213,-47.126202,8.888995,,,,,,,
1558973840.108521,0.239065,1.416397,-2.096291,-0.043162,0.077611,0.072691,0.036416,-0.988104,-0.149413,0.017692,0.009619,0.018691,3.059548,-47.114323,8.970595,,,,,,,
1558973840.128507,0.244337,1.417197,-2.100673,-0.009223,0.011813,0.015500,0.037012,-0.988227,-0.148452,0.022528,0.007773,0.028198,3.020981,-47.120373,8.951849,,,,,,,
1558973840.148493,0.271787,1.420528,-2.128224,0.075899,-0.029944,-0.043558,0.040188,-0.988731,-0.144208,0.024707,0.010047,0.026685,3.126926,-47.079544,9.128572,,,,,,,
1558973840.168460,0.285391,1.421209,-2.142696,0.072646,-0.050017,-0.048027,0.041957,-0.988833,-0.143002,0.015080,0.007097,-0.007877,3.281930,-47.045021,9.251311,,,,,,,
1558973840.188462,0.286264,1.420517,-2.144775,-0.021113,-0.054745,-0.004374,0.042275,-0.988729,-0.143622,0.001762,0.005606,-0.016977,3.306731,-47.037842,9.278924,,,,,,,
1558973840.208446,0.281572,1.420229,-2.140728,-0.064725,-0.028033,0.034282,0.041680,-0.988686,-0.144092,0.001015,-0.015891,0.007724,3.319152,-47.050858,9.208227,,,,,,,
1558973840.228428,0.275153,1.419404,-2.134683,-0.048720,-0.018610,0.030114,0.040975,-0.988562,-0.145142,0.002893,0.006186,0.004303,3.292284,-47.059349,9.174451,,,,,,,
1558973840.248408,0.272409,1.418465,-2.132106,-0.039095,-0.013404,0.010954,0.040827,-0.988420,-0.146148,0.003118,0.003709,-0.005021,3.282032,-47.064281,9.152792,,,,,,,
1558973840.268388,0.266340,1.416256,-2.126686,-0.051985,-0.038677,0.029917,0.040514,-0.988082,-0.148499,0.005903,-0.004838,-0.012283,3.273465,-47.087242,9.037041,,,,,,,
1558973840.288385,0.260149,1.415241,-2.121040,-0.026340,-0.018762,0.007708,0.039851,-0.987926,-0.149715,-0.005077,0.007182,-0.010762,3.257929,-47.105083,8.949257,,,,,,,
1558973840.308340,0.259883,1.414868,-2.121302,-0.014645,-0.034717,-0.018059,0.039906,-0.987868,-0.150083,-0.006093,0.006270,-0.013675,3.257236,-47.107357,8.937498,,,,,,,
1558973840.328351,0.267076,1.413504,-2.129412,0.006728,-0.043399,-0.093930,0.041340,-0.987655,-0.151091,-0.000340,0.023101,-0.021165,3.325528,-47.114510,8.874425,,,,,,,
1558973840.348340,0.266870,1.412844,-2.130100,0.044119,-0.011923,-0.118149,0.041481,-0.987552,-0.151728,-0.029442,0.002871,-0.016287,3.394540,-47.111298,8.865342,,,,,,,
1558973840.368307,0.267973,1.412464,-2.131314,0.008970,0.016912,-0.043163,0.041748,-0.987492,-0.152045,-0.030411,0.003956,-0.021081,3.394540,-47.111298,8.865342,,,,,,,
1558973840.388288,0.249616,1.410720,-2.112550,-0.017656,0.039367,0.014651,0.039375,-0.987215,-0.154453,-0.018074,0.014956,-0.016811,3.341469,-47.129757,8.787054,,,,,,,
1558973840.408294,0.237377,1.409453,-2.099622,-0.014568,0.033088,0.067977,0.037776,-0.987012,-0.156140,-0.005809,0.020246,-0.015293,3.209572,-47.161144,8.666986,,,,,,,
1558973840.428259,0.228761,1.409238,-2.090123,0.007800,0.036137,0.064821,0.036478,-0.986978,-0.156665,-0.001123,0.013864,-0.012967,3.165590,-47.170578,8.631758,,,,,,,
1558973840.448255,0.223867,1.408556,-2.084486,0.004662,0.036094,0.025314,0.035860,-0.986868,-0.157499,0.002806,0.010946,-0.029162,3.071548,-47.179012,8.619623,,,,,,,
1558973840.468247,0.217386,1.406115,-2.077111,-0.004778,0.066749,-0.006429,0.035358,-0.986471,-0.160080,-0.013645,0.012502,-0.039627,3.053169,-47.199444,8.513657,,,,,,,
1558973840.488215,0.212241,1.404761,-2.070029,0.004901,0.115377,0.031412,0.034815,-0.986248,-0.161565,-0.018046,0.017009,-0.047114,3.029837,-47.212513,8.449297,,,,,,,
1558973840.508191,0.209458,1.404965,-2.064644,-0.006800,0.123913,0.044296,0.034324,-0.986281,-0.161465,-0.000632,0.023986,-0.086430,2.928270,-47.229912,8.387623,,,,,,,
1558973840.528201,0.207823,1.404868,-2.060775,-0.007917,0.100641,0.028058,0.034079,-0.986265,-0.161614,-0.006293,0.031737,-0.099113,2.876600,-47.233761,8.383841,,,,,,,
1558973840.548186,0.199708,1.402252,-2.050310,0.061371,0.141527,0.046655,0.033278,-0.985830,-0.164414,-0.012267,0.034322,-0.096603,2.876600,-47.233761,8.383841,,,,,,,
1558973840.568172,0.201369,1.404379,-2.048253,0.113788,0.210985,0.027076,0.033132,-0.986185,-0.162303,-0.033849,0.030786,-0.149251,2.740486,-47.251785,8.327662,,,,,,,
1558973840.588156,0.206856,1.406643,-2.048930,0.109696,0.255381,0.013618,0.033563,-0.986557,-0.159934,-0.052210,0.043335,-0.155236,2.682240,-47.233971,8.446858,,,,,,,
1558973840.608139,0.213476,1.408976,-2.049232,0.117477,0.369543,0.044611,0.034134,-0.986936,-0.157458,-0.060318,0.008801,-0.139310,2.639101,-47.220284,8.536486,,,,,,,
1558973840.628125,0.208100,1.410961,-2.034965,0.029235,0.466401,0.183194,0.032882,-0.987253,-0.155722,-0.039458,-0.016287,-0.184213,2.456604,-47.204105,8.679237,,,,,,,
1558973840.648106,0.189872,1.410903,-2.006507,-0.081397,0.509329,0.227290,0.030049,-0.987244,-0.156352,-0.055455,0.021668,-0.211019,2.174078,-47.217316,8.682770,,,,,,,
1558973840.668094,0.177183,1.410573,-1.982144,-0.011792,0.606114,0.164213,0.028120,-0.987192,-0.157041,-0.068342,0.037851,-0.199313,2.024525,-47.229012,8.655282,,,,,,,
