timestamp(unix),attitude_roll(radians),attitude_pitch(radians),attitude_yaw(radians),rotation_rate_x(radians/s),rotation_rate_y(radians/s),rotation_rate_z(radians/s),gravity_x(G),gravity_y(G),gravity_z(G),user_acc_x(G),user_acc_y(G),user_acc_z(G),magnetic_field_x(microteslas),magnetic_field_y(microteslas),magnetic_field_z(microteslas),latitude(degree),longitude(degree),altitude(meter),speed(m/s),course(degree),timestamp(unix),User Mark
1558973096.736522,-0.363779,1.472717,0.261920,-0.085052,0.021333,0.047589,-0.034841,-0.995194,-0.091514,-0.027338,-0.021163,-0.023904,-22.272032,-39.463093,-3.950491,,,,,,,
1558973096.756523,-0.368994,1.471404,0.267479,0.013949,0.007019,0.012300,-0.035789,-0.995065,-0.092549,-0.018593,-0.019233,-0.022380,-22.294022,-39.446156,-3.995413,,,,,,,
1558973096.776485,-0.370883,1.472368,0.269020,0.054327,-0.031299,-0.023267,-0.035617,-0.995160,-0.091588,-0.010068,-0.008807,-0.006419,-22.318338,-39.432037,-3.999020,,,,,,,
1558973096.796479,-0.365372,1.473222,0.262718,0.004350,-0.031089,-0.058537,-0.034808,-0.995243,-0.090989,0.000948,0.001850,0.010819,-22.290844,-39.453873,-3.936454,,,,,,,
1558973096.816484,-0.353800,1.473059,0.250826,-0.049865,0.003059,-0.032630,-0.033809,-0.995228,-0.091538,0.001369,0.007221,0.005295,-22.257357,-39.472858,-3.935660,,,,,,,
1558973096.836439,-0.352251,1.472259,0.249507,-0.030786,0.006220,0.028271,-0.033941,-0.995149,-0.092337,0.014990,0.007158,-0.004800,-22.236876,-39.480972,-3.969881,,,,,,,
1558973096.856446,-0.351879,1.471851,0.249460,-0.066946,0.019105,0.035837,-0.034047,-0.995109,-0.092732,0.006642,0.002815,0.010304,-22.250114,-39.470188,-4.002807,,,,,,,
1558973096.876440,-0.350394,1.470358,0.248028,-0.084076,-0.009313,0.045177,-0.034419,-0.994960,-0.094177,0.015483,0.005611,0.011032,-22.263998,-39.458241,-4.043180,,,,,,,
1558973096.896406,-0.359972,1.468816,0.257354,-0.040520,-0.017939,0.084633,-0.035860,-0.994805,-0.095279,0.015612,0.012062,0.005236,-22.289011,-39.439331,-4.089625,,,,,,,
1558973096.916383,-0.372283,1.467536,0.269792,-0.054238,0.015948,0.078540,-0.037493,-0.994673,-0.096016,0.001666,0.005385,0.006813,-22.372383,-39.388039,-4.128506,,,,,,,
1558973096.936396,-0.380055,1.466060,0.277565,-0.069228,-0.023123,0.051463,-0.038783,-0.994520,-0.097085,-0.000188,0.008406,0.005075,-22.412453,-39.361660,-4.162634,,,,,,,
1558973096.956380,-0.383568,1.464769,0.280287,-0.060736,-0.043293,0.023518,-0.039604,-0.994384,-0.098139,-0.002876,0.010009,0.006250,-22.458220,-39.333046,-4.186387,,,,,,,
1558973096.976355,-0.380966,1.463120,0.276886,-0.085173,-0.029425,0.022563,-0.039959,-0.994208,-0.099763,0.005794,0.014442,-0.001204,-22.484945,-39.312996,-4.231001,,,,,,,
1558973096.996353,-0.380781,1.461398,0.276469,-0.071319,-0.019968,0.033341,-0.040577,-0.994022,-0.101361,0.009632,0.019733,-0.002704,-22.495584,-39.301620,-4.279824,,,,,,,
1558973097.016318,-0.383382,1.459875,0.278195,-0.000132,-0.058391,0.036233,-0.041406,-0.993855,-0.102658,0.001596,0.011646,-0.012836,-22.516489,-39.285866,-4.314372,,,,,,,
1558973097.036316,-0.391943,1.460474,0.285157,0.083865,-0.092673,0.025295,-0.042056,-0.993921,-0.101749,0.003802,0.008951,-0.008526,-22.564930,-39.261280,-4.284991,,,,,,,
1558973097.056286,-0.404212,1.461210,0.295953,0.052039,-0.058680,0.026664,-0.043013,-0.994001,-0.100554,-0.007615,0.015455,-0.001268,-22.583658,-39.256821,-4.226838,,,,,,,
1558973097.076277,-0.411472,1.461110,0.302397,-0.004298,-0.041497,0.009702,-0.043782,-0.993991,-0.100330,-0.012111,0.018664,-0.000745,-22.611519,-39.246033,-4.177763,,,,,,,
1558973097.096280,-0.415256,1.460309,0.305212,0.026517,-0.050092,0.025660,-0.044482,-0.993903,-0.100891,-0.002560,0.018652,-0.013290,-22.654573,-39.223232,-4.158575,,,,,,,
1558973097.116264,-0.425734,1.459900,0.314902,0.055227,-0.044913,0.055627,-0.045705,-0.993857,-0.100790,-0.001567,0.008506,-0.009546,-22.698793,-39.198757,-4.148232,,,,,,,
1558973097.136250,-0.441541,1.460063,0.329991,0.042436,-0.036345,0.085593,-0.047223,-0.993875,-0.099909,0.002622,0.009531,-0.001669,-22.740690,-39.178066,-4.114072,,,,,,,
1558973097.156235,-0.462226,1.460505,0.349960,0.039236,-0.042684,0.076988,-0.049084,-0.993924,-0.098518,-0.003208,0.005811,0.016532,-22.826326,-39.135094,-4.048321,,,,,,,
1558973097.176220,-0.482589,1.460749,0.369152,-0.013957,-0.063641,0.012690,-0.050967,-0.993951,-0.097283,-0.022412,-0.001014,0.020715,-22.887012,-39.106941,-3.977108,,,,,,,
1558973097.196205,-0.483753,1.460418,0.369003,0.012771,-0.060717,-0.058791,-0.051233,-0.993914,-0.097515,-0.014563,-0.007779,-0.009709,-22.935944,-39.082829,-3.932007,,,,,,,
1558973097.216193,-0.480583,1.462170,0.364139,0.142579,-0.094220,-0.094238,-0.050119,-0.994106,-0.096132,-0.008979,-0.012379,-0.011137,-22.896700,-39.112400,-3.866130,,,,,,,
1558973097.236177,-0.488514,1.466709,0.370116,0.147917,-0.092139,-0.097416,-0.048761,-0.994588,-0.091747,-0.004904,-0.013301,0.025417,-22.847963,-39.158272,-3.685941,,,,,,,
1558973097.256162,-0.486023,1.469179,0.365963,0.035094,-0.078795,-0.071739,-0.047385,-0.994841,-0.089696,-0.006707,-0.014634,0.019887,-22.801861,-39.196594,-3.562000,,,,,,,
1558973097.276149,-0.480398,1.469788,0.358509,0.017996,-0.086063,-0.044063,-0.046600,-0.994903,-0.089424,-0.004868,-0.004914,-0.008599,-22.771147,-39.220890,-3.490301,,,,,,,
1558973097.296133,-0.485064,1.469011,0.362068,0.062809,-0.037628,-0.011530,-0.047377,-0.994824,-0.089888,-0.020052,0.003827,-0.023607,-22.763659,-39.228821,-3.449840,,,,,,,
1558973097.316117,-0.492270,1.470165,0.368981,0.082084,-0.006030,-0.018685,-0.047481,-0.994941,-0.088533,-0.013600,0.001762,-0.013579,-22.777523,-39.223656,-3.416837,,,,,,,
1558973097.336082,-0.499392,1.470795,0.376087,0.022546,0.004814,-0.044249,-0.047810,-0.995004,-0.087642,-0.007442,0.006280,0.001293,-22.798777,-39.216087,-3.361503,,,,,,,
1558973097.356061,-0.490639,1.471636,0.366893,0.021413,-0.026925,-0.068042,-0.046647,-0.995088,-0.087319,-0.003097,-0.001906,0.000009,-22.763325,-39.238270,-3.342851,,,,,,,
1558973097.376051,-0.480401,1.472715,0.356167,0.016114,-0.016316,-0.060471,-0.045255,-0.995194,-0.086841,0.003461,-0.002914,-0.002911,-22.737106,-39.254803,-3.327193,,,,,,,
1558973097.396058,-0.468347,1.473159,0.344122,-0.050910,0.015813,-0.015378,-0.044005,-0.995237,-0.086986,0.008818,0.011671,0.013164,-22.657217,-39.302090,-3.313890,,,,,,,
1558973097.416016,-0.463565,1.471868,0.339954,-0.069029,0.031914,0.041343,-0.044163,-0.995111,-0.088344,0.012867,0.016854,0.002879,-22.650078,-39.303417,-3.346810,,,,,,,
1558973097.436018,-0.467013,1.470431,0.344052,-0.020088,0.032740,0.059540,-0.045111,-0.994968,-0.089468,0.005103,0.012469,-0.010568,-22.667849,-39.286736,-3.421495,,,,,,,
1558973097.455994,-0.472923,1.469802,0.350695,-0.011545,0.035849,0.047832,-0.045924,-0.994904,-0.089756,0.001658,0.001634,0.004902,-22.714550,-39.256096,-3.463224,,,,,,,
1558973097.476001,-0.476834,1.469203,0.355079,-0.020097,0.017902,0.032706,-0.046548,-0.994844,-0.090106,0.003686,0.003007,0.004366,-22.736891,-39.241741,-3.479233,,,,,,,
1558973097.495986,-0.478121,1.468910,0.356749,0.000145,0.016718,0.018830,-0.046798,-0.994814,-0.090305,0.007995,0.001970,-0.000577,-22.749195,-39.232864,-3.498882,,,,,,,
1558973097.515972,-0.479903,1.469280,0.358751,0.000135,0.005063,0.000568,-0.046789,-0.994852,-0.089895,-0.000223,-0.008872,0.011724,-22.756361,-39.228279,-3.503697,,,,,,,
1558973097.535958,-0.477602,1.469033,0.356080,-0.023371,-0.026540,-0.010430,-0.046695,-0.994827,-0.090220,0.006458,-0.006928,0.011058,-22.755112,-39.229820,-3.494561,,,,,,,
1558973097.555942,-0.472531,1.469016,0.350728,-0.021169,-0.003294,-0.008071,-0.046245,-0.994825,-0.090471,0.010554,0.001707,0.005785,-22.737711,-39.239811,-3.495669,,,,,,,
1558973097.575928,-0.468693,1.468904,0.347056,-0.010446,0.018955,-0.002533,-0.045947,-0.994813,-0.090747,0.006442,0.002794,0.002765,-22.730820,-39.242062,-3.515145,,,,,,,
1558973097.595913,-0.470487,1.468991,0.349158,0.020372,0.011421,0.015569,-0.046071,-0.994822,-0.090588,0.006413,0.000529,-0.001880,-22.723289,-39.245903,-3.520937,,,,,,,
1558973097.615898,-0.479485,1.469772,0.358220,0.007540,-0.004359,0.020746,-0.046525,-0.994901,-0.089479,-0.003585,-0.000490,0.012880,-22.732868,-39.242733,-3.494327,,,,,,,
1558973097.635884,-0.480982,1.469694,0.359816,-0.054062,0.020220,-0.016435,-0.046695,-0.994893,-0.089479,-0.005627,-0.003245,0.007295,-22.750145,-39.234783,-3.471064,,,,,,,
1558973097.655845,-0.472308,1.468890,0.351663,-0.043369,0.025419,-0.036662,-0.046282,-0.994812,-0.090593,-0.003813,0.000748,-0.000365,-22.752556,-39.232998,-3.475414,,,,,,,
1558973097.675854,-0.464965,1.469341,0.344024,0.035219,-0.037381,-0.052147,-0.045414,-0.994858,-0.090529,-0.002621,0.001572,0.001937,-22.718037,-39.246922,-3.543387,,,,,,,
1558973097.695840,-0.460945,1.470228,0.338870,0.000092,-0.055225,-0.091847,-0.044657,-0.994947,-0.089920,-0.017858,0.001600,-0.001892,-22.671289,-39.279507,-3.481158,,,,,,,
1558973097.715812,-0.443313,1.470307,0.320140,0.019310,-0.049024,-0.118462,-0.043031,-0.994955,-0.090623,-0.007567,0.004370,-0.017425,-22.672079,-39.279503,-3.476068,,,,,,,
1558973097.735792,-0.422926,1.471933,0.298561,0.125715,-0.057852,-0.079005,-0.040510,-0.995117,-0.090006,0.020689,0.010986,-0.023168,-22.560230,-39.344246,-3.471603,,,,,,,
1558973097.755772,-0.414261,1.474242,0.289296,0.092721,-0.020568,-0.001807,-0.038804,-0.995342,-0.088250,0.027345,0.020306,-0.006507,-22.466269,-39.407124,-3.366123,,,,,,,
1558973097.775781,-0.417983,1.475666,0.293243,-0.018983,0.018134,0.040109,-0.038557,-0.995479,-0.086810,0.009840,0.015223,0.027255,-22.440357,-39.422867,-3.354625,,,,,,,
1558973097.795754,-0.424392,1.474703,0.299996,-0.091356,0.022748,0.044366,-0.039507,-0.995387,-0.087434,-0.002149,0.011302,0.016786,-22.448206,-39.422359,-3.307805,,,,,,,
1558973097.815728,-0.427318,1.472953,0.303668,-0.044483,0.038372,0.054162,-0.040485,-0.995217,-0.088904,0.002109,0.007104,-0.018274,-22.497044,-39.387215,-3.393513,,,,,,,
1558973097.835738,-0.433691,1.471974,0.310537,0.056548,0.008238,0.049684,-0.041460,-0.995121,-0.089527,0.005525,0.005283,-0.019634,-22.507050,-39.380371,-3.406580,,,,,,,
1558973097.855722,-0.445472,1.473243,0.322506,0.067218,0.008156,0.032609,-0.041968,-0.995245,-0.087894,0.010962,0.006598,0.004565,-22.562313,-39.348366,-3.410861,,,,,,,
1558973097.875684,-0.455773,1.474648,0.333012,-0.014725,0.010691,0.026160,-0.042255,-0.995381,-0.086200,-0.000806,0.004857,0.028613,-22.571041,-39.349682,-3.337159,,,,,,,
1558973097.895693,-0.453398,1.473755,0.330574,-0.084961,-0.007839,0.003447,-0.042440,-0.995295,-0.087100,0.001760,-0.000570,0.017519,-22.583513,-39.342697,-3.335063,,,,,,,
1558973097.915667,-0.446992,1.472530,0.323830,-0.027517,-0.021891,-0.001980,-0.042408,-0.995176,-0.088469,0.001667,-0.003390,-0.008622,-22.584814,-39.339348,-3.365627,,,,,,,
1558973097.935642,-0.446702,1.472791,0.323192,0.071473,-0.019227,0.006665,-0.042270,-0.995201,-0.088247,0.005893,0.000267,-0.012446,-22.581409,-39.339535,-3.386239,,,,,,,
1558973097.955649,-0.454970,1.474145,0.330873,0.072481,-0.036143,0.007572,-0.042406,-0.995333,-0.086685,0.001268,0.000094,-0.003357,-22.580532,-39.343777,-3.342528,,,,,,,
1558973097.975627,-0.462652,1.474844,0.337786,0.001135,-0.043165,0.009583,-0.042760,-0.995400,-0.085733,-0.002467,0.003930,0.014063,-22.585487,-39.345238,-3.291492,,,,,,,
1558973097.995611,-0.466349,1.474212,0.340867,-0.041332,-0.011239,0.004517,-0.043360,-0.995339,-0.086137,-0.011953,0.005212,-0.001906,-22.607985,-39.336060,-3.246477,,,,,,,
1558973098.015606,-0.464643,1.473160,0.339276,-0.013555,0.013964,-0.008030,-0.043682,-0.995237,-0.087147,-0.016575,0.004835,-0.016186,-22.620533,-39.326744,-3.271781,,,,,,,
1558973098.035566,-0.463998,1.473406,0.338745,0.064085,-0.008649,-0.013522,-0.043516,-0.995261,-0.086956,-0.004778,0.008185,-0.022083,-22.630751,-39.318645,-3.298354,,,,,,,
1558973098.055573,-0.467841,1.474621,0.341996,0.041648,-0.031780,-0.009491,-0.043305,-0.995379,-0.085709,0.004288,0.010470,0.009400,-22.623251,-39.326927,-3.250661,,,,,,,
1558973098.075561,-0.467199,1.474768,0.341041,-0.022165,-0.006048,0.009921,-0.043183,-0.995393,-0.085606,0.004609,0.005799,0.001438,-22.615364,-39.334236,-3.216977,,,,,,,
1558973098.095538,-0.466216,1.474317,0.339952,0.003363,-0.008285,0.017393,-0.043301,-0.995349,-0.086049,0.009183,0.007434,-0.007747,-22.616039,-39.333221,-3.224600,,,,,,,
1558973098.115510,-0.471195,1.474488,0.344791,0.054479,-0.007516,0.004630,-0.043652,-0.995366,-0.085681,-0.002063,0.011464,-0.008664,-22.628437,-39.326447,-3.220260,,,,,,,
1558973098.135490,-0.476738,1.475650,0.350313,0.067303,0.002971,-0.005936,-0.043595,-0.995477,-0.084410,-0.000823,0.010019,-0.010164,-22.631790,-39.326832,-3.191860,,,,,,,
1558973098.155503,-0.486000,1.477024,0.359703,0.063045,0.001933,-0.008084,-0.043736,-0.995607,-0.082792,-0.004802,0.006761,0.008802,-22.633060,-39.330433,-3.138020,,,,,,,
1558973098.175489,-0.492357,1.478350,0.365641,0.030001,-0.028600,-0.043634,-0.043638,-0.995730,-0.081350,-0.005511,0.001498,0.009435,-22.627684,-39.338043,-3.080887,,,,,,,
1558973098.195458,-0.478740,1.478936,0.351638,0.006665,-0.008411,-0.055204,-0.042257,-0.995784,-0.081418,0.008886,-0.000829,-0.009493,-22.596203,-39.360355,-3.026512,,,,,,,
1558973098.215459,-0.470286,1.479550,0.343557,0.034414,0.032727,-0.014219,-0.041290,-0.995840,-0.081228,0.011444,-0.004557,-0.007685,-22.559086,-39.381229,-3.031793,,,,,,,
1558973098.235445,-0.470197,1.480867,0.344005,0.071635,0.011674,0.010074,-0.040689,-0.995959,-0.080062,0.010476,-0.006345,0.002471,-22.523077,-39.403099,-3.015430,,,,,,,
1558973098.255423,-0.478437,1.482699,0.351876,0.042757,-0.034696,0.001065,-0.040507,-0.996122,-0.078105,0.007228,-0.008334,0.016185,-22.512573,-39.413586,-2.956207,,,,,,,
1558973098.275415,-0.479510,1.483376,0.352727,-0.020982,0.004750,0.002458,-0.040279,-0.996181,-0.077462,0.000210,-0.000111,0.009149,-22.498077,-39.427059,-2.886077,,,,,,,
1558973098.295400,-0.478404,1.482554,0.351661,-0.017810,0.001571,0.008837,-0.040571,-0.996109,-0.078234,-0.001269,0.000443,-0.005735,-22.507065,-39.420437,-2.906334,,,,,,,
1558973098.315361,-0.480478,1.482433,0.353814,0.002418,0.000402,0.004571,-0.040789,-0.996098,-0.078257,-0.003385,-0.002391,-0.000219,-22.513733,-39.415703,-2.918905,,,,,,,
1558973098.335370,-0.480359,1.482037,0.353773,-0.040153,0.005920,0.010996,-0.040962,-0.996063,-0.078611,-0.001259,-0.001404,0.005690,-22.519485,-39.412403,-2.919117,,,,,,,
1558973098.355357,-0.478101,1.481468,0.351339,-0.009416,-0.024864,0.032078,-0.041044,-0.996013,-0.079206,0.012266,-0.000981,0.000409,-22.532896,-39.402107,-2.954318,,,,,,,
1558973098.375328,-0.483052,1.481868,0.355436,0.010705,-0.053498,0.039291,-0.041252,-0.996048,-0.078650,0.013313,0.005906,0.009772,-22.530828,-39.404564,-2.937286,,,,,,,
1558973098.395308,-0.492450,1.481289,0.363721,-0.020184,-0.054377,0.049934,-0.042261,-0.995997,-0.078766,0.015741,0.006037,0.009033,-22.545918,-39.398266,-2.905836,,,,,,,
1558973098.415314,-0.495589,1.480855,0.366105,-0.020127,-0.044679,0.057455,-0.042714,-0.995958,-0.079014,0.020680,0.034395,0.011921,-22.582211,-39.378723,-2.888825,,,,,,,
1558973098.435298,-0.507178,1.480861,0.376837,0.021372,-0.049124,0.058512,-0.043624,-0.995959,-0.078509,-0.000016,0.026079,0.008776,-22.603149,-39.367805,-2.873841,,,,,,,
1558973098.455268,-0.518704,1.480748,0.387302,0.012898,-0.048060,0.032892,-0.044582,-0.995948,-0.078098,-0.008794,0.021308,-0.004101,-22.641581,-39.348331,-2.837813,,,,,,,
1558973098.475251,-0.533288,1.479316,0.401304,0.018313,-0.023794,0.022455,-0.046441,-0.995819,-0.078667,-0.023078,0.002960,-0.022483,-22.711914,-39.310326,-2.802301,,,,,,,
1558973098.495254,-0.541950,1.479860,0.409750,0.058851,-0.001825,0.012022,-0.046841,-0.995868,-0.077798,-0.025104,-0.005200,-0.020102,-22.750027,-39.288300,-2.801986,,,,,,,
1558973098.515211,-0.551051,1.480991,0.418660,0.076905,-0.017785,0.005477,-0.046958,-0.995970,-0.076410,-0.020166,-0.005663,-0.015433,-22.757704,-39.286366,-2.766597,,,,,,,
1558973098.535218,-0.572065,1.482075,0.439631,0.097152,0.001174,0.032368,-0.047968,-0.996067,-0.074498,-0.021673,-0.002804,0.002507,-22.770515,-39.285954,-2.665184,,,,,,,
1558973098.555209,-0.584703,1.483145,0.452181,0.053521,-0.017509,-0.000980,-0.048317,-0.996161,-0.072997,-0.006431,0.004599,0.009734,-22.811972,-39.265820,-2.606723,,,,,,,
1558973098.575178,-0.587004,1.483492,0.454259,0.008869,0.000698,0.001294,-0.048294,-0.996191,-0.072598,-0.010086,-0.000635,0.009030,-22.813286,-39.267872,-2.563959,,,,,,,
1558973098.595180,-0.588562,1.483856,0.456201,0.031310,0.022763,-0.008086,-0.048206,-0.996223,-0.072221,0.002490,-0.006600,-0.007796,-22.811960,-39.269184,-2.555627,,,,,,,
1558973098.615166,-0.586750,1.484901,0.454778,0.054732,0.016273,-0.025212,-0.047498,-0.996313,-0.071440,0.004651,-0.008035,-0.001558,-22.798109,-39.277866,-2.545841,,,,,,,
1558973098.635151,-0.589654,1.486291,0.457579,0.042901,-0.020660,-0.024508,-0.046935,-0.996432,-0.070152,0.001128,-0.007063,0.009300,-22.769493,-39.297539,-2.497860,,,,,,,
1558973098.655122,-0.590675,1.487525,0.457876,0.005577,-0.036302,-0.012945,-0.046322,-0.996535,-0.069082,0.004986,0.002242,0.006231,-22.743391,-39.316833,-2.431127,,,,,,,
1558973098.675123,-0.588398,1.487425,0.455005,0.002407,-0.027826,-0.010730,-0.046220,-0.996527,-0.069271,-0.002470,0.004858,-0.006351,-22.731739,-39.324688,-2.412990,,,,,,,
1558973098.695088,-0.587592,1.487577,0.453837,0.007804,-0.002478,-0.005145,-0.046080,-0.996539,-0.069182,-0.001100,0.006137,-0.004244,-22.729485,-39.326202,-2.409552,,,,,,,
1558973098.715089,-0.585997,1.487027,0.452780,-0.025089,0.034896,0.011164,-0.046273,-0.996493,-0.069712,-0.002143,0.008655,-0.007528,-22.726969,-39.327679,-2.409229,,,,,,,
1558973098.735062,-0.587919,1.486252,0.455331,-0.013385,0.031656,0.006873,-0.046835,-0.996428,-0.070265,-0.010690,0.003920,-0.000490,-22.742561,-39.315292,-2.463572,,,,,,,
1558973098.755049,-0.593445,1.486011,0.461002,0.002476,-0.009680,-0.012726,-0.047357,-0.996408,-0.070204,-0.008063,0.005609,0.004210,-22.770746,-39.298145,-2.476801,,,,,,,
1558973098.775049,-0.592585,1.486236,0.459859,-0.001775,-0.009664,-0.017000,-0.047171,-0.996427,-0.070059,-0.001580,0.005475,-0.000848,-22.770527,-39.299431,-2.458379,,,,,,,
1558973098.795005,-0.589376,1.486058,0.456742,0.012101,0.012494,0.005644,-0.047045,-0.996412,-0.070357,0.001070,0.009290,-0.006730,-22.769192,-39.300171,-2.458912,,,,,,,
1558973098.815019,-0.592095,1.486168,0.459981,0.023857,0.030412,0.013298,-0.047175,-0.996421,-0.070139,-0.001012,0.012657,-0.001120,-22.763683,-39.302303,-2.475780,,,,,,,
1558973098.834992,-0.600292,1.486528,0.468872,0.018547,0.034670,0.014402,-0.047545,-0.996452,-0.069453,0.002318,0.010200,0.008845,-22.783651,-39.291111,-2.469695,,,,,,,
1558973098.854983,-0.603233,1.486771,0.472158,-0.007077,0.002008,-0.005148,-0.047612,-0.996472,-0.069114,-0.001872,-0.000171,0.012229,-22.788063,-39.289558,-2.453635,,,,,,,
1558973098.874975,-0.599719,1.487027,0.468546,-0.008140,-0.004351,-0.020157,-0.047225,-0.996493,-0.069070,0.001784,0.001468,0.011926,-22.784777,-39.291214,-2.457646,,,,,,,
1558973098.894962,-0.594045,1.487604,0.462612,0.051397,-0.023490,-0.017124,-0.046510,-0.996542,-0.068860,0.007799,-0.000620,-0.007189,-22.754412,-39.309662,-2.443938,,,,,,,
1558973098.914947,-0.598494,1.489037,0.466563,0.072656,-0.024632,0.001030,-0.046012,-0.996660,-0.067473,0.009482,0.003526,0.000609,-22.732836,-39.324299,-2.409002,,,,,,,
1558973098.934932,-0.606098,1.490117,0.473915,0.034385,-0.006452,0.007579,-0.045910,-0.996747,-0.066237,0.008465,0.003232,0.008833,-22.724318,-39.332321,-2.357872,,,,,,,
1558973098.954918,-0.611398,1.490253,0.479088,-0.013494,-0.007283,-0.009549,-0.046182,-0.996758,-0.065881,-0.011908,0.009972,0.006631,-22.732077,-39.331291,-2.299577,,,,,,,
1558973098.974902,-0.605923,1.489692,0.473770,-0.025106,0.019192,-0.016778,-0.046140,-0.996713,-0.066593,-0.012347,0.005593,-0.006283,-22.732180,-39.329674,-2.326051,,,,,,,
1558973098.994887,-0.600603,1.489498,0.468986,0.008945,0.025387,0.004662,-0.045895,-0.996697,-0.066997,0.002392,0.006463,-0.010136,-22.722527,-39.334137,-2.344867,,,,,,,
1558973099.014868,-0.603065,1.490121,0.471547,0.023708,-0.014850,0.009625,-0.045707,-0.996747,-0.066373,0.008369,0.000165,0.007748,-22.718292,-39.336143,-2.352248,,,,,,,
1558973099.034832,-0.606502,1.490276,0.474523,-0.000800,-0.017722,0.007413,-0.045846,-0.996760,-0.066087,0.000650,0.002146,0.004335,-22.715462,-39.339767,-2.318624,,,,,,,
1558973099.054822,-0.607977,1.490056,0.476075,0.008875,0.013946,0.013062,-0.046069,-0.996742,-0.066200,0.000689,0.003517,-0.006890,-22.719530,-39.337574,-2.315991,,,,,,,
1558973099.074799,-0.609036,1.489784,0.477540,-0.018756,0.019348,-0.006126,-0.046295,-0.996720,-0.066374,-0.006531,0.001054,-0.001803,-22.729643,-39.330887,-2.330270,,,,,,,
1558973099.094809,-0.606422,1.489119,0.475459,-0.030461,0.030009,0.014252,-0.046498,-0.996666,-0.067038,-0.004863,0.002343,-0.001611,-22.734064,-39.326874,-2.354828,,,,,,,
1558973099.114790,-0.607802,1.488510,0.477298,-0.018813,0.015162,0.022661,-0.046938,-0.996616,-0.067473,-0.001402,-0.000835,0.001204,-22.746191,-39.318077,-2.384382,,,,,,,
1558973099.134766,-0.613832,1.488075,0.483353,-0.019882,-0.000734,-0.008452,-0.047594,-0.996581,-0.067543,-0.005400,-0.006288,0.001748,-22.772095,-39.302143,-2.399766,,,,,,,
1558973099.154770,-0.608396,1.488084,0.477837,0.007808,-0.005136,-0.027690,-0.047220,-0.996581,-0.067793,-0.000052,0.001083,-0.004015,-22.777121,-39.298508,-2.411620,,,,,,,
1558973099.174755,-0.606153,1.488885,0.475205,0.039684,-0.024335,-0.031051,-0.046614,-0.996647,-0.067244,0.001097,0.006062,-0.003618,-22.777121,-39.298508,-2.411620,,,,,,,
1558973099.194733,-0.602115,1.489858,0.471030,0.008852,-0.002843,-0.037320,-0.045792,-0.996726,-0.066631,-0.001236,0.007469,-0.005039,-22.721203,-39.334362,-2.353865,,,,,,,
1558973099.214727,-0.597031,1.489992,0.466042,0.002499,0.017305,-0.015779,-0.045378,-0.996737,-0.066753,-0.002748,0.010958,-0.002781,-22.703764,-39.344208,-2.357580,,,,,,,
1558973099.234711,-0.598279,1.490061,0.467567,0.025848,0.006646,0.006558,-0.045423,-0.996743,-0.066640,-0.002307,0.015252,-0.009517,-22.699213,-39.345928,-2.372676,,,,,,,
1558973099.254698,-0.606272,1.490210,0.475832,0.018438,0.025731,0.020615,-0.045869,-0.996755,-0.066153,-0.003920,0.010045,0.002157,-22.709995,-39.340820,-2.354017,,,,,,,
1558973099.274683,-0.611441,1.490196,0.481656,0.005699,0.027885,0.002475,-0.046218,-0.996754,-0.065926,-0.002854,0.007923,0.000710,-22.718445,-39.336102,-2.351444,,,,,,,
1558973099.294668,-0.609730,1.490599,0.480333,0.008876,0.020461,-0.002932,-0.045876,-0.996786,-0.065676,0.006386,0.001776,0.004839,-22.727850,-39.330353,-2.356731,,,,,,,
1558973099.314568,-0.604266,1.491125,0.475680,0.006810,0.041619,0.001537,-0.045218,-0.996828,-0.065494,0.011923,-0.004271,-0.001660,-22.718956,-39.335640,-2.354150,,,,,,,
1558973099.334531,-0.606996,1.491313,0.479074,0.001431,0.031099,0.016379,-0.045289,-0.996843,-0.065215,-0.000838,-0.003966,0.008437,-22.693186,-39.349907,-2.364223,,,,,,,
1558973099.354511,-0.608377,1.491267,0.480679,-0.011370,0.008924,-0.013737,-0.045406,-0.996839,-0.065192,-0.008579,-0.002703,0.002020,-22.698368,-39.346767,-2.366799,,,,,,,
1558973099.374524,-0.604160,1.491108,0.476762,-0.017712,0.021638,-0.015755,-0.045221,-0.996827,-0.065513,-0.006644,0.004334,0.000297,-22.700804,-39.345135,-2.370534,,,,,,,
1558973099.394498,-0.598513,1.490772,0.471668,-0.027286,0.030165,-0.001802,-0.045039,-0.996800,-0.066043,-0.001943,0.008061,-0.001248,-22.687361,-39.350868,-2.403846,,,,,,,
1558973099.414492,-0.594281,1.490302,0.467806,-0.040123,0.011207,-0.000926,-0.045021,-0.996762,-0.066621,0.001106,0.008405,0.006364,-22.686401,-39.349716,-2.431625,,,,,,,
1558973099.434467,-0.589080,1.489917,0.462837,-0.034759,0.021743,-0.005092,-0.044888,-0.996731,-0.067175,0.001232,0.001171,0.003759,-22.683075,-39.348953,-2.474614,,,,,,,
1558973099.454451,-0.583471,1.490020,0.457596,0.008783,-0.009140,-0.005354,-0.044453,-0.996739,-0.067339,0.011921,-0.002711,-0.001723,-22.678032,-39.350636,-2.493980,,,,,,,
1558973099.474430,-0.586991,1.491239,0.460862,0.022626,-0.003914,0.004315,-0.044016,-0.996837,-0.066169,0.008753,-0.001866,0.018516,-22.653063,-39.366379,-2.472418,,,,,,,
1558973099.494432,-0.587474,1.491682,0.460860,-0.026443,-0.037486,0.000750,-0.043805,-0.996872,-0.065782,0.005658,0.000702,0.013094,-22.642536,-39.375111,-2.429330,,,,,,,
1558973099.514420,-0.585392,1.491099,0.457771,-0.003105,-0.062982,-0.002678,-0.043988,-0.996826,-0.066357,-0.005862,0.004059,-0.010151,-22.644600,-39.374123,-2.426177,,,,,,,
1558973099.534382,-0.588662,1.491706,0.459891,0.044909,-0.034713,-0.015180,-0.043869,-0.996874,-0.065710,-0.010879,0.000948,-0.030115,-22.644737,-39.375069,-2.409467,,,,,,,
1558973099.554393,-0.592343,1.491771,0.463905,0.017457,0.036258,-0.010251,-0.044075,-0.996879,-0.065495,-0.030785,-0.001427,0.000492,-22.650532,-39.374283,-2.367467,,,,,,,
1558973099.574378,-0.587715,1.491290,0.459575,-0.049664,0.004855,-0.040498,-0.044036,-0.996841,-0.066096,-0.021256,-0.002808,0.000223,-22.638750,-39.380333,-2.379505,,,,,,,
1558973099.594349,-0.573610,1.490721,0.445697,-0.018738,0.019481,-0.046739,-0.043408,-0.996796,-0.067187,-0.010150,0.003860,-0.011655,-22.629446,-39.383255,-2.419324,,,,,,,
1558973099.614325,-0.559048,1.490997,0.431331,0.037658,0.006478,-0.061765,-0.042279,-0.996818,-0.067578,0.003430,0.011375,-0.004550,-22.593155,-39.401043,-2.468401,,,,,,,
1558973099.634333,-0.552106,1.492859,0.424479,0.061038,-0.006333,-0.064005,-0.040836,-0.996964,-0.066291,0.005588,0.014848,0.003990,-22.532774,-39.437866,-2.431867,,,,,,,
1558973099.654294,-0.543357,1.494520,0.415492,0.016327,-0.005033,-0.058690,-0.039398,-0.997092,-0.065228,0.005752,0.014518,0.012997,-22.507336,-39.453892,-2.407473,,,,,,,
1558973099.674292,-0.525484,1.495295,0.397653,-0.003895,0.003553,-0.042612,-0.037837,-0.997151,-0.065252,0.009914,0.014287,-0.004679,-22.420485,-39.505726,-2.367499,,,,,,,
1558973099.694290,-0.518818,1.495674,0.391205,0.013017,0.017582,0.003372,-0.037215,-0.997180,-0.065176,0.012694,0.017550,-0.002238,-22.391273,-39.521862,-2.374707,,,,,,,
1558973099.714269,-0.522550,1.495532,0.395507,-0.000843,0.025100,0.034394,-0.037529,-0.997169,-0.065159,0.007438,0.009895,-0.002101,-22.379570,-39.528290,-2.377995,,,,,,,
1558973099.734260,-0.528449,1.495622,0.401198,0.004340,-0.028872,0.009326,-0.037867,-0.997176,-0.064859,0.000224,-0.000597,0.005823,-22.400784,-39.516022,-2.382178,,,,,,,
1558973099.754228,-0.532797,1.496068,0.405010,0.023533,-0.020522,0.006218,-0.037922,-0.997209,-0.064310,0.003651,-0.001341,0.005671,-22.405945,-39.514481,-2.359010,,,,,,,
1558973099.774220,-0.536766,1.496466,0.408712,0.019311,-0.006749,0.012751,-0.037975,-0.997239,-0.063818,0.003001,0.001343,0.001852,-22.404306,-39.517395,-2.325568,,,,,,,
1558973099.794217,-0.544105,1.496548,0.416236,0.001276,0.009192,0.006484,-0.038399,-0.997245,-0.063468,-0.006294,-0.004189,0.002539,-22.416286,-39.511795,-2.305126,,,,,,,
1558973099.814174,-0.547370,1.496501,0.419247,0.000154,-0.018317,-0.015132,-0.038631,-0.997241,-0.063382,-0.006871,0.003055,0.002332,-22.428690,-39.505146,-2.298394,,,,,,,
1558973099.834187,-0.545950,1.496308,0.417472,0.008680,-0.017313,-0.020453,-0.038641,-0.997227,-0.063601,-0.006968,0.002659,-0.011838,-22.434010,-39.502563,-2.290884,,,,,,,
1558973099.854173,-0.544124,1.496336,0.415370,0.018222,-0.009790,-0.027888,-0.038510,-0.997229,-0.063648,-0.007724,0.005393,-0.002896,-22.425858,-39.507050,-2.293360,,,,,,,
1558973099.874143,-0.541114,1.496765,0.412135,0.026716,-0.011935,-0.018293,-0.038098,-0.997261,-0.063397,0.003292,0.011467,-0.004917,-22.417810,-39.512493,-2.278170,,,,,,,
1558973099.894143,-0.539681,1.497493,0.410629,0.021451,0.008184,-0.012767,-0.037634,-0.997315,-0.062828,0.003180,0.014282,0.003304,-22.400814,-39.522957,-2.263841,,,,,,,
1558973099.914129,-0.536217,1.497651,0.407330,0.007608,0.004019,-0.019224,-0.037336,-0.997326,-0.062823,0.001462,0.010189,-0.002897,-22.386280,-39.531746,-2.254194,,,,,,,
1558973099.934111,-0.534425,1.498259,0.405394,0.038414,-0.017290,-0.023674,-0.036914,-0.997370,-0.062368,-0.001462,0.007090,-0.000956,-22.372276,-39.539875,-2.250639,,,,,,,
1558973099.954098,-0.534823,1.499309,0.405440,0.052284,-0.012092,-0.033222,-0.036405,-0.997446,-0.061452,-0.001452,0.008966,-0.004146,-22.359961,-39.548351,-2.223887,,,,,,,
1558973099.974085,-0.533391,1.500360,0.403620,0.043751,-0.026878,-0.054722,-0.035785,-0.997520,-0.060603,-0.005094,0.009117,-0.004461,-22.325378,-39.571568,-2.157378,,,,,,,
1558973099.994045,-0.529224,1.502002,0.398853,0.075663,-0.025963,-0.037606,-0.034704,-0.997635,-0.059336,0.006888,0.010315,0.001368,-22.299076,-39.588261,-2.122794,,,,,,,
1558973100.014055,-0.531144,1.503817,0.400675,0.074642,-0.002671,-0.016032,-0.033901,-0.997758,-0.057708,0.012538,0.006699,0.000731,-22.270201,-39.607338,-2.069472,,,,,,,
1558973100.034042,-0.535170,1.505176,0.404163,0.037235,-0.033994,-0.006795,-0.033442,-0.997848,-0.056405,0.003595,0.001708,0.008142,-22.234154,-39.631020,-2.002591,,,,,,,
1558973100.054013,-0.539492,1.506228,0.408355,-0.004145,0.007450,-0.004297,-0.033146,-0.997916,-0.055359,0.003101,-0.004968,0.013169,-22.219074,-39.643299,-1.925399,,,,,,,
1558973100.074011,-0.534581,1.506060,0.403341,-0.022317,-0.015709,-0.004534,-0.032959,-0.997905,-0.055666,0.001358,-0.009358,0.000292,-22.210571,-39.648483,-1.916761,,,,,,,
1558973100.093997,-0.538300,1.506111,0.406641,0.023421,-0.019097,0.011485,-0.033140,-0.997909,-0.055499,-0.000384,-0.001130,-0.002713,-22.211639,-39.647987,-1.914654,,,,,,,
1558973100.113960,-0.546243,1.506267,0.414283,0.007461,-0.013718,0.017930,-0.033498,-0.997919,-0.055101,-0.000880,0.001672,0.000658,-22.220898,-39.643810,-1.893561,,,,,,,
1558973100.133966,-0.550398,1.506093,0.418233,-0.020214,-0.012513,0.020054,-0.033818,-0.997907,-0.055110,0.002477,0.005384,0.007609,-22.235348,-39.636116,-1.885118,,,,,,,
1558973100.153933,-0.554273,1.505650,0.421937,-0.040408,-0.000772,0.025488,-0.034264,-0.997879,-0.055354,-0.001945,0.003784,0.001887,-22.251104,-39.627457,-1.881078,,,,,,,
1558973100.173939,-0.555427,1.504524,0.423156,-0.038352,0.002521,0.036172,-0.034920,-0.997805,-0.056269,0.000359,0.002474,-0.002020,-22.270702,-39.615284,-1.905423,,,,,,,
1558973100.193897,-0.560179,1.503831,0.427874,-0.010686,-0.005038,0.026513,-0.035555,-0.997759,-0.056688,0.001238,0.001100,0.000170,-22.299137,-39.597809,-1.935858,,,,,,,
1558973100.213904,-0.565117,1.503670,0.432373,0.019015,-0.042208,0.014437,-0.035920,-0.997748,-0.056648,0.000688,0.007346,-0.002450,-22.321259,-39.585384,-1.935096,,,,,,,
1558973100.233894,-0.579682,1.504101,0.445656,0.045539,-0.070893,0.009914,-0.036506,-0.997777,-0.055758,-0.007195,0.006734,0.000857,-22.330101,-39.581997,-1.902096,,,,,,,
1558973100.253864,-0.590465,1.504515,0.455094,0.013694,-0.054907,-0.014514,-0.036875,-0.997804,-0.055019,-0.014852,0.006105,0.003749,-22.364485,-39.565960,-1.830367,,,,,,,
1558973100.273841,-0.596794,1.504377,0.461376,0.007620,0.037074,-0.021109,-0.037300,-0.997795,-0.054898,-0.020897,-0.020241,-0.000568,-22.362394,-39.568462,-1.801570,,,,,,,
1558973100.293850,-0.585479,1.504604,0.450646,-0.014794,0.002256,-0.057760,-0.036551,-0.997810,-0.055128,-0.006296,-0.023873,-0.002581,-22.368763,-39.564415,-1.811332,,,,,,,
1558973100.313831,-0.570012,1.505098,0.434701,-0.030830,-0.020921,-0.062265,-0.035428,-0.997843,-0.055272,-0.007235,-0.023245,0.012623,-22.335882,-39.582291,-1.826625,,,,,,,
1558973100.333821,-0.554764,1.504797,0.419256,-0.050016,0.000459,-0.054611,-0.034739,-0.997823,-0.056060,-0.005574,-0.016002,-0.004303,-22.282700,-39.611824,-1.835860,,,,,,,
1558973100.353806,-0.533233,1.504085,0.397475,-0.068152,-0.014253,-0.060104,-0.033886,-0.997776,-0.057407,-0.003346,-0.007397,-0.001110,-22.276329,-39.614788,-1.849160,,,,,,,
1558973100.373776,-0.507385,1.503369,0.371804,-0.093565,0.035590,-0.040430,-0.032738,-0.997728,-0.058888,0.004936,-0.000869,0.006260,-22.219145,-39.643223,-1.926178,,,,,,,
1558973100.393758,-0.478982,1.501800,0.344766,-0.150922,0.081368,-0.022957,-0.031774,-0.997621,-0.061184,0.007161,0.012651,0.006908,-22.170729,-39.664154,-2.049165,,,,,,,
1558973100.413761,-0.446426,1.499446,0.313598,-0.130778,0.058011,-0.021030,-0.030779,-0.997456,-0.064303,0.013002,0.021885,-0.004392,-22.136099,-39.675461,-2.199252,,,,,,,
1558973100.433724,-0.420270,1.498184,0.287868,-0.050087,0.002649,-0.003349,-0.029600,-0.997365,-0.066236,0.024840,0.026219,-0.004336,-22.096825,-39.692005,-2.293601,,,,,,,
1558973100.453711,-0.411026,1.497555,0.278435,-0.040587,-0.010048,0.022159,-0.029237,-0.997319,-0.067080,0.023408,0.023305,0.001498,-22.054169,-39.712521,-2.348422,,,,,,,
1558973100.473691,-0.417471,1.496246,0.284863,-0.047005,-0.000439,0.063884,-0.030198,-0.997222,-0.068084,0.017045,0.019439,-0.010865,-22.073502,-39.700195,-2.375014,,,,,,,
1558973100.493688,-0.427195,1.494915,0.294686,-0.025738,0.002652,0.085282,-0.031409,-0.997122,-0.068995,0.017752,0.024604,-0.008504,-22.111507,-39.677345,-2.403157,,,,,,,
1558973100.513689,-0.445041,1.493445,0.312498,-0.038617,-0.003510,0.084146,-0.033266,-0.997010,-0.069747,-0.004194,0.022172,0.003539,-22.197233,-39.626266,-2.455064,,,,,,,
1558973100.533658,-0.459318,1.491657,0.326725,-0.044977,-0.001383,0.070283,-0.035049,-0.996870,-0.070863,-0.010651,0.018217,-0.006636,-22.275787,-39.579727,-2.494051,,,,,,,
1558973100.553660,-0.469557,1.490499,0.337138,-0.007652,0.006835,0.042633,-0.036295,-0.996778,-0.071529,-0.004980,0.013914,-0.007770,-22.302923,-39.563377,-2.510848,,,,,,,
1558973100.573645,-0.476037,1.489907,0.343669,0.015809,0.004547,0.008466,-0.037028,-0.996730,-0.071817,-0.006658,0.001903,-0.007086,-22.360374,-39.529053,-2.540323,,,,,,,
1558973100.593632,-0.477852,1.490007,0.345797,0.011646,0.015078,-0.032006,-0.037112,-0.996738,-0.071662,-0.019742,-0.002606,-0.005578,-22.378222,-39.518650,-2.545028,,,,,,,
1558973100.613616,-0.474605,1.490260,0.342511,0.020101,-0.006117,-0.038606,-0.036764,-0.996759,-0.071557,-0.005595,-0.004080,-0.003929,-22.368376,-39.524197,-2.545445,,,,,,,
1558973100.633603,-0.471262,1.490728,0.339075,0.016896,0.000274,-0.017195,-0.036313,-0.996796,-0.071265,0.000516,0.000550,-0.002283,-22.343914,-39.539173,-2.527596,,,,,,,
1558973100.653588,-0.474483,1.491395,0.342560,0.039281,0.018153,0.001144,-0.036239,-0.996849,-0.070556,-0.001969,0.005333,0.008025,-22.337107,-39.544189,-2.509297,,,,,,,
1558973100.673572,-0.479423,1.492062,0.347505,0.031668,-0.000724,0.002045,-0.036280,-0.996902,-0.069786,0.003352,0.005889,-0.004585,-22.337639,-39.544743,-2.495812,,,,,,,
1558973100.693557,-0.483607,1.492449,0.351754,0.005055,-0.000583,0.003093,-0.036392,-0.996932,-0.069292,0.001282,0.013900,0.003160,-22.342588,-39.544479,-2.455329,,,,,,,
1558973100.713522,-0.484660,1.492528,0.352893,0.001888,0.007891,0.004239,-0.036429,-0.996939,-0.069184,0.001959,0.011221,0.003525,-22.344685,-39.543400,-2.453635,,,,,,,
1558973100.733502,-0.485009,1.492469,0.353509,0.017868,0.010975,0.002146,-0.036480,-0.996934,-0.069223,-0.000660,-0.000640,-0.009680,-22.345373,-39.543121,-2.451868,,,,,,,
1558973100.753485,-0.490292,1.492478,0.359346,0.038200,0.037271,-0.012532,-0.036842,-0.996935,-0.069022,-0.013558,-0.014250,-0.006615,-22.351456,-39.539150,-2.460493,,,,,,,
1558973100.773487,-0.490435,1.493091,0.359595,0.026373,-0.008151,-0.034328,-0.036563,-0.996982,-0.068477,-0.012067,-0.014782,-0.003804,-22.352009,-39.539314,-2.452755,,,,,,,
1558973100.793476,-0.484951,1.493890,0.354069,0.024290,0.003479,-0.039557,-0.035815,-0.997044,-0.067971,-0.001080,-0.011257,-0.000922,-22.343351,-39.545181,-2.436968,,,,,,,
1558973100.813452,-0.481042,1.494734,0.350347,0.032747,0.015157,-0.040478,-0.035160,-0.997109,-0.067365,-0.004116,-0.000130,0.002317,-22.312422,-39.563812,-2.417943,,,,,,,
1558973100.833432,-0.478519,1.495678,0.347930,0.019962,0.000389,-0.065184,-0.034557,-0.997180,-0.066619,-0.009739,0.000354,0.005050,-22.274670,-39.587132,-2.384056,,,,,,,
1558973100.853414,-0.465009,1.496687,0.334442,0.012561,0.012044,-0.072552,-0.033203,-0.997255,-0.066180,-0.005082,0.003710,0.006778,-22.274670,-39.587132,-2.384056,,,,,,,
1558973100.873427,-0.449205,1.497317,0.319170,0.006211,0.035370,-0.046711,-0.031880,-0.997302,-0.066130,0.009510,0.012911,-0.003724,-22.174212,-39.644573,-2.365995,,,,,,,
1558973100.893412,-0.436011,1.498327,0.306569,0.045450,0.014100,0.004361,-0.030579,-0.997375,-0.065632,0.026368,0.021774,0.005787,-22.134623,-39.666275,-2.372912,,,,,,,
1558973100.913397,-0.442441,1.499130,0.313341,0.017803,0.032245,0.024797,-0.030658,-0.997433,-0.064711,0.012530,0.018154,0.013334,-22.115210,-39.678230,-2.354022,,,,,,,
1558973100.933383,-0.446316,1.498889,0.317485,-0.042959,-0.002344,0.007335,-0.031012,-0.997416,-0.064807,-0.003016,0.002756,0.008716,-22.125774,-39.673084,-2.341373,,,,,,,
1558973100.953368,-0.447053,1.498417,0.318332,-0.001383,0.015404,0.005403,-0.031263,-0.997382,-0.065209,-0.001437,0.002509,-0.003364,-22.130314,-39.670551,-2.341339,,,,,,,
1558973100.973353,-0.447785,1.498316,0.319523,0.032593,0.024857,0.015169,-0.031354,-0.997374,-0.065277,0.003721,-0.000321,-0.007721,-22.142815,-39.661831,-2.370707,,,,,,,
1558973100.993339,-0.458276,1.499282,0.330457,0.053857,0.014165,0.008678,-0.031611,-0.997444,-0.064080,0.000391,-0.000176,0.006310,-22.153126,-39.657425,-2.348034,,,,,,,
1558973101.013298,-0.467147,1.500360,0.339386,0.027237,0.000529,-0.014962,-0.031694,-0.997520,-0.062837,-0.005095,-0.001473,0.012315,-22.154364,-39.657627,-2.332843,,,,,,,
1558973101.033309,-0.463434,1.500861,0.335683,-0.011065,-0.005651,-0.040675,-0.031237,-0.997556,-0.062508,-0.004392,-0.001743,0.002998,-22.151703,-39.662708,-2.270982,,,,,,,
1558973101.053295,-0.451609,1.501223,0.323703,0.005995,0.001654,-0.043794,-0.030338,-0.997581,-0.062548,0.002125,0.000526,0.000399,-22.139517,-39.669483,-2.271504,,,,,,,
1558973101.073270,-0.442146,1.501795,0.314433,0.032621,0.011043,-0.033007,-0.029501,-0.997620,-0.062317,0.004523,-0.002685,-0.009399,-22.077150,-39.704250,-2.271027,,,,,,,
1558973101.093253,-0.439927,1.502954,0.312322,0.061333,0.005618,-0.025563,-0.028870,-0.997700,-0.061336,0.001649,-0.001507,-0.004262,-22.064070,-39.712273,-2.257824,,,,,,,
1558973101.113227,-0.438451,1.504109,0.310743,0.013421,-0.003663,-0.038502,-0.028291,-0.997777,-0.060335,-0.001281,0.005910,0.004900,-22.042114,-39.727077,-2.211308,,,,,,,
1558973101.133207,-0.426049,1.504301,0.298422,-0.012192,0.010349,-0.014851,-0.027461,-0.997790,-0.060506,0.012766,0.011676,-0.000056,-21.992302,-39.755711,-2.192667,,,,,,,
1558973101.153214,-0.417280,1.504238,0.290009,-0.019622,0.019911,-0.008361,-0.026954,-0.997786,-0.060802,0.010322,0.014570,0.002422,-21.986126,-39.758690,-2.200574,,,,,,,
1558973101.173190,-0.411536,1.504192,0.284616,-0.001550,0.015597,-0.001983,-0.026623,-0.997783,-0.060999,0.003232,0.006038,0.001321,-21.959597,-39.771702,-2.230062,,,,,,,
1558973101.193192,-0.413790,1.504417,0.287110,0.012259,0.006009,-0.003131,-0.026670,-0.997798,-0.060732,-0.003237,0.002360,0.003359,-21.958622,-39.772400,-2.227311,,,,,,,
1558973101.213178,-0.413561,1.504753,0.286768,0.018614,-0.006718,-0.009653,-0.026522,-0.997820,-0.060432,-0.002867,-0.003370,0.002647,-21.956886,-39.773602,-2.222947,,,,,,,
1558973101.233164,-0.413830,1.505214,0.287082,0.017593,0.008090,-0.006310,-0.026353,-0.997850,-0.060003,0.002198,-0.000609,-0.002466,-21.946621,-39.780670,-2.197678,,,,,,,
1558973101.253149,-0.412447,1.505413,0.286159,0.003824,0.030363,-0.003973,-0.026191,-0.997863,-0.059858,0.001593,0.003829,-0.001070,-21.940012,-39.784389,-2.196362,,,,,,,
1558973101.273119,-0.409571,1.505495,0.283970,0.000664,0.037769,-0.010310,-0.025986,-0.997869,-0.059858,-0.002945,0.006200,-0.001131,-21.937342,-39.785564,-2.201711,,,,,,,
1558973101.293093,-0.406670,1.505535,0.281693,-0.000507,0.019897,-0.013638,-0.025796,-0.997871,-0.059896,-0.002372,0.005714,0.001837,-21.926317,-39.790302,-2.225757,,,,,,,
1558973101.313105,-0.400645,1.505881,0.275729,-0.005884,-0.006532,-0.035248,-0.025300,-0.997894,-0.059733,-0.011748,-0.001908,0.007594,-21.910561,-39.799160,-2.222604,,,,,,,
1558973101.333088,-0.387163,1.505902,0.262113,-0.011145,0.004038,-0.053301,-0.024485,-0.997895,-0.060049,-0.005087,0.002869,-0.001703,-21.891867,-39.809116,-2.228447,,,,,,,
1558973101.353064,-0.367645,1.506283,0.242716,0.030387,0.009103,-0.054287,-0.023171,-0.997920,-0.060161,0.008904,0.011668,-0.004109,-21.840515,-39.836655,-2.240246,,,,,,,
1558973101.373055,-0.357177,1.507485,0.232436,0.045258,0.011177,-0.028633,-0.022121,-0.997997,-0.059277,0.009395,0.015758,-0.000522,-21.800898,-39.859161,-2.225693,,,,,,,
1558973101.393024,-0.351191,1.508234,0.226655,0.007976,0.009278,-0.015870,-0.021508,-0.998044,-0.058705,0.007821,0.010663,0.004354,-21.771996,-39.876156,-2.204082,,,,,,,
1558973101.413028,-0.343663,1.508662,0.219155,0.012232,0.001834,-0.030885,-0.020922,-0.998070,-0.058464,-0.002958,-0.005607,-0.000511,-21.735056,-39.897324,-2.185542,,,,,,,
1558973101.433017,-0.341247,1.509021,0.217414,0.009183,0.050488,-0.020812,-0.020661,-0.998093,-0.058176,0.000199,-0.000443,0.004847,-21.723228,-39.903942,-2.182308,,,,,,,
1558973101.453003,-0.338602,1.509350,0.215274,0.002696,0.029451,-0.027377,-0.020397,-0.998113,-0.057920,-0.005634,0.007268,0.009779,-21.712463,-39.909168,-2.193882,,,,,,,
1558973101.472989,-0.333884,1.509281,0.210998,0.016500,0.013504,-0.040329,-0.020147,-0.998109,-0.058082,-0.007594,0.003831,-0.009423,-21.697590,-39.917297,-2.193084,,,,,,,
1558973101.492955,-0.325165,1.509424,0.202428,0.037774,0.002801,-0.054293,-0.019594,-0.998117,-0.058120,-0.009901,0.009500,-0.012940,-21.698105,-39.916515,-2.202233,,,,,,,
1558973101.512959,-0.307813,1.510134,0.185048,0.041009,0.010164,-0.067031,-0.018368,-0.998161,-0.057776,0.000836,0.011939,-0.008142,-21.654806,-39.940121,-2.200391,,,,,,,
1558973101.532944,-0.284569,1.510570,0.162390,0.029326,0.040951,-0.018704,-0.016898,-0.998187,-0.057768,0.014334,0.006930,-0.010591,-21.626951,-39.955589,-2.193537,,,,,,,
1558973101.552913,-0.279664,1.511411,0.158411,0.025003,0.037858,0.018629,-0.016383,-0.998237,-0.057045,0.010066,0.002479,0.007210,-21.568142,-39.986660,-2.206311,,,,,,,
1558973101.572915,-0.283939,1.512007,0.163155,0.012163,0.018904,0.021639,-0.016460,-0.998272,-0.056404,0.006786,0.004651,0.004356,-21.548603,-39.998306,-2.186064,,,,,,,
1558973101.592901,-0.289726,1.512233,0.169575,0.017564,0.038946,0.013294,-0.016721,-0.998286,-0.056090,0.001615,0.003428,0.001220,-21.550741,-39.997440,-2.180778,,,,,,,
1558973101.612882,-0.294096,1.512795,0.174723,0.030315,0.035746,-0.005887,-0.016804,-0.998318,-0.055480,-0.004330,0.003552,0.004394,-21.566170,-39.989437,-2.175044,,,,,,,
1558973101.632871,-0.297548,1.514096,0.178777,0.013299,0.027338,-0.033740,-0.016614,-0.998393,-0.054180,-0.004809,0.001872,0.014675,-21.565151,-39.991333,-2.150083,,,,,,,
1558973101.652857,-0.283557,1.514346,0.165227,-0.031394,0.028620,-0.040169,-0.015785,-0.998407,-0.054167,-0.002282,-0.002722,0.014403,-21.557043,-39.996613,-2.133197,,,,,,,
1558973101.672818,-0.265636,1.514220,0.147737,-0.013392,0.012711,-0.012549,-0.014845,-0.998400,-0.054564,0.014067,-0.002256,0.004301,-21.509079,-40.020943,-2.160820,,,,,,,
1558973101.692826,-0.264681,1.514630,0.146755,0.030141,-0.005436,0.021476,-0.014686,-0.998423,-0.054183,0.013663,0.000529,0.002318,-21.472319,-40.040512,-2.163978,,,,,,,
1558973101.712813,-0.280553,1.515569,0.162660,0.006763,0.005253,0.019424,-0.015284,-0.998475,-0.053041,-0.008077,-0.005324,0.015565,-21.480431,-40.037704,-2.135201,,,,,,,
1558973101.732786,-0.280980,1.515705,0.163210,-0.069818,0.001356,-0.028718,-0.015269,-0.998483,-0.052903,-0.005041,-0.000098,0.015672,-21.508415,-40.024910,-2.092946,,,,,,,
1558973101.752766,-0.268463,1.514851,0.150569,-0.050678,-0.004027,-0.026619,-0.014832,-0.998435,-0.053913,-0.005295,-0.000741,0.010655,-21.497417,-40.029514,-2.117744,,,,,,,
1558973101.772769,-0.253627,1.514252,0.135618,-0.003924,-0.010546,-0.018033,-0.014181,-0.998402,-0.054708,0.006551,0.004841,-0.010188,-21.477930,-40.038033,-2.154072,,,,,,,
1558973101.792754,-0.242710,1.514481,0.124400,0.008846,-0.012731,-0.020180,-0.013527,-0.998415,-0.054635,0.004387,0.005815,0.000268,-21.445412,-40.054611,-2.169828,,,,,,,
1558973101.812739,-0.234321,1.514240,0.115808,-0.032663,-0.010397,-0.019123,-0.013124,-0.998401,-0.054982,0.002504,0.005527,0.001195,-21.429140,-40.063751,-2.161798,,,,,,,
1558973101.832709,-0.225449,1.513578,0.106848,-0.033716,-0.001920,-0.008367,-0.012784,-0.998363,-0.055740,0.001798,0.009685,-0.001892,-21.405104,-40.074783,-2.195205,,,,,,,
1558973101.852711,-0.219606,1.513012,0.100855,0.000308,-0.008425,0.002274,-0.012581,-0.998331,-0.056365,0.003731,0.010019,-0.005539,-21.398172,-40.077248,-2.217652,,,,,,,
1558973101.872677,-0.220419,1.512860,0.101573,-0.010308,-0.002035,-0.003012,-0.012660,-0.998322,-0.056502,-0.002156,0.009934,-0.003511,-21.396267,-40.078007,-2.222410,,,,,,,
1558973101.892676,-0.216002,1.512097,0.097264,-0.024101,0.010716,-0.006104,-0.012573,-0.998278,-0.057302,0.001602,0.010485,-0.006450,-21.397861,-40.075691,-2.248606,,,,,,,
1558973101.912666,-0.212587,1.511633,0.093974,0.009924,0.003151,0.002392,-0.012476,-0.998250,-0.057797,0.000497,0.003103,-0.007022,-21.391068,-40.077591,-2.279120,,,,,,,
1558973101.932640,-0.214785,1.511974,0.096094,0.017348,-0.007467,-0.003042,-0.012530,-0.998270,-0.057437,-0.000989,0.001368,-0.001447,-21.391068,-40.077591,-2.279120,,,,,,,
1558973101.952613,-0.218410,1.512478,0.099545,-0.000765,-0.004197,-0.018957,-0.012629,-0.998300,-0.056900,-0.003942,0.002664,0.003906,-21.397308,-40.076077,-2.246998,,,,,,,
1558973101.972622,-0.210856,1.512369,0.092022,-0.006054,0.007463,-0.015647,-0.012222,-0.998294,-0.057101,0.002761,0.007144,-0.004667,-21.386646,-40.081871,-2.245160,,,,,,,
1558973101.992603,-0.207692,1.512258,0.089149,0.005640,0.013779,0.007911,-0.012064,-0.998287,-0.057248,0.005716,0.005245,-0.006335,-21.378445,-40.085724,-2.254481,,,,,,,
1558973102.012580,-0.209139,1.512427,0.090655,0.000277,0.000060,0.004572,-0.012112,-0.998297,-0.057065,-0.002552,0.005286,0.005231,-21.373175,-40.088081,-2.262510,,,,,,,
1558973102.032578,-0.205484,1.512085,0.087224,-0.022012,0.018140,0.000456,-0.011973,-0.998277,-0.057443,0.005152,0.004823,-0.004873,-21.375526,-40.086582,-2.266779,,,,,,,
1558973102.052564,-0.204334,1.511624,0.086224,-0.002922,0.001142,0.009917,-0.012000,-0.998250,-0.057908,0.002952,0.009053,-0.000427,-21.370892,-40.087433,-2.295337,,,,,,,
1558973102.072550,-0.207746,1.511763,0.089661,0.022633,0.004180,0.011034,-0.012169,-0.998258,-0.057730,-0.000450,0.006666,-0.002466,-21.376095,-40.084694,-2.294722,,,,,,,
1558973102.092535,-0.214286,1.511965,0.096374,0.017275,0.010572,0.011176,-0.012503,-0.998270,-0.057452,-0.003900,0.005503,-0.000211,-21.386637,-40.079494,-2.287285,,,,,,,
1558973102.112519,-0.220143,1.512289,0.102406,0.010888,0.005303,-0.000623,-0.012769,-0.998289,-0.057063,-0.003909,0.006864,0.001079,-21.398855,-40.073544,-2.277248,,,,,,,
1558973102.132506,-0.222478,1.512562,0.104784,0.009825,0.001066,-0.010273,-0.012842,-0.998305,-0.056767,-0.002112,0.008208,0.003346,-21.406050,-40.070316,-2.266369,,,,,,,
1558973102.152469,-0.217185,1.512847,0.099418,0.014079,0.001047,-0.008135,-0.012480,-0.998321,-0.056556,0.004057,0.005173,-0.000328,-21.398491,-40.074856,-2.257433,,,,,,,
1558973102.172476,-0.217693,1.512934,0.100287,0.000295,0.027576,0.013461,-0.012490,-0.998326,-0.056465,0.004693,0.004903,-0.001320,-21.390844,-40.079330,-2.250465,,,,,,,
1558973102.192462,-0.222236,1.512610,0.105542,0.003487,0.037104,0.034907,-0.012818,-0.998308,-0.056723,0.003250,0.007860,-0.005258,-21.400793,-40.072754,-2.272883,,,,,,,
1558973102.212430,-0.241452,1.512970,0.125320,0.038522,0.012621,0.043242,-0.013819,-0.998329,-0.056118,-0.006612,0.004752,0.004528,-21.421423,-40.061222,-2.281823,,,,,,,
1558973102.232432,-0.250796,1.513630,0.134554,0.003404,-0.010533,-0.013592,-0.014179,-0.998366,-0.055347,-0.006908,0.003326,0.015629,-21.451931,-40.046093,-2.260670,,,,,,,
1558973102.252418,-0.244031,1.513526,0.127776,-0.034885,0.010778,-0.034655,-0.013830,-0.998361,-0.055542,-0.003764,0.001595,0.003815,-21.449339,-40.048805,-2.237139,,,,,,,
1558973102.272388,-0.232916,1.513353,0.116811,0.011898,0.004222,-0.013328,-0.013252,-0.998351,-0.055862,0.004722,0.002074,-0.006669,-21.424955,-40.060551,-2.260357,,,,,,,
1558973102.292389,-0.228216,1.513887,0.112216,0.042743,0.004084,0.002709,-0.012868,-0.998381,-0.055404,0.006490,0.003600,-0.005890,-21.412771,-40.067501,-2.252548,,,,,,,
1558973102.312375,-0.232463,1.514594,0.116620,0.018240,0.004233,0.016570,-0.012941,-0.998421,-0.054662,0.003709,0.001061,0.003896,-21.409628,-40.070873,-2.222263,,,,,,,
1558973102.332334,-0.235917,1.514640,0.120208,-0.021112,0.013951,0.015563,-0.013119,-0.998424,-0.054572,0.006130,0.002040,0.012641,-21.416130,-40.067745,-2.216035,,,,,,,
1558973102.352345,-0.238141,1.514112,0.122830,-0.018969,0.022409,0.024186,-0.013365,-0.998394,-0.055056,0.007704,0.005291,-0.001127,-21.420271,-40.065235,-2.221391,,,,,,,
1558973102.372331,-0.246110,1.513668,0.131367,-0.009373,0.026585,0.023166,-0.013911,-0.998369,-0.055377,-0.004461,0.002672,0.000034,-21.444319,-40.050083,-2.262205,,,,,,,
1558973102.392301,-0.255336,1.513535,0.140762,-0.001978,-0.000971,0.000489,-0.014455,-0.998361,-0.055375,-0.011455,0.004083,0.005326,-21.458878,-40.041702,-2.272590,,,,,,,
1558973102.412301,-0.252226,1.513672,0.137611,0.009751,-0.002113,-0.015527,-0.014248,-0.998369,-0.055286,-0.007114,0.000429,0.004322,-21.469505,-40.036160,-2.269804,,,,,,,
1558973102.432258,-0.249486,1.513858,0.134860,0.040534,-0.001224,-0.007887,-0.014051,-0.998379,-0.055146,-0.002444,0.008252,-0.000641,-21.453468,-40.044888,-2.267436,,,,,,,
1558973102.452254,-0.257799,1.514871,0.143180,0.023520,0.006273,-0.002490,-0.014251,-0.998437,-0.054049,-0.009599,0.007577,0.013629,-21.453932,-40.046604,-2.232462,,,,,,,
1558973102.472248,-0.258748,1.514806,0.144454,-0.034966,0.023489,-0.004507,-0.014319,-0.998433,-0.054097,-0.007120,0.003728,0.011205,-21.461674,-40.043415,-2.215262,,,,,,,
1558973102.492224,-0.252124,1.514079,0.138410,-0.030695,0.030876,0.003040,-0.014141,-0.998392,-0.054895,0.004925,0.003321,-0.006262,-21.461889,-40.041168,-2.253381,,,,,,,
1558973102.512229,-0.249890,1.513811,0.136652,0.015021,0.016904,0.009348,-0.014085,-0.998377,-0.055187,0.003923,0.005686,-0.002949,-21.457832,-40.042473,-2.268830,,,,,,,
1558973102.532208,-0.255626,1.514397,0.142615,0.037364,0.012555,0.007189,-0.014253,-0.998410,-0.054538,-0.003447,0.001889,0.002109,-21.456856,-40.042171,-2.283240,,,,,,,
1558973102.552199,-0.263039,1.515255,0.149976,0.025584,-0.012763,-0.000536,-0.014434,-0.998458,-0.053604,-0.003754,0.005050,0.008926,-21.462265,-40.040081,-2.269067,,,,,,,
1558973102.572185,-0.270644,1.515649,0.157653,-0.008434,0.016971,-0.010818,-0.014736,-0.998480,-0.053113,-0.008869,0.007345,0.005612,-21.476393,-40.035645,-2.212990,,,,,,,
1558973102.592152,-0.265439,1.515165,0.152908,-0.021204,0.019155,-0.008672,-0.014586,-0.998453,-0.053655,-0.005097,0.008798,-0.000453,-21.476393,-40.035645,-2.212990,,,,,,,
1558973102.612139,-0.258448,1.515166,0.146203,0.022377,0.006261,0.004050,-0.014211,-0.998453,-0.053755,0.008123,0.004923,-0.006425,-21.472958,-40.035576,-2.247254,,,,,,,
1558973102.632141,-0.261376,1.515754,0.149339,0.025599,0.016820,0.008424,-0.014216,-0.998486,-0.053145,0.001200,0.005077,0.001235,-21.460503,-40.041901,-2.253587,,,,,,,
1558973102.652126,-0.263477,1.516142,0.151712,-0.001032,0.007436,0.000839,-0.014227,-0.998507,-0.052742,0.005484,0.007632,0.006782,-21.464901,-40.041107,-2.225607,,,,,,,
1558973102.672111,-0.262508,1.516349,0.150516,0.014856,-0.013779,0.007054,-0.014122,-0.998518,-0.052555,0.002907,0.002638,0.000447,-21.460657,-40.043571,-2.222344,,,,,,,
1558973102.692096,-0.269344,1.516282,0.157242,-0.006434,-0.003062,0.030627,-0.014499,-0.998514,-0.052521,0.002749,0.000224,-0.001571,-21.462706,-40.043392,-2.205618,,,,,,,
1558973102.712064,-0.281117,1.515537,0.169034,-0.027744,-0.000809,0.048781,-0.015323,-0.998474,-0.053064,0.001712,-0.004059,-0.003180,-21.487019,-40.029789,-2.215760,,,,,,,
1558973102.732066,-0.297363,1.514128,0.184948,-0.031093,-0.024071,0.055106,-0.016595,-0.998395,-0.054154,-0.007681,-0.010227,-0.015228,-21.538713,-40.000107,-2.249606,,,,,,,
1558973102.752042,-0.306855,1.512252,0.194305,-0.069317,0.003602,0.048934,-0.017674,-0.998287,-0.055779,-0.003124,-0.018376,-0.030510,-21.589579,-39.969097,-2.312422,,,,,,,
1558973102.772022,-0.312256,1.509545,0.200092,-0.079913,0.024816,0.060873,-0.018805,-0.998125,-0.058253,-0.002939,-0.019743,-0.038991,-21.608959,-39.956753,-2.344444,,,,,,,
1558973102.792017,-0.322429,1.506626,0.211162,-0.055339,0.045800,0.042945,-0.020320,-0.997942,-0.060821,-0.012990,-0.010969,-0.036332,-21.686468,-39.904709,-2.509302,,,,,,,
1558973102.812006,-0.324936,1.505625,0.214155,-0.029809,0.028715,0.017179,-0.020791,-0.997877,-0.061718,-0.017035,-0.003756,-0.043660,-21.720736,-39.880829,-2.591309,,,,,,,
1558973102.831995,-0.326386,1.505449,0.216842,0.003348,0.071863,0.006942,-0.020937,-0.997866,-0.061853,-0.020415,0.007799,-0.046332,-21.725998,-39.876823,-2.608803,,,,,,,
1558973102.851980,-0.328895,1.505070,0.220781,0.019344,0.065384,-0.028338,-0.021214,-0.997841,-0.062158,-0.027492,0.020103,-0.021750,-21.721043,-39.876827,-2.649631,,,,,,,
1558973102.871965,-0.316212,1.505987,0.209543,0.037566,0.090614,-0.056908,-0.020139,-0.997901,-0.061552,-0.016878,0.013159,-0.013414,-21.709555,-39.881222,-2.677510,,,,,,,
1558973102.891951,-0.302432,1.506930,0.198090,0.023808,0.120300,-0.044891,-0.019009,-0.997961,-0.060927,-0.005832,0.012930,-0.009660,-21.684477,-39.894463,-2.683466,,,,,,,
1558973102.911937,-0.289858,1.507652,0.187464,0.035342,0.088488,-0.042909,-0.018036,-0.998007,-0.060470,0.006515,0.014700,0.008163,-21.621502,-39.925861,-2.724335,,,,,,,
1558973102.931893,-0.282877,1.509329,0.182155,0.089569,0.081900,-0.016238,-0.017146,-0.998111,-0.058988,0.014949,0.004596,0.004560,-21.585598,-39.945702,-2.718192,,,,,,,
1558973102.951907,-0.283478,1.511189,0.184201,0.077810,0.061863,-0.027116,-0.016662,-0.998224,-0.057194,0.013153,0.003549,0.012868,-21.571699,-39.954990,-2.691898,,,,,,,
1558973102.971893,-0.273844,1.511931,0.175720,-0.002007,0.067565,-0.028193,-0.015910,-0.998268,-0.056638,0.004023,0.000694,0.036329,-21.531654,-39.979027,-2.655403,,,,,,,
1558973102.991878,-0.273812,1.511187,0.177193,-0.053182,0.075338,0.042305,-0.016109,-0.998224,-0.057356,0.016399,0.002603,0.021589,-21.525074,-39.979279,-2.704483,,,,,,,
1558973103.011848,-0.280484,1.509497,0.185635,-0.115995,0.093706,0.088338,-0.016958,-0.998122,-0.058867,0.016073,0.003050,0.011092,-21.554440,-39.958984,-2.769696,,,,,,,
1558973103.031836,-0.296814,1.505807,0.203678,-0.183134,0.083531,0.117013,-0.018994,-0.997889,-0.062104,0.025098,-0.007757,-0.035293,-21.624252,-39.909119,-2.939319,,,,,,,
1558973103.051830,-0.317716,1.501087,0.226568,-0.206574,0.115383,0.161125,-0.021759,-0.997571,-0.066167,0.008560,-0.016314,-0.118816,-21.697107,-39.858761,-3.082269,,,,,,,
1558973103.071796,-0.347989,1.496646,0.260203,-0.140390,0.186961,0.193893,-0.025263,-0.997252,-0.069643,0.010248,-0.015230,-0.124266,-21.788647,-39.796120,-3.241819,,,,,,,
1558973103.091799,-0.388267,1.493258,0.304606,-0.080762,0.215262,0.244390,-0.029326,-0.996995,-0.071695,-0.023882,-0.010466,-0.146765,-22.007978,-39.651527,-3.520080,,,,,,,
1558973103.111782,-0.437232,1.488962,0.358994,-0.141355,0.268522,0.305708,-0.034613,-0.996653,-0.074053,-0.041773,-0.012975,-0.161421,-22.202999,-39.525730,-3.705276,,,,,,,
1558973103.131763,-0.478190,1.482596,0.404781,-0.235212,0.215114,0.310459,-0.040535,-0.996113,-0.078205,-0.041039,-0.001629,-0.157711,-22.202999,-39.525730,-3.705276,,,,,,,
1558973103.151761,-0.500294,1.474944,0.431787,-0.280761,0.271336,0.284270,-0.045908,-0.995410,-0.083976,-0.058935,-0.016706,-0.231484,-22.645723,-39.216759,-4.266462,,,,,,,
1558973103.171747,-0.523301,1.469156,0.461343,-0.106968,0.345432,0.258427,-0.050707,-0.994839,-0.087887,-0.054137,-0.000370,-0.252064,-22.834484,-39.071751,-4.579356,,,,,,,
1558973103.191732,-0.547720,1.466514,0.492483,-0.001610,0.293999,0.162998,-0.054205,-0.994568,-0.088865,-0.056238,0.006988,-0.255892,-22.834484,-39.071751,-4.579356,,,,,,,
1558973103.211705,-0.557103,1.466888,0.506812,0.103801,0.234968,-0.026390,-0.054841,-0.994606,-0.088038,-0.073303,0.038430,-0.294256,-23.023556,-38.928722,-4.843132,,,,,,,
1558973103.231703,-0.545303,1.472368,0.501168,0.298285,0.369999,-0.228862,-0.050971,-0.995160,-0.084018,-0.081796,0.015927,-0.322720,-22.916647,-38.988205,-4.871647,,,,,,,
1558973103.251678,-0.535708,1.482696,0.501332,0.520380,0.554793,-0.278163,-0.044913,-0.996122,-0.075661,-0.086480,0.015760,-0.300713,-22.916647,-38.988205,-4.871647,,,,,,,
1558973103.271674,-0.519720,1.494894,0.497650,0.483483,0.630982,-0.351131,-0.037660,-0.997121,-0.065817,-0.076552,-0.003612,-0.275477,-22.383533,-39.326569,-4.624276,,,,,,,
1558973103.291636,-0.463724,1.505579,0.454786,0.349651,0.696084,-0.403997,-0.029150,-0.997874,-0.058289,-0.064295,0.018351,-0.243851,-22.123659,-39.479534,-4.571185,,,,,,,
1558973103.311643,-0.382607,1.514053,0.388719,0.300870,0.802204,-0.295188,-0.021173,-0.998391,-0.052612,-0.069556,0.032418,-0.246536,-21.838682,-39.635376,-4.592909,,,,,,,
1558973103.331630,-0.359250,1.521695,0.384547,0.373825,1.079095,-0.068274,-0.017256,-0.998795,-0.045948,-0.071581,0.020996,-0.183117,-21.411219,-39.848648,-4.757171,,,,,,,
1558973103.351590,-0.383684,1.526211,0.434026,0.133827,1.316273,0.068328,-0.016684,-0.999006,-0.041330,-0.099496,0.039045,-0.141501,-21.288286,-39.882710,-5.016343,,,,,,,
1558973103.371600,-0.400259,1.524689,0.477396,-0.090819,1.340827,0.148456,-0.017960,-0.998937,-0.042449,-0.097991,0.044485,-0.119385,-21.251961,-39.870518,-5.261320,,,,,,,
1558973103.391579,-0.420913,1.521408,0.523768,-0.115698,1.247907,0.169012,-0.020172,-0.998781,-0.045059,-0.073380,-0.007430,-0.048523,-21.212669,-39.804371,-5.883898,,,,,,,
1558973103.411557,-0.426535,1.517326,0.554102,-0.180616,1.240811,0.143268,-0.022111,-0.998571,-0.048657,-0.086257,-0.000270,-0.013782,-21.169596,-39.675888,-6.830664,,,,,,,
1558973103.431528,-0.415966,1.512320,0.568837,-0.217768,1.270594,0.138185,-0.023615,-0.998291,-0.053458,-0.090124,0.017563,-0.006600,-21.138489,-39.632694,-7.169335,,,,,,,
1558973103.451543,-0.404865,1.507873,0.583531,-0.163364,1.299886,0.125697,-0.024769,-0.998021,-0.057799,-0.089626,0.043507,-0.003130,-21.004517,-39.499802,-8.219595,,,,,,,
1558973103.471525,-0.397748,1.504170,0.602281,-0.145340,1.281834,0.134080,-0.025788,-0.997781,-0.061380,-0.090316,0.051507,0.059336,-20.882380,-39.421124,-8.881821,,,,,,,
1558973103.491505,-0.389808,1.499965,0.619763,-0.194346,1.266225,0.126418,-0.026894,-0.997493,-0.065463,-0.102745,0.026042,0.110583,-20.789520,-39.357025,-9.370491,,,,,,,
1558973103.511481,-0.368116,1.495463,0.623120,-0.193263,1.252414,0.083580,-0.027084,-0.997164,-0.070221,-0.112076,0.024782,0.121719,-20.591433,-39.250328,-10.217155,,,,,,,
1558973103.531484,-0.348948,1.491823,0.628741,-0.149714,1.222585,0.081194,-0.026974,-0.996883,-0.074137,-0.112736,0.031307,0.123851,-20.395189,-39.178982,-10.864130,,,,,,,
1558973103.551441,-0.328010,1.489054,0.631914,-0.106071,1.205388,0.043697,-0.026304,-0.996661,-0.077297,-0.105272,0.019885,0.136105,-20.236063,-39.133236,-11.317128,,,,,,,
1558973103.571448,-0.308118,1.487377,0.635841,-0.063615,1.167110,0.042297,-0.025269,-0.996523,-0.079399,-0.088409,-0.018935,0.192604,-19.929068,-39.084187,-12.010176,,,,,,,
1558973103.591439,-0.284991,1.485790,0.635122,-0.095722,1.098519,0.006382,-0.023871,-0.996389,-0.081480,-0.082864,-0.027064,0.217207,-19.739265,-39.062256,-12.388987,,,,,,,
1558973103.611408,-0.255487,1.483600,0.626680,-0.119329,1.034142,-0.009200,-0.022008,-0.996201,-0.084259,-0.074824,-0.037323,0.231323,-19.536274,-39.042343,-12.767743,,,,,,,
1558973103.631384,-0.229837,1.481255,0.620649,-0.116498,0.934803,0.014407,-0.020372,-0.995994,-0.087070,-0.043990,-0.031823,0.237491,-19.128246,-38.997860,-13.500473,,,,,,,
