timestamp(unix),attitude_roll(radians),attitude_pitch(radians),attitude_yaw(radians),rotation_rate_x(radians/s),rotation_rate_y(radians/s),rotation_rate_z(radians/s),gravity_x(G),gravity_y(G),gravity_z(G),user_acc_x(G),user_acc_y(G),user_acc_z(G),magnetic_field_x(microteslas),magnetic_field_y(microteslas),magnetic_field_z(microteslas),latitude(degree),longitude(degree),altitude(meter),speed(m/s),course(degree),timestamp(unix),User Mark
1558972515.610457,1.070527,1.518223,-0.939260,0.281907,-0.106167,-0.196701,0.046109,-0.998618,-0.025206,-0.000699,0.003928,-0.019701,-16.457687,-42.679207,-12.597137,,,,,,,
1558972515.630451,1.202724,1.517430,-1.074271,0.299848,-0.141104,-0.170330,0.049768,-0.998576,-0.019193,0.018424,0.010768,-0.001422,-16.354679,-42.783321,-12.376184,,,,,,,
1558972515.650424,1.298732,1.516564,-1.172960,0.198719,-0.108754,-0.097502,0.052211,-0.998530,-0.014566,0.023167,0.006144,0.009912,-16.271343,-42.879448,-12.151309,,,,,,,
1558972515.670418,1.352075,1.516078,-1.227291,0.096776,-0.007718,-0.041099,0.053388,-0.998503,-0.011867,0.018557,0.014525,0.019786,-16.187569,-42.991138,-11.865207,,,,,,,
1558972515.690397,1.360645,1.515941,-1.235851,-0.017161,0.002463,0.005884,0.053622,-0.998496,-0.011438,0.015378,0.017142,0.026681,-16.179195,-43.000187,-11.843800,,,,,,,
1558972515.710398,1.336939,1.516318,-1.211510,-0.082001,0.049372,0.045784,0.052969,-0.998516,-0.012618,0.003229,0.003247,0.011626,-16.177120,-42.999866,-11.847795,,,,,,,
1558972515.730374,1.305490,1.516846,-1.178842,-0.070289,0.052489,0.051161,0.052038,-0.998545,-0.014139,-0.000188,-0.009023,-0.009497,-16.209114,-42.958023,-11.955377,,,,,,,
1558972515.750365,1.283174,1.517580,-1.156213,-0.036411,-0.005832,0.046359,0.051006,-0.998584,-0.015089,-0.012463,-0.000943,-0.016252,-16.216957,-42.949677,-11.974712,,,,,,,
1558972515.770357,1.266173,1.517380,-1.139940,-0.050294,-0.052375,-0.025630,0.050933,-0.998574,-0.016014,-0.027114,0.007408,-0.014000,-16.270426,-42.912983,-12.033601,,,,,,,
1558972515.790344,1.262047,1.516032,-1.137208,-0.006677,-0.083333,-0.076071,0.052149,-0.998501,-0.016633,-0.023890,-0.009419,-0.022155,-16.244688,-42.917362,-12.052732,,,,,,,
1558972515.810329,1.243432,1.515023,-1.120713,0.032623,-0.115272,-0.091290,0.052784,-0.998445,-0.017925,-0.015415,-0.006911,-0.014531,-16.242994,-42.910446,-12.079609,,,,,,,
1558972515.830316,1.266293,1.513967,-1.145327,0.050855,-0.056118,-0.052274,0.054186,-0.998386,-0.017029,-0.016634,-0.004163,-0.015746,-16.242994,-42.910446,-12.079609,,,,,,,
1558972515.850301,1.250998,1.514198,-1.130212,-0.003242,0.020328,-0.014216,0.053700,-0.998399,-0.017784,-0.023045,-0.012603,-0.018014,-16.225250,-42.931736,-12.027706,,,,,,,
1558972515.870286,1.226100,1.514617,-1.104182,-0.037071,0.078596,-0.044644,0.052847,-0.998422,-0.018974,-0.023992,-0.000662,-0.011269,-16.189445,-42.938877,-12.050426,,,,,,,
1558972515.890268,1.210394,1.513908,-1.086947,-0.011532,0.064682,-0.070378,0.053206,-0.998382,-0.020051,-0.017012,-0.007538,-0.012496,-16.189445,-42.938877,-12.050426,,,,,,,
1558972515.910245,1.206419,1.513981,-1.082134,-0.002010,0.043478,-0.079110,0.053057,-0.998386,-0.020236,-0.007799,0.000477,0.004306,-16.218956,-42.889145,-12.187065,,,,,,,
1558972515.930244,1.219031,1.513950,-1.093379,-0.026394,0.082768,-0.050977,0.053336,-0.998385,-0.019576,-0.012946,0.008517,0.013686,-16.166021,-42.905033,-12.201480,,,,,,,
1558972515.950205,1.217956,1.513852,-1.090333,-0.042335,0.098734,-0.032685,0.053409,-0.998379,-0.019668,-0.016147,0.004223,0.012603,-16.159576,-42.907387,-12.201735,,,,,,,
1558972515.970212,1.215837,1.513526,-1.086700,-0.063738,0.054420,-0.053410,0.053670,-0.998361,-0.019893,0.007380,0.003228,-0.003392,-16.131086,-42.900143,-12.264744,,,,,,,
1558972515.990200,1.196102,1.511558,-1.066767,-0.070325,-0.008975,-0.059361,0.055097,-0.998246,-0.021668,0.006823,-0.001586,-0.006728,-16.069031,-42.904629,-12.330329,,,,,,,
1558972516.010172,1.196192,1.510238,-1.066872,0.011722,0.005358,-0.082646,0.056324,-0.998167,-0.022145,-0.007542,0.013426,-0.000255,-16.039024,-42.905945,-12.364769,,,,,,,
1558972516.030173,1.220421,1.508174,-1.091042,0.036172,-0.008525,-0.091302,0.058779,-0.998040,-0.021481,0.023100,0.018212,-0.000797,-15.934697,-42.951984,-12.339806,,,,,,,
1558972516.050128,1.239092,1.505775,-1.110295,0.045598,-0.042356,-0.062795,0.061433,-0.997887,-0.021159,0.042342,0.001290,-0.042302,-15.800192,-43.005154,-12.327555,,,,,,,
1558972516.070143,1.277387,1.506040,-1.151793,0.213106,-0.227085,-0.014249,0.061946,-0.997904,-0.018716,0.054204,0.013392,-0.063651,-15.783121,-43.020660,-12.295280,,,,,,,
1558972516.090129,1.353181,1.506024,-1.232579,0.304663,-0.237125,-0.045236,0.063200,-0.997903,-0.013975,0.003511,0.023202,-0.005511,-15.828875,-43.112766,-11.907741,,,,,,,
1558972516.110114,1.430811,1.505477,-1.314557,0.228246,-0.187105,-0.086457,0.064635,-0.997867,-0.009108,-0.002120,0.006061,0.003660,-15.801248,-43.179031,-11.702573,,,,,,,
1558972516.130100,1.486739,1.504192,-1.373523,0.161382,-0.120141,-0.071990,0.066320,-0.997783,-0.005588,0.008067,0.003932,0.006931,-15.766647,-43.257755,-11.455886,,,,,,,
1558972516.150086,1.531477,1.503199,-1.419905,0.128559,-0.044850,-0.024320,0.067494,-0.997716,-0.002655,0.010798,-0.009166,0.006211,-15.733193,-43.324146,-11.249141,,,,,,,
1558972516.170062,1.556877,1.503250,-1.446198,0.064654,-0.040235,0.009837,0.067488,-0.997720,-0.000939,0.004487,-0.009086,0.008950,-15.714708,-43.355267,-11.154675,,,,,,,
1558972516.190058,1.567665,1.503627,-1.457459,0.024282,-0.009347,0.025048,0.067119,-0.997745,-0.000210,-0.010585,-0.003735,0.023632,-15.732302,-43.365196,-11.091090,,,,,,,
1558972516.210043,1.575717,1.504942,-1.465816,-0.006653,-0.027147,0.030193,0.065806,-0.997832,0.000324,-0.018427,0.011962,0.011151,-15.765217,-43.359234,-11.067649,,,,,,,
1558972516.229999,1.573283,1.505142,-1.464361,0.002874,-0.058958,-0.004269,0.065607,-0.997846,0.000163,-0.020518,0.020444,-0.005900,-15.817013,-43.345993,-11.045601,,,,,,,
1558972516.250008,1.576294,1.504624,-1.468524,0.007173,-0.059023,-0.032025,0.066123,-0.997811,0.000364,-0.007606,0.022637,-0.009397,-15.821198,-43.350948,-11.020125,,,,,,,
1558972516.270000,1.555862,1.504360,-1.449194,-0.007693,-0.042016,-0.021198,0.066380,-0.997794,-0.000991,-0.006749,0.019431,-0.026337,-15.806894,-43.361423,-10.999414,,,,,,,
1558972516.289966,1.543781,1.503796,-1.437493,0.004211,-0.006219,-0.074227,0.066925,-0.997756,-0.001808,-0.017700,0.015746,-0.023308,-15.804425,-43.352406,-11.038426,,,,,,,
1558972516.309971,1.537353,1.502279,-1.430910,0.008591,0.019086,-0.100671,0.068426,-0.997654,-0.002289,-0.012258,0.011661,-0.013504,-15.773907,-43.349041,-11.095177,,,,,,,
1558972516.329958,1.544684,1.500246,-1.438636,0.083934,-0.045768,-0.087353,0.070467,-0.997512,-0.001840,0.022886,0.020217,-0.012869,-15.660850,-43.391144,-11.090744,,,,,,,
1558972516.349933,1.576707,1.499018,-1.472523,0.131554,-0.113609,-0.048461,0.071715,-0.997425,0.000424,0.022417,0.021412,-0.011181,-15.621484,-43.426044,-11.009371,,,,,,,
1558972516.369928,1.613000,1.498213,-1.511363,0.145368,-0.113658,-0.032436,0.072456,-0.997367,0.003060,0.000008,0.002418,-0.001503,-15.606529,-43.469593,-10.857663,,,,,,,
1558972516.389896,1.643578,1.497263,-1.543705,0.076320,-0.069957,-0.032073,0.073273,-0.997298,0.005342,0.001770,0.005751,0.000242,-15.602223,-43.502209,-10.732496,,,,,,,
1558972516.409899,1.661666,1.495962,-1.562063,-0.011768,0.035234,0.024377,0.074456,-0.997201,0.006784,0.012565,0.010095,0.012533,-15.553713,-43.554256,-10.590883,,,,,,,
1558972516.429859,1.653894,1.496608,-1.551987,-0.103028,0.137237,0.058377,0.073864,-0.997249,0.006152,0.012211,0.008404,0.017957,-15.553713,-43.554256,-10.590883,,,,,,,
1558972516.449847,1.624683,1.498008,-1.519680,-0.132853,0.136352,0.069021,0.072619,-0.997352,0.003917,0.018964,-0.008553,0.026433,-15.552250,-43.512566,-10.763004,,,,,,,
1558972516.469857,1.591605,1.499537,-1.484968,-0.145933,0.042346,0.068110,0.071183,-0.997462,0.001481,0.002121,-0.006398,0.012007,-15.595269,-43.458389,-10.918518,,,,,,,
1558972516.489815,1.556283,1.500494,-1.449103,-0.118322,0.009390,0.038990,0.070238,-0.997530,-0.001019,-0.015749,-0.012800,-0.000812,-15.615737,-43.438011,-10.970246,,,,,,,
1558972516.509807,1.525212,1.500942,-1.417425,-0.112854,0.042090,0.013684,0.069725,-0.997561,-0.003181,-0.019706,-0.010495,0.003379,-15.657562,-43.382008,-11.131044,,,,,,,
1558972516.529814,1.483213,1.501413,-1.374188,-0.155326,0.066598,-0.004263,0.069062,-0.997594,-0.006064,-0.020097,-0.006190,-0.002023,-15.652697,-43.359779,-11.224125,,,,,,,
1558972516.549783,1.443432,1.501035,-1.332719,-0.136157,0.069670,-0.003151,0.069141,-0.997568,-0.008854,-0.016879,-0.012442,-0.013973,-15.669833,-43.322166,-11.344790,,,,,,,
1558972516.569781,1.411316,1.500670,-1.299570,-0.105404,0.035688,-0.000249,0.069179,-0.997542,-0.011127,-0.012997,0.008605,-0.020748,-15.643377,-43.278313,-11.546879,,,,,,,
1558972516.589771,1.383253,1.500674,-1.271061,-0.043711,0.016319,-0.012128,0.068838,-0.997542,-0.013064,-0.013341,0.013640,-0.016584,-15.655507,-43.245552,-11.652689,,,,,,,
1558972516.609751,1.381815,1.499872,-1.269736,0.004137,-0.019936,-0.056210,0.069603,-0.997486,-0.013313,0.000694,0.004856,-0.011697,-15.639781,-43.245464,-11.674113,,,,,,,
1558972516.629727,1.386345,1.498382,-1.274885,0.006270,-0.022073,-0.063703,0.071124,-0.997379,-0.013270,0.004620,0.011127,-0.002966,-15.582310,-43.270790,-11.657120,,,,,,,
1558972516.649729,1.379706,1.496771,-1.268251,-0.037298,0.015196,-0.033489,0.072611,-0.997261,-0.014047,0.008779,0.014565,-0.004295,-15.519730,-43.288197,-11.675951,,,,,,,
1558972516.669704,1.363182,1.495924,-1.250665,-0.057418,0.067160,0.009697,0.073196,-0.997198,-0.015419,0.010437,0.021796,-0.010323,-15.489297,-43.291451,-11.704271,,,,,,,
1558972516.689694,1.337165,1.495130,-1.223705,-0.016061,0.023615,0.016785,0.073540,-0.997139,-0.017501,0.001030,0.015327,-0.017945,-15.435442,-43.271797,-11.847214,,,,,,,
1558972516.709685,1.328472,1.494919,-1.215430,0.060396,-0.039175,0.000229,0.073590,-0.997123,-0.018190,0.003559,0.015159,-0.018950,-15.441401,-43.257847,-11.890331,,,,,,,
1558972516.729671,1.346216,1.494898,-1.234236,0.106155,-0.047888,-0.010495,0.073921,-0.997121,-0.016886,0.004784,0.013189,-0.017095,-15.439634,-43.261711,-11.878570,,,,,,,
1558972516.749630,1.376146,1.495332,-1.264807,0.081772,-0.014984,-0.004861,0.073969,-0.997154,-0.014583,-0.006159,-0.000481,0.017635,-15.431679,-43.298489,-11.754256,,,,,,,
1558972516.769629,1.403015,1.496167,-1.291440,-0.002154,0.020291,-0.036617,0.073513,-0.997217,-0.012451,-0.018200,-0.000739,0.027329,-15.450030,-43.317532,-11.659602,,,,,,,
1558972516.789628,1.406574,1.495601,-1.294444,-0.050017,0.023688,-0.053704,0.074114,-0.997174,-0.012282,-0.004595,-0.003162,0.011198,-15.444772,-43.330673,-11.617651,,,,,,,
1558972516.809614,1.397107,1.494602,-1.284908,-0.034207,-0.011234,-0.025200,0.074975,-0.997099,-0.013155,0.001838,0.007612,-0.003096,-15.392714,-43.338409,-11.657823,,,,,,,
1558972516.829578,1.391821,1.493819,-1.280209,0.018916,-0.033686,-0.008291,0.075673,-0.997039,-0.013690,0.011455,0.004790,-0.009564,-15.374485,-43.338825,-11.680290,,,,,,,
1558972516.849585,1.397716,1.493361,-1.287166,0.039086,-0.051766,-0.011652,0.076202,-0.997003,-0.013322,0.005524,0.012689,0.000352,-15.355539,-43.347973,-11.671283,,,,,,,
1558972516.869571,1.405370,1.493113,-1.295164,-0.008636,0.003451,-0.010095,0.076545,-0.996984,-0.012779,-0.000343,0.017156,0.009148,-15.342196,-43.365788,-11.622552,,,,,,,
1558972516.889533,1.398082,1.492616,-1.287517,-0.050116,0.018482,-0.000376,0.076939,-0.996945,-0.013422,0.005825,0.011914,-0.006155,-15.325622,-43.369476,-11.630635,,,,,,,
1558972516.909541,1.378184,1.491989,-1.267425,-0.066128,0.000582,-0.010170,0.077270,-0.996896,-0.015070,0.010254,0.004205,-0.013983,-15.315910,-43.359909,-11.679007,,,,,,,
1558972516.929529,1.365166,1.490803,-1.254530,0.000906,-0.009290,-0.014484,0.078225,-0.996802,-0.016316,0.016043,0.014487,-0.013988,-15.282100,-43.349571,-11.761395,,,,,,,
1558972516.949487,1.370317,1.490743,-1.260526,0.060312,-0.056037,0.025703,0.078366,-0.996797,-0.015925,0.008548,0.011843,-0.004736,-15.264252,-43.356083,-11.760550,,,,,,,
1558972516.969499,1.382337,1.491655,-1.273865,0.051746,-0.064426,0.040563,0.077660,-0.996870,-0.014811,0.002800,0.011625,-0.002828,-15.284951,-43.363899,-11.704716,,,,,,,
1558972516.989485,1.379064,1.492358,-1.271014,-0.029929,0.005706,0.000599,0.076922,-0.996925,-0.014932,-0.013644,-0.004585,-0.003714,-15.323372,-43.361862,-11.661954,,,,,,,
1558972517.009448,1.356933,1.491861,-1.248397,-0.076670,0.027063,-0.018451,0.077057,-0.996886,-0.016736,-0.005585,-0.017076,-0.019321,-15.340003,-43.346710,-11.696376,,,,,,,
1558972517.029456,1.333213,1.491198,-1.224423,-0.049087,-0.000563,-0.017626,0.077281,-0.996834,-0.018714,-0.002513,-0.028908,-0.031014,-15.332205,-43.316254,-11.818796,,,,,,,
1558972517.049442,1.322099,1.490602,-1.214254,-0.055770,-0.089314,-0.015278,0.077644,-0.996786,-0.019718,0.013146,-0.102930,-0.064144,-15.320872,-43.311485,-11.850906,,,,,,,
1558972517.069428,1.294326,1.489361,-1.190623,-0.140470,-0.291876,-0.055720,0.078256,-0.996686,-0.022204,-0.033639,-0.209628,-0.171491,-15.334002,-43.296371,-11.889097,,,,,,,
1558972517.089407,1.259638,1.486619,-1.163016,-0.145959,-0.375459,-0.128057,0.080040,-0.996459,-0.025741,-0.046227,-0.239915,-0.199570,-15.346041,-43.286446,-11.909693,,,,,,,
1558972517.109399,1.229258,1.481910,-1.139772,-0.202108,-0.340434,-0.230261,0.083642,-0.996052,-0.029732,-0.088708,-0.263927,-0.255912,-15.329412,-43.289642,-11.919466,,,,,,,
1558972517.129385,1.187411,1.473993,-1.101858,-0.368224,-0.095594,-0.365777,0.089635,-0.995318,-0.036154,-0.142339,-0.186261,-0.350351,-15.116847,-43.319149,-12.082644,,,,,,,
1558972517.149368,1.147544,1.461843,-1.059232,-0.473255,0.257747,-0.535438,0.099142,-0.994070,-0.044661,-0.133764,-0.155557,-0.389466,-14.955231,-43.330692,-12.241331,,,,,,,
1558972517.169339,1.132059,1.446736,-1.034749,-0.406144,0.532008,-0.675824,0.112023,-0.992314,-0.052565,-0.071892,0.003591,-0.428575,-14.126291,-43.399654,-12.960545,,,,,,,
1558972517.189342,1.148719,1.431364,-1.039643,-0.215252,0.613371,-0.730410,0.126784,-0.990295,-0.056935,-0.068450,0.060546,-0.415905,-13.565046,-43.471848,-13.313374,,,,,,,
1558972517.209311,1.191577,1.416551,-1.068672,-0.042216,0.770942,-0.777875,0.142720,-0.988128,-0.056875,-0.064030,0.148192,-0.344599,-12.963634,-43.574284,-13.575126,,,,,,,
1558972517.229306,1.240963,1.403562,-1.101689,0.072918,0.887879,-0.634667,0.157483,-0.986049,-0.053913,-0.117459,0.267009,-0.192334,-11.663610,-43.836617,-13.905726,,,,,,,
1558972517.249299,1.296633,1.394468,-1.138331,0.199884,1.048110,-0.478222,0.168864,-0.984494,-0.047492,-0.147044,0.302274,-0.138878,-11.084165,-43.960793,-13.987418,,,,,,,
1558972517.269266,1.353533,1.386259,-1.170500,0.137206,1.404633,-0.490875,0.179178,-0.983021,-0.039553,-0.203134,0.347187,-0.031309,-10.545649,-44.079975,-14.028658,,,,,,,
1558972517.289242,1.393115,1.375578,-1.179394,-0.115487,1.574990,-0.553506,0.190927,-0.981005,-0.034286,-0.093804,0.419833,0.008300,-9.274685,-44.267838,-14.331665,,,,,,,
1558972517.309256,1.412068,1.364670,-1.167621,-0.246810,1.483810,-0.492560,0.202097,-0.978831,-0.032351,-0.018977,0.461466,-0.019560,-8.352141,-44.311165,-14.758743,,,,,,,
1558972517.329233,1.421459,1.354924,-1.149181,-0.249651,1.305313,-0.409927,0.211815,-0.976790,-0.031869,-0.005364,0.475478,-0.040335,-7.918853,-44.312740,-14.991017,,,,,,,
1558972517.349209,1.441815,1.349402,-1.145232,0.053981,1.166657,-0.173993,0.217766,-0.975592,-0.028244,-0.042046,0.488333,0.023697,-6.836927,-44.305321,-15.535542,,,,,,,
1558972517.369213,1.487026,1.348820,-1.168037,0.307005,1.142314,-0.011741,0.219386,-0.975464,-0.018421,-0.107814,0.473389,0.126469,-6.392991,-44.374939,-15.525871,,,,,,,
1558972517.389198,1.526386,1.348874,-1.184863,0.070736,1.158360,-0.007506,0.219888,-0.975476,-0.009772,-0.116128,0.466031,0.145087,-6.211695,-44.421215,-15.467012,,,,,,,
1558972517.409176,1.538748,1.349445,-1.172895,-0.222985,1.218157,0.071836,0.219435,-0.975602,-0.007035,-0.053069,0.433930,0.102341,-5.672859,-44.432453,-15.640762,,,,,,,
1558972517.429143,1.547304,1.353522,-1.157428,-0.068052,1.182824,0.315046,0.215509,-0.976489,-0.005064,-0.006021,0.427065,0.097257,-5.468205,-44.370499,-15.887586,,,,,,,
1558972517.449155,1.583378,1.363455,-1.168503,0.215038,1.292744,0.598183,0.205842,-0.978582,0.002590,-0.004060,0.428212,0.123341,-5.394219,-44.323765,-16.042583,,,,,,,
1558972517.469143,1.644454,1.376982,-1.205873,0.408140,1.158736,0.726241,0.192081,-0.981277,0.014174,-0.020450,0.414291,0.177797,-5.593142,-44.343494,-15.919460,,,,,,,
1558972517.489105,1.718711,1.391698,-1.262357,0.443059,0.818347,0.828708,0.176197,-0.984005,0.026254,-0.081058,0.383495,0.246268,-5.837997,-44.380211,-15.728090,,,,,,,
1558972517.509112,1.799427,1.408051,-1.326148,0.313639,1.017953,0.968241,0.157811,-0.986786,0.036723,-0.090749,0.352677,0.334982,-6.324467,-44.412262,-15.447015,,,,,,,
1558972517.529100,1.884444,1.429481,-1.386714,0.072662,1.362158,1.282028,0.133974,-0.990032,0.043455,-0.049914,0.328365,0.349123,-7.052949,-44.332153,-15.361449,,,,,,,
1558972517.549057,1.991874,1.456596,-1.469644,-0.012576,1.126199,1.526327,0.103998,-0.993486,0.046577,-0.043710,0.256182,0.333672,-7.644466,-44.191021,-15.484631,,,,,,,
1558972517.569057,2.158102,1.483331,-1.620915,0.079368,0.603563,1.534210,0.072717,-0.996177,0.048405,-0.105509,0.189506,0.369777,-8.659437,-43.940063,-15.663422,,,,,,,
1558972517.589056,2.468226,1.503182,-1.922215,0.249250,0.462057,1.513774,0.042133,-0.997715,0.052815,-0.148319,0.129459,0.415309,-10.103496,-43.633514,-15.655467,,,,,,,
1558972517.609041,2.952070,1.510068,-2.399349,0.368973,0.280646,1.491848,0.011434,-0.998157,0.059605,-0.154210,0.051623,0.435467,-10.994043,-43.458813,-15.540942,,,,,,,
1558972517.629026,-2.894046,1.500528,-2.837198,0.461335,-0.154388,1.413023,-0.017203,-0.997532,0.068070,-0.167520,-0.054714,0.449859,-12.206838,-43.232716,-15.263795,,,,,,,
1558972517.649013,-2.622568,1.481383,-3.115739,0.431931,-0.379456,1.360666,-0.044293,-0.996005,0.077535,-0.138400,-0.128018,0.447321,-13.795724,-42.951958,-14.692356,,,,,,,
1558972517.668994,-2.455545,1.460070,2.991486,0.360594,-0.405575,1.314450,-0.070000,-0.993876,0.085500,-0.135734,-0.176671,0.483515,-14.745190,-42.752316,-14.348425,,,,,,,
1558972517.688982,-2.338268,1.437202,2.864317,0.276149,-0.484316,1.375552,-0.095858,-0.991090,0.092481,-0.085783,-0.189712,0.512804,-15.986107,-42.446453,-13.921243,,,,,,,
1558972517.708944,-2.243570,1.412823,2.756337,0.173102,-0.698197,1.476984,-0.123037,-0.987548,0.098033,-0.144114,-0.268906,0.552388,-17.641052,-41.946056,-13.430557,,,,,,,
1558972517.728931,-2.165731,1.388083,2.660442,0.011674,-0.921479,1.448026,-0.150480,-0.983354,0.101834,-0.179796,-0.305983,0.556400,-18.722105,-41.567940,-13.139536,,,,,,,
1558972517.748911,-2.105231,1.366382,2.577077,-0.171883,-1.138505,1.282452,-0.174688,-0.979180,0.103396,-0.212687,-0.349845,0.554365,-20.145226,-41.012455,-12.775230,,,,,,,
1558972517.768918,-2.050303,1.348900,2.495611,-0.421237,-1.286454,1.134568,-0.195260,-0.975482,0.101532,-0.159141,-0.403608,0.426254,-21.775703,-40.288265,-12.398897,,,,,,,
1558972517.788912,-2.000105,1.333631,2.416760,-0.461738,-1.342396,1.045385,-0.213627,-0.972008,0.097795,-0.139171,-0.418709,0.358809,-22.684219,-39.834259,-12.235855,,,,,,,
1558972517.808878,-1.971699,1.319354,2.360823,-0.238704,-1.266712,0.840232,-0.229073,-0.968555,0.097095,-0.193290,-0.385663,0.324689,-23.812099,-39.255497,-11.960266,,,,,,,
1558972517.828873,-1.969892,1.307778,2.331114,-0.079273,-1.448652,0.602668,-0.239564,-0.965610,0.101031,-0.144393,-0.391477,0.305250,-24.943497,-38.729073,-11.355139,,,,,,,
1558972517.848869,-1.985451,1.299232,2.311613,-0.068778,-1.895019,0.432919,-0.245507,-0.963353,0.108066,-0.138282,-0.413982,0.293057,-25.524979,-38.505699,-10.809475,,,,,,,
1558972517.868825,-2.011285,1.293197,2.296055,-0.073393,-2.057952,0.313914,-0.247888,-0.961716,0.116849,-0.170569,-0.463302,0.273852,-26.246517,-38.273926,-9.863306,,,,,,,
1558972517.888836,-2.034261,1.290643,2.279904,-0.197038,-1.851404,0.167389,-0.247335,-0.961013,0.123611,-0.149196,-0.510514,0.232056,-26.965208,-38.070847,-8.634034,,,,,,,
1558972517.908826,-2.051287,1.290970,2.259423,-0.288514,-1.869020,0.081736,-0.244915,-0.961104,0.127658,-0.124043,-0.533403,0.191739,-27.277058,-37.983223,-8.018405,,,,,,,
1558972517.928812,-2.070696,1.294273,2.238742,-0.361177,-2.031673,-0.089635,-0.239604,-0.962011,0.130865,-0.169728,-0.553004,0.178110,-27.614035,-37.902561,-7.205479,,,,,,,
1558972517.948799,-2.097247,1.302823,2.222226,-0.426115,-2.162825,-0.373869,-0.228925,-0.964310,0.133042,-0.233431,-0.591858,0.105346,-27.806290,-37.951347,-6.128901,,,,,,,
1558972517.968783,-2.134243,1.317399,2.214427,-0.486680,-2.277123,-0.692087,-0.211942,-0.968066,0.133897,-0.248355,-0.588407,0.076202,-27.738762,-38.101036,-5.470891,,,,,,,
1558972517.988769,-2.183213,1.336546,2.216855,-0.511099,-2.326901,-0.844189,-0.189929,-0.972689,0.133430,-0.208676,-0.582838,-0.013877,-27.418957,-38.448254,-4.581557,,,,,,,
1558972518.008754,-2.236829,1.356102,2.226435,-0.493450,-2.145208,-0.857383,-0.167516,-0.977042,0.131637,-0.175395,-0.616739,-0.137786,-26.833132,-38.969372,-3.525508,,,,,,,
1558972518.028735,-2.299744,1.376478,2.249663,-0.483001,-1.955243,-1.019974,-0.144028,-0.981179,0.128620,-0.278000,-0.614997,-0.150867,-26.421457,-39.295174,-2.975540,,,,,,,
1558972518.048708,-2.390507,1.402534,2.302138,-0.635744,-1.967704,-1.408840,-0.114287,-0.985877,0.122411,-0.311235,-0.597924,-0.183370,-25.677395,-39.827068,-2.352466,,,,,,,
1558972518.068692,-2.533797,1.433381,2.406709,-0.728124,-2.017288,-1.670962,-0.078226,-0.990573,0.112451,-0.282416,-0.564496,-0.263330,-24.288769,-40.717896,-1.779458,,,,,,,
1558972518.088672,-2.764669,1.463209,2.599263,-0.761830,-1.945354,-1.751442,-0.039522,-0.994218,0.099842,-0.246900,-0.515334,-0.363163,-23.965488,-40.913013,-1.684771,,,,,,,
1558972518.108682,-3.116379,1.484868,2.916258,-0.727081,-1.705493,-1.682924,-0.002164,-0.996310,0.085796,-0.276736,-0.458859,-0.439159,-21.892805,-42.072792,-1.282001,,,,,,,
1558972518.128670,2.698440,1.492276,-2.926588,-0.742864,-1.329125,-1.690011,0.033634,-0.996919,0.070863,-0.362049,-0.384139,-0.476854,-20.155149,-42.934544,-1.205457,,,,,,,
1558972518.148639,2.230287,1.482512,-2.480054,-0.817611,-1.112161,-1.768067,0.069681,-0.996105,0.054023,-0.403894,-0.295032,-0.518485,-19.800037,-43.098698,-1.232452,,,,,,,
1558972518.168640,1.891375,1.458998,-2.162034,-0.861346,-1.133050,-1.753355,0.105881,-0.993757,0.035156,-0.399171,-0.193392,-0.567215,-17.561043,-44.045101,-1.642321,,,,,,,
1558972518.188606,1.681375,1.429748,-1.971833,-0.851503,-0.990200,-1.615322,0.139723,-0.990069,0.015514,-0.369994,-0.094297,-0.592403,-15.699708,-44.721485,-2.136850,,,,,,,
1558972518.208612,1.553871,1.401250,-1.857444,-0.804623,-0.547212,-1.382568,0.168711,-0.985661,-0.002856,-0.398890,-0.036174,-0.595106,-14.686552,-45.045856,-2.496775,,,,,,,
1558972518.228586,1.467594,1.373617,-1.774293,-0.872170,-0.022499,-1.328488,0.194862,-0.980623,-0.020182,-0.428519,0.060228,-0.584219,-13.472549,-45.386848,-3.095543,,,,,,,
1558972518.248583,1.407813,1.344858,-1.708351,-0.847510,0.352603,-1.333419,0.221053,-0.974584,-0.036350,-0.466689,0.181219,-0.564632,-11.949766,-45.730747,-4.118207,,,,,,,
1558972518.268568,1.380333,1.315850,-1.671503,-0.579102,0.392390,-1.350973,0.247633,-0.967677,-0.047744,-0.394530,0.269450,-0.535706,-11.000182,-45.909729,-4.727688,,,,,,,
1558972518.288527,1.373348,1.289159,-1.659558,-0.333272,0.115435,-1.205024,0.272528,-0.960602,-0.054521,-0.267371,0.375366,-0.476729,-9.732912,-46.132645,-5.301645,,,,,,,
1558972518.308529,1.365933,1.267547,-1.648398,-0.467232,0.294136,-0.923698,0.292378,-0.954371,-0.060750,-0.267644,0.492472,-0.302653,-8.407797,-46.341053,-5.733579,,,,,,,
1558972518.328526,1.347626,1.250241,-1.613907,-0.825153,1.011035,-0.602166,0.307279,-0.949061,-0.069737,-0.257764,0.531779,-0.282726,-7.773758,-46.394108,-6.181711,,,,,,,
1558972518.348490,1.328403,1.238596,-1.564272,-0.932459,1.552237,-0.262899,0.316590,-0.945327,-0.078278,-0.205873,0.605315,-0.256972,-7.112834,-46.365234,-7.122543,,,,,,,
1558972518.368497,1.312970,1.233014,-1.514778,-0.768040,1.516947,0.043310,0.320442,-0.943492,-0.084499,-0.151985,0.661158,-0.241017,-6.596869,-46.221283,-8.434028,,,,,,,
1558972518.388471,1.310445,1.234156,-1.484488,-0.253362,1.130871,0.261030,0.319186,-0.943870,-0.085031,-0.110232,0.670097,-0.197394,-6.479730,-46.124344,-9.034171,,,,,,,
1558972518.408450,1.325750,1.242589,-1.485259,0.315044,0.576455,0.483587,0.312717,-0.946622,-0.078202,-0.101215,0.638226,-0.078735,-6.560452,-46.053932,-9.330270,,,,,,,
1558972518.428455,1.357130,1.253486,-1.500806,0.281646,1.076512,0.426423,0.304917,-0.950078,-0.066160,-0.195146,0.551213,0.232191,-6.951668,-46.050865,-9.058159,,,,,,,
1558972518.448413,1.379998,1.259189,-1.492301,-0.288407,1.790589,0.233151,0.301025,-0.951842,-0.058142,-0.158584,0.542250,0.259223,-7.039902,-46.030842,-9.091724,,,,,,,
1558972518.468425,1.389514,1.261640,-1.462038,-0.426393,1.905452,0.220260,0.299269,-0.952591,-0.054854,0.005525,0.486572,0.257049,-6.909559,-45.938969,-9.639887,,,,,,,
1558972518.488380,1.403559,1.266607,-1.441998,-0.137410,1.473928,0.354088,0.295341,-0.954090,-0.049858,0.167824,0.319141,0.324134,-6.747620,-45.807835,-10.352295,,,,,,,
1558972518.508396,1.427471,1.275251,-1.441872,0.166588,1.060243,0.452866,0.288275,-0.956644,-0.041602,0.163278,0.270761,0.359580,-6.801802,-45.760414,-10.525105,,,,,,,
1558972518.528382,1.457793,1.283912,-1.455020,0.262700,0.787947,0.359586,0.281160,-0.959130,-0.031908,0.132994,0.214883,0.422854,-6.988601,-45.737888,-10.500631,,,,,,,
1558972518.548369,1.486919,1.289071,-1.470374,0.197812,0.709769,0.158068,0.277036,-0.960577,-0.023292,0.098421,0.084402,0.520087,-7.142795,-45.750046,-10.342706,,,,,,,
1558972518.568327,1.501714,1.290286,-1.470779,-0.126689,0.697527,0.019965,0.276186,-0.960914,-0.019110,0.127333,-0.031578,0.481207,-7.079590,-45.755489,-10.362084,,,,,,,
1558972518.588339,1.493684,1.290361,-1.449591,-0.358179,0.563501,0.056932,0.275951,-0.960935,-0.021321,0.123524,-0.060061,0.433049,-6.984034,-45.721992,-10.572639,,,,,,,
1558972518.608325,1.476386,1.294000,-1.421844,-0.350575,0.404236,0.314852,0.272059,-0.961936,-0.025762,0.126669,-0.064798,0.320729,-6.937315,-45.658817,-10.872181,,,,,,,
1558972518.628284,1.458660,1.301541,-1.398125,-0.232318,0.164906,0.433300,0.264343,-0.963969,-0.029767,-0.048950,-0.039937,0.217374,-7.257199,-45.480156,-11.399403,,,,,,,
1558972518.648297,1.442726,1.308833,-1.380409,-0.170910,0.022810,0.343374,0.256856,-0.965883,-0.033077,-0.073461,-0.012983,0.189876,-7.526902,-45.396950,-11.555104,,,,,,,
1558972518.668283,1.430078,1.313521,-1.366802,-0.130139,0.050908,0.191002,0.251932,-0.967087,-0.035687,-0.098169,-0.009674,0.159360,-7.756647,-45.328037,-11.673104,,,,,,,
1558972518.688268,1.416397,1.314091,-1.350796,-0.257399,0.105187,-0.008231,0.250875,-0.967232,-0.039046,-0.033651,-0.019707,0.065535,-7.951937,-45.235264,-11.899404,,,,,,,
1558972518.708254,1.394797,1.312346,-1.326262,-0.331877,0.106604,-0.029630,0.251635,-0.966787,-0.044750,-0.017855,-0.012140,0.017376,-7.914795,-45.185749,-12.110415,,,,,,,
1558972518.728240,1.382479,1.311765,-1.311811,-0.058599,0.045009,0.031923,0.251616,-0.966639,-0.047952,-0.001280,0.017557,-0.046973,-7.875822,-45.130051,-12.341318,,,,,,,
1558972518.748225,1.394140,1.313565,-1.325660,0.314308,-0.164086,0.057979,0.250444,-0.967098,-0.044709,-0.019960,0.004162,-0.003265,-7.919905,-45.121597,-12.344004,,,,,,,
1558972518.768210,1.417284,1.315355,-1.354182,0.357838,-0.223590,0.002994,0.249701,-0.967552,-0.038636,-0.018637,-0.012840,0.014329,-7.989603,-45.180466,-12.080964,,,,,,,
1558972518.788178,1.432953,1.315135,-1.373657,0.170958,-0.112782,-0.066560,0.250486,-0.967496,-0.034748,-0.007338,-0.023181,0.018971,-8.030264,-45.243240,-11.816179,,,,,,,
1558972518.808165,1.438707,1.314214,-1.380763,0.043490,-0.019058,-0.041209,0.251566,-0.967263,-0.033424,0.010077,-0.008598,-0.010811,-7.986926,-45.312546,-11.577590,,,,,,,
1558972518.828148,1.441493,1.314391,-1.383139,0.042509,0.040251,0.033026,0.251488,-0.967308,-0.032701,0.011268,-0.008812,-0.021132,-7.971139,-45.320915,-11.555676,,,,,,,
1558972518.848142,1.448368,1.316182,-1.389652,0.125343,0.012436,0.102223,0.249987,-0.967761,-0.030759,0.014081,-0.008054,-0.033907,-7.986960,-45.324509,-11.530636,,,,,,,
1558972518.868140,1.456346,1.318352,-1.399154,0.118581,-0.112291,0.078603,0.248137,-0.968305,-0.028524,-0.013900,-0.028598,-0.010752,-8.116718,-45.343098,-11.365750,,,,,,,
1558972518.888102,1.458183,1.319481,-1.404121,0.022737,-0.145681,0.032297,0.247103,-0.968586,-0.027945,-0.034991,-0.035366,-0.003839,-8.163167,-45.349926,-11.305090,,,,,,,
1558972518.908097,1.449500,1.319150,-1.395844,-0.190453,0.061467,-0.027814,0.247169,-0.968504,-0.030129,-0.046577,-0.086657,-0.027138,-8.232249,-45.340752,-11.291792,,,,,,,
1558972518.928096,1.411827,1.321717,-1.352779,-0.372572,0.357315,-0.036858,0.243404,-0.969140,-0.039023,-0.039714,-0.077186,-0.047616,-8.182849,-45.303055,-11.477460,,,,,,,
1558972518.948072,1.392650,1.320099,-1.325037,-0.304501,0.349588,-0.016592,0.244153,-0.968740,-0.043961,-0.013700,-0.071406,-0.109817,-8.327732,-45.157978,-11.935831,,,,,,,
1558972518.968045,1.384343,1.319389,-1.312971,-0.057433,0.063970,-0.005248,0.244456,-0.968563,-0.046115,-0.004969,-0.109501,-0.192029,-8.201911,-45.065353,-12.365308,,,,,,,
1558972518.988053,1.386567,1.319228,-1.316478,0.061272,-0.104734,-0.024904,0.244711,-0.968523,-0.045600,-0.022299,-0.106352,-0.191568,-8.196046,-45.070061,-12.352011,,,,,,,
1558972519.008036,1.384483,1.318384,-1.314885,-0.113751,0.070552,-0.052193,0.245419,-0.968313,-0.046261,-0.098126,-0.115031,-0.207141,-8.194052,-45.080254,-12.316113,,,,,,,
1558972519.028010,1.368504,1.315016,-1.291798,-0.438017,0.471661,-0.150040,0.247842,-0.967466,-0.050832,-0.096047,-0.083971,-0.261958,-8.054887,-45.034142,-12.573900,,,,,,,
1558972519.048010,1.345905,1.309111,-1.255939,-0.500140,0.648409,-0.216728,0.252194,-0.965955,-0.057692,-0.068829,-0.066531,-0.345155,-7.754255,-44.934525,-13.107939,,,,,,,
1558972519.067972,1.338184,1.302532,-1.234282,-0.239248,0.650122,-0.275223,0.257920,-0.964232,-0.061101,-0.069962,-0.048280,-0.374568,-7.566410,-44.888672,-13.372166,,,,,,,
1558972519.087982,1.352535,1.296461,-1.236793,0.086291,0.572243,-0.317346,0.264480,-0.962605,-0.058660,-0.087875,0.026570,-0.377894,-6.930355,-44.870029,-13.773490,,,,,,,
1558972519.107967,1.386700,1.290598,-1.259952,0.336701,0.623691,-0.375374,0.271873,-0.961001,-0.050624,-0.103248,0.068636,-0.347783,-6.590449,-44.935600,-13.726460,,,,,,,
1558972519.127920,1.430352,1.283736,-1.290973,0.358511,0.756678,-0.430669,0.280346,-0.959080,-0.039634,-0.102337,0.154607,-0.225808,-6.075442,-45.077591,-13.496594,,,,,,,
1558972519.147939,1.466984,1.275636,-1.310726,0.145249,0.973442,-0.421291,0.289327,-0.956756,-0.030144,-0.074819,0.219085,-0.177772,-5.315359,-45.241211,-13.267918,,,,,,,
1558972519.167896,1.492679,1.268970,-1.314631,-0.029947,1.171172,-0.283948,0.296358,-0.954795,-0.023198,-0.053545,0.264732,-0.145702,-4.846492,-45.289524,-13.282641,,,,,,,
1558972519.187909,1.514149,1.264508,-1.310515,-0.095637,1.313314,-0.178011,0.301038,-0.953459,-0.017071,-0.046399,0.315291,-0.097995,-4.418606,-45.303902,-13.382472,,,,,,,
1558972519.207897,1.532086,1.261917,-1.302768,-0.137638,1.203729,-0.094749,0.303763,-0.952675,-0.011765,-0.056434,0.360405,-0.086792,-3.665696,-45.283440,-13.675911,,,,,,,
1558972519.227855,1.546667,1.260750,-1.293811,-0.142107,1.170028,-0.027814,0.305014,-0.952319,-0.007361,-0.113791,0.424976,-0.045465,-3.370852,-45.259346,-13.830643,,,,,,,
1558972519.247797,1.561578,1.260028,-1.282239,-0.211624,1.379632,-0.061096,0.305777,-0.952099,-0.002819,-0.107078,0.432125,-0.005467,-3.011762,-45.219742,-14.041455,,,,,,,
1558972519.267783,1.571400,1.258272,-1.262489,-0.351920,1.442723,-0.067010,0.307461,-0.951561,0.000186,-0.103268,0.492271,0.020826,-2.429685,-45.135414,-14.420457,,,,,,,
1558972519.287760,1.577941,1.259209,-1.238733,-0.355367,1.451477,0.120977,0.306562,-0.951848,0.002190,-0.079511,0.504735,0.035560,-2.094863,-45.056835,-14.715672,,,,,,,
1558972519.307753,1.583836,1.263019,-1.216862,-0.332798,1.227383,0.195721,0.302915,-0.953009,0.003950,-0.120862,0.487571,0.090548,-1.790935,-44.947563,-15.085329,,,,,,,
1558972519.327740,1.585486,1.267089,-1.196583,-0.286830,0.976674,0.225387,0.299027,-0.954234,0.004393,-0.093568,0.470058,0.122987,-1.568010,-44.816246,-15.495274,,,,,,,
1558972519.347725,1.586696,1.274580,-1.177972,-0.277644,0.971715,0.477312,0.291866,-0.956448,0.004641,-0.051922,0.466793,0.134336,-1.545894,-44.718174,-15.778255,,,,,,,
1558972519.367710,1.595329,1.287973,-1.164631,-0.138104,1.135260,0.773659,0.278984,-0.960271,0.006846,-0.051323,0.451299,0.158468,-1.676579,-44.643925,-15.973961,,,,,,,
1558972519.387697,1.622368,1.306107,-1.167878,0.089612,1.204134,0.980557,0.261262,-0.965174,0.013486,-0.090958,0.437708,0.245685,-1.919765,-44.590748,-16.094639,,,,,,,
1558972519.407682,1.660389,1.326395,-1.185685,0.172570,0.887745,1.043789,0.241005,-0.970282,0.021650,-0.152214,0.362006,0.371477,-2.674077,-44.567844,-16.050377,,,,,,,
1558972519.427649,1.699109,1.346589,-1.211271,0.178066,0.613940,1.036902,0.220505,-0.974971,0.028450,-0.134324,0.320537,0.403633,-3.004740,-44.566708,-15.994946,,,,,,,
1558972519.447649,1.739129,1.369145,-1.241725,0.151629,0.458014,1.287353,0.197457,-0.979737,0.033556,-0.091714,0.224244,0.386015,-4.161068,-44.531719,-15.832555,,,,,,,
1558972519.467640,1.796197,1.398354,-1.289797,0.149322,0.567432,1.646060,0.167249,-0.985169,0.038350,-0.108167,0.212952,0.407482,-4.977172,-44.473328,-15.760995,,,,,,,
1558972519.487610,1.881850,1.431310,-1.363426,0.093950,0.619705,1.772498,0.132362,-0.990288,0.042553,-0.125251,0.181450,0.461521,-6.266701,-44.330513,-15.703251,,,,,,,
1558972519.507604,2.009849,1.463483,-1.484718,0.118181,0.208364,1.748295,0.096949,-0.994247,0.045529,-0.177927,0.110703,0.516925,-8.018438,-44.054401,-15.683508,,,,,,,
1558972519.527597,2.221656,1.491814,-1.698065,0.111799,-0.123537,1.726963,0.062770,-0.996882,0.047803,-0.177425,0.101237,0.525301,-9.134129,-43.860409,-15.616989,,,,,,,
1558972519.547577,2.623301,1.513670,-2.103384,0.088285,-0.134983,1.765270,0.028284,-0.998369,0.049596,-0.121806,0.021760,0.509242,-10.676858,-43.553066,-15.498175,,,,,,,
1558972519.567568,-2.964438,1.517755,-2.801700,0.172217,-0.092846,1.965390,-0.009343,-0.998594,0.052186,-0.091914,-0.066882,0.496657,-12.688283,-43.062832,-15.351155,,,,,,,
1558972519.587554,-2.421237,1.494092,2.935220,0.318901,-0.097648,2.097850,-0.050549,-0.997060,0.057592,-0.092686,-0.078639,0.529825,-14.008194,-42.707561,-15.195147,,,,,,,
1558972519.607539,-2.190849,1.460049,2.700676,0.309245,-0.208871,1.904601,-0.089947,-0.993874,0.064221,-0.181949,-0.161003,0.575305,-15.799240,-42.185802,-14.892957,,,,,,,
1558972519.627525,-2.082865,1.428026,2.584749,0.185334,-0.451699,1.658754,-0.124036,-0.989826,0.069718,-0.288119,-0.285031,0.621917,-17.818653,-41.517189,-14.487128,,,,,,,
1558972519.647511,-2.023648,1.399058,2.511789,0.167515,-0.776386,1.471997,-0.153670,-0.985289,0.074772,-0.269319,-0.309862,0.628414,-18.932852,-41.108349,-14.237589,,,,,,,
1558972519.667470,-1.995078,1.373759,2.462566,0.096470,-1.109275,1.268036,-0.178407,-0.980651,0.080590,-0.154677,-0.427186,0.590736,-20.341196,-40.586197,-13.786024,,,,,,,
1558972519.687456,-1.981086,1.349860,2.422969,0.130982,-1.291247,1.279133,-0.200955,-0.975693,0.087410,-0.123050,-0.540237,0.547889,-22.005138,-39.950996,-13.067123,,,,,,,
1558972519.707446,-1.979457,1.324735,2.393696,0.230756,-1.384808,1.265506,-0.223528,-0.969879,0.096796,-0.282011,-0.512802,0.607595,-22.343777,-39.817780,-12.897972,,,,,,,
1558972519.727448,-1.997611,1.304193,2.377558,0.166772,-1.950649,0.811627,-0.239822,-0.964671,0.109064,-0.321442,-0.621495,0.590277,-24.331537,-39.025688,-11.663181,,,,,,,
1558972519.747440,-2.022859,1.295686,2.356108,-0.235391,-2.397322,0.400255,-0.244365,-0.962395,0.118664,-0.209996,-0.723655,0.503299,-25.568314,-38.619122,-10.289940,,,,,,,
1558972519.767408,-2.029604,1.291651,2.314347,-0.500294,-2.316543,0.474484,-0.247039,-0.961291,0.122028,-0.203538,-0.743787,0.366985,-25.767153,-38.555847,-10.027891,,,,,,,
1558972519.787410,-2.032882,1.288219,2.269545,-0.447957,-2.321237,0.346363,-0.249589,-0.960340,0.124308,-0.279403,-0.699923,0.259680,-26.936384,-38.076397,-8.699255,,,,,,,
1558972519.807397,-2.052884,1.290532,2.241131,-0.367805,-2.417417,-0.075146,-0.245084,-0.960982,0.128245,-0.188494,-0.702302,0.105932,-27.628012,-37.832104,-7.515508,,,,,,,
1558972519.827371,-2.096043,1.295560,2.232311,-0.133314,-2.703165,-0.195135,-0.235139,-0.962361,0.136275,-0.213210,-0.728526,0.026201,-27.702980,-37.828922,-7.250896,,,,,,,
1558972519.847363,-2.162551,1.301728,2.242794,-0.021610,-2.836246,-0.441878,-0.220632,-0.964019,0.148287,-0.330165,-0.713380,0.001219,-27.977612,-37.960102,-5.228978,,,,,,,
1558972519.867354,-2.239555,1.312661,2.267597,-0.113812,-2.528627,-0.748625,-0.200289,-0.966868,0.158276,-0.345686,-0.699636,-0.064251,-27.778641,-38.317558,-3.342104,,,,,,,
1558972519.887339,-2.318174,1.328952,2.299953,-0.290525,-2.286959,-0.922616,-0.175663,-0.970898,0.162789,-0.256344,-0.689716,-0.161446,-27.416517,-38.646465,-2.417302,,,,,,,
1558972519.907326,-2.395463,1.347871,2.331867,-0.487666,-2.357822,-0.937331,-0.150072,-0.975255,0.162346,-0.247069,-0.718486,-0.261361,-26.789434,-39.132797,-1.417243,,,,,,,
1558972519.927310,-2.471695,1.369453,2.362025,-0.683208,-2.265913,-0.951555,-0.124172,-0.979799,0.156766,-0.299106,-0.689375,-0.359479,-25.917746,-39.738773,-0.397921,,,,,,,
1558972519.947296,-2.552549,1.393873,2.403408,-0.780596,-1.845994,-1.103491,-0.097781,-0.984390,0.146340,-0.394972,-0.563828,-0.423974,-25.338703,-40.112446,0.004499,,,,,,,
1558972519.967280,-2.678939,1.419991,2.496188,-0.723395,-1.764359,-1.446446,-0.067053,-0.988650,0.134440,-0.455667,-0.464658,-0.468074,-24.406513,-40.685352,0.287228,,,,,,,
1558972519.987249,-2.901451,1.444535,2.680831,-0.711373,-2.101965,-1.685618,-0.029950,-0.992040,0.122313,-0.418475,-0.366069,-0.535902,-22.825472,-41.588894,0.648111,,,,,,,
1558972520.007252,3.066536,1.463566,2.957925,-0.905355,-1.840860,-1.654435,0.008025,-0.994256,0.106723,-0.429336,-0.299704,-0.519855,-21.739107,-42.162598,0.885745,,,,,,,
1558972520.027222,2.676443,1.477330,-2.963190,-1.259327,-1.291228,-1.493581,0.041864,-0.995635,0.083414,-0.366006,-0.170457,-0.556315,-20.319658,-42.866135,0.814868,,,,,,,
1558972520.047198,2.226565,1.480336,-2.532794,-1.394708,-0.984908,-1.404278,0.071599,-0.995911,0.055085,-0.419195,-0.001739,-0.586854,-18.727509,-43.592873,-0.005829,,,,,,,
1558972520.067183,1.814992,1.466284,-2.138000,-1.445338,-0.874814,-1.472662,0.101227,-0.994543,0.025223,-0.420502,0.040869,-0.577118,-17.797672,-43.975723,-0.660682,,,,,,,
1558972520.087189,1.532428,1.441181,-1.867684,-1.408530,-0.620048,-1.324994,0.129157,-0.991612,-0.004958,-0.342139,0.120335,-0.593431,-16.528629,-44.442463,-1.652225,,,,,,,
1558972520.107166,1.369703,1.415095,-1.713574,-1.111320,-0.432008,-1.058180,0.151948,-0.987903,-0.030974,-0.272035,0.269275,-0.619035,-15.156952,-44.864216,-2.920166,,,,,,,
1558972520.127148,1.288398,1.392224,-1.633627,-0.854197,0.128108,-0.927698,0.170590,-0.984098,-0.049497,-0.336697,0.305555,-0.559786,-14.498255,-45.037468,-3.533398,,,,,,,
1558972520.147153,1.244916,1.367420,-1.577670,-0.909215,0.800406,-1.096401,0.191347,-0.979390,-0.064662,-0.390551,0.361073,-0.498922,-13.621155,-45.237041,-4.374022,,,,,,,
1558972520.167139,1.226251,1.339954,-1.539597,-0.748074,0.890355,-1.168011,0.215351,-0.973474,-0.077281,-0.185063,0.457986,-0.554601,-12.237872,-45.490372,-5.649673,,,,,,,
1558972520.187111,1.227652,1.317432,-1.528771,-0.330558,0.442515,-0.890105,0.236049,-0.968075,-0.084335,-0.123973,0.463772,-0.552353,-11.404071,-45.630249,-6.235818,,,,,,,
1558972520.207109,1.237548,1.304003,-1.530636,-0.205468,0.459339,-0.507626,0.249136,-0.964621,-0.086241,-0.164175,0.481940,-0.438936,-10.584321,-45.775505,-6.605541,,,,,,,
1558972520.227096,1.238928,1.293664,-1.513828,-0.495876,1.213613,-0.403483,0.258670,-0.961844,-0.089141,-0.310382,0.492011,-0.228577,-9.937688,-45.847836,-7.090577,,,,,,,
1558972520.247080,1.243339,1.281344,-1.481934,-0.664560,2.014593,-0.446131,0.270260,-0.958400,-0.091804,-0.308224,0.516948,-0.198098,-9.488332,-45.847370,-7.684295,,,,,,,
1558972520.267066,1.253011,1.270577,-1.448171,-0.590187,2.045095,-0.285632,0.280923,-0.955272,-0.092405,-0.218499,0.543925,-0.211901,-8.767462,-45.817318,-8.658129,,,,,,,
1558972520.287052,1.268014,1.265599,-1.425989,-0.239509,1.657831,-0.024282,0.286813,-0.953788,-0.089597,-0.140481,0.571357,-0.197543,-8.297398,-45.775074,-9.319550,,,,,,,
1558972520.307016,1.299399,1.269306,-1.427385,0.234273,1.496176,0.273491,0.286075,-0.954895,-0.079604,-0.146244,0.524551,0.066054,-7.974995,-45.738094,-9.771615,,,,,,,
1558972520.327024,1.344671,1.276007,-1.437318,0.129560,2.011450,0.246310,0.283142,-0.956863,-0.065140,-0.168030,0.476639,0.317459,-7.813532,-45.728523,-9.945307,,,,,,,
1558972520.347010,1.381811,1.277873,-1.428516,-0.212785,2.372339,0.048772,0.283611,-0.957404,-0.054246,-0.067852,0.419013,0.483002,-7.495947,-45.698360,-10.321270,,,,,,,
1558972520.366992,1.407507,1.277690,-1.411034,-0.230389,1.880941,0.062205,0.285084,-0.957351,-0.046969,0.069607,0.340423,0.524386,-7.383940,-45.685501,-10.458023,,,,,,,
1558972520.386981,1.428200,1.279987,-1.403190,-0.008275,1.164310,0.151611,0.283817,-0.958012,-0.040748,0.134716,0.223500,0.548423,-6.837070,-45.601955,-11.170241,,,,,,,
1558972520.406966,1.448782,1.283368,-1.404525,0.039765,0.898799,0.186476,0.281379,-0.958976,-0.034504,0.175454,0.126106,0.572330,-6.706839,-45.578972,-11.341686,,,,,,,
1558972520.426951,1.462789,1.288292,-1.401812,-0.033061,0.806300,0.277350,0.277137,-0.960360,-0.030050,0.154564,0.044818,0.573827,-6.698324,-45.574982,-11.362733,,,,,,,
1558972520.446937,1.468781,1.292850,-1.392209,-0.170558,0.716002,0.198437,0.272955,-0.961621,-0.027943,0.108561,0.011487,0.547947,-6.765220,-45.513611,-11.567238,,,,,,,
1558972520.466923,1.462778,1.294272,-1.374899,-0.229879,0.408488,0.040637,0.271422,-0.962010,-0.029433,0.087648,-0.014842,0.448501,-6.754164,-45.429970,-11.897771,,,,,,,
1558972520.486909,1.456534,1.293391,-1.363077,-0.117663,0.178390,-0.051158,0.272075,-0.961769,-0.031224,0.108937,-0.045952,0.329228,-6.676144,-45.383884,-12.115709,,,,,,,
1558972520.506867,1.453825,1.292722,-1.358836,-0.050209,-0.001577,0.002691,0.272628,-0.961586,-0.032036,0.099686,-0.045342,0.303093,-6.620138,-45.372486,-12.188910,,,,,,,
1558972520.526856,1.447601,1.294239,-1.353959,-0.066687,-0.094304,0.139517,0.270976,-0.962001,-0.033553,0.048513,-0.053166,0.239180,-6.622673,-45.362732,-12.223791,,,,,,,
1558972520.546866,1.438406,1.297907,-1.344219,-0.139595,0.100667,0.205384,0.267156,-0.962996,-0.035577,-0.073766,-0.054963,0.158364,-6.844954,-45.304008,-12.318740,,,,,,,
1558972520.566831,1.424143,1.299929,-1.325140,-0.300749,0.240856,0.081682,0.264695,-0.963539,-0.039099,-0.089493,-0.045204,0.133780,-6.917454,-45.271111,-12.398939,,,,,,,
1558972520.586837,1.405461,1.298532,-1.302443,-0.273418,0.065016,-0.073721,0.265246,-0.963164,-0.044259,-0.049365,-0.002229,0.016976,-6.917297,-45.148376,-12.838737,,,,,,,
1558972520.606823,1.396885,1.296012,-1.296491,0.011914,-0.261044,-0.112913,0.267246,-0.962484,-0.046952,-0.023579,-0.014460,-0.016876,-6.856659,-45.117943,-12.977514,,,,,,,
1558972520.626801,1.404211,1.295002,-1.311234,0.288297,-0.356502,-0.066629,0.268542,-0.962209,-0.045154,0.011121,-0.018290,-0.051068,-6.831166,-45.131462,-12.943892,,,,,,,
1558972520.646786,1.426175,1.295515,-1.339673,0.408980,-0.215429,-0.021409,0.268980,-0.962349,-0.039174,-0.021391,0.010902,0.031361,-6.874188,-45.258244,-12.469766,,,,,,,
1558972520.666780,1.445820,1.295709,-1.363623,0.250659,-0.141709,-0.051792,0.269512,-0.962401,-0.033859,-0.022686,0.004195,0.046646,-6.895017,-45.331291,-12.189775,,,,,,,
1558972520.686765,1.450872,1.294044,-1.370415,-0.021348,-0.025182,-0.129900,0.271271,-0.961948,-0.032689,-0.009476,-0.024106,0.039952,-6.886153,-45.381535,-12.006464,,,,,,,
1558972520.706723,1.446058,1.290835,-1.363957,-0.124166,0.105363,-0.135139,0.274172,-0.961066,-0.034378,0.033903,0.033179,-0.017715,-6.711354,-45.397743,-12.044118,,,,,,,
1558972520.726738,1.444133,1.289272,-1.360961,0.008355,-0.013573,-0.036880,0.275595,-0.960633,-0.035096,0.053919,0.021683,-0.050857,-6.604701,-45.390316,-12.130743,,,,,,,
1558972520.746723,1.448099,1.289293,-1.367529,0.122838,-0.142014,0.002552,0.275712,-0.960639,-0.034000,0.051086,0.016120,-0.039914,-6.600334,-45.401089,-12.092771,,,,,,,
1558972520.766681,1.451257,1.290347,-1.372152,0.009285,-0.002839,0.076394,0.274812,-0.960931,-0.033008,0.020812,0.027078,-0.017773,-6.654526,-45.428154,-11.960678,,,,,,,
1558972520.786695,1.444336,1.291908,-1.361969,-0.223097,0.226710,0.085878,0.273088,-0.961362,-0.034720,-0.004580,0.018338,-0.030939,-6.717733,-45.398567,-12.037440,,,,,,,
1558972520.806680,1.427685,1.291611,-1.338609,-0.336616,0.303284,0.000041,0.272756,-0.961280,-0.039303,-0.009588,0.013831,-0.056705,-6.721816,-45.363007,-12.168526,,,,,,,
1558972520.826666,1.416550,1.290667,-1.322042,-0.148634,0.169103,-0.006432,0.273197,-0.961020,-0.042477,0.034939,-0.002619,-0.141651,-6.618690,-45.252144,-12.629112,,,,,,,
1558972520.846629,1.418369,1.291986,-1.323612,0.133536,-0.077437,0.107808,0.272022,-0.961383,-0.041788,0.030591,-0.027768,-0.138876,-6.610315,-45.236023,-12.691111,,,,,,,
1558972520.866637,1.428294,1.295485,-1.337408,0.225693,-0.195185,0.151596,0.269092,-0.962341,-0.038608,-0.042773,-0.056413,-0.124783,-6.739324,-45.258503,-12.542208,,,,,,,
1558972520.886623,1.436554,1.297704,-1.348115,0.087005,-0.018111,0.033603,0.267284,-0.962941,-0.036098,-0.128749,-0.071589,-0.110570,-6.930051,-45.299030,-12.289432,,,,,,,
1558972520.906595,1.434440,1.295727,-1.342719,-0.187524,0.255771,-0.147631,0.269093,-0.962406,-0.036922,-0.121876,-0.073208,-0.155080,-6.907976,-45.304314,-12.282379,,,,,,,
1558972520.926594,1.424000,1.291296,-1.324592,-0.298800,0.384183,-0.195602,0.272908,-0.961194,-0.040352,-0.073323,-0.066516,-0.279182,-6.701013,-45.274162,-12.506192,,,,,,,
1558972520.946580,1.420030,1.286910,-1.312033,-0.113514,0.407530,-0.188825,0.276912,-0.959974,-0.042068,-0.074946,-0.033205,-0.343765,-6.359159,-45.223022,-12.864570,,,,,,,
1558972520.966539,1.432357,1.282369,-1.317024,0.100454,0.371400,-0.272276,0.281724,-0.958692,-0.039253,-0.100739,0.002531,-0.333519,-6.145000,-45.233414,-12.931934,,,,,,,
1558972520.986551,1.449140,1.276038,-1.324814,0.008609,0.565189,-0.356974,0.288362,-0.956872,-0.035255,-0.112397,0.047830,-0.289711,-5.788331,-45.291725,-12.892354,,,,,,,
1558972521.006538,1.459036,1.268732,-1.318731,-0.199952,0.923590,-0.333425,0.295636,-0.954724,-0.033179,-0.087796,0.153440,-0.266199,-5.174730,-45.323769,-13.039791,,,,,,,
1558972521.026500,1.467605,1.262810,-1.305451,-0.222894,1.115201,-0.228036,0.301527,-0.952946,-0.031226,-0.068709,0.248616,-0.251321,-4.767944,-45.303307,-13.264032,,,,,,,
1558972521.046508,1.479209,1.260008,-1.294481,-0.154089,1.070683,-0.068260,0.304528,-0.952093,-0.027969,-0.031289,0.260976,-0.243912,-4.285420,-45.264706,-13.557279,,,,,,,
1558972521.066494,1.491492,1.259937,-1.285685,-0.130943,1.044320,0.055353,0.304915,-0.952071,-0.024232,-0.051222,0.337493,-0.199172,-3.881933,-45.218624,-13.829845,,,,,,,
1558972521.086480,1.503958,1.262100,-1.274243,-0.196417,1.246694,0.150123,0.303138,-0.952731,-0.020291,-0.069725,0.373293,-0.155673,-3.711874,-45.184387,-13.987533,,,,,,,
1558972521.106464,1.516667,1.266130,-1.259553,-0.207826,1.387497,0.258226,0.299535,-0.953947,-0.016230,-0.090765,0.394133,-0.110067,-3.503105,-45.116619,-14.257532,,,,,,,
1558972521.126429,1.530059,1.271739,-1.243839,-0.232250,1.426804,0.304492,0.294375,-0.955615,-0.011999,-0.097384,0.399401,-0.059855,-3.302011,-45.016872,-14.616301,,,,,,,
1558972521.146436,1.542577,1.278550,-1.226829,-0.235460,1.454410,0.376286,0.287989,-0.957599,-0.008129,-0.087016,0.407443,-0.045612,-3.203827,-44.949265,-14.844432,,,,,,,
1558972521.166413,1.555006,1.286831,-1.209834,-0.220787,1.415323,0.443185,0.280129,-0.959952,-0.004424,-0.073708,0.438681,-0.029893,-3.131424,-44.878407,-15.072529,,,,,,,
1558972521.186389,1.570310,1.295620,-1.197522,-0.135863,1.336634,0.427553,0.271716,-0.962377,-0.000132,-0.139804,0.462087,0.094172,-3.077795,-44.744526,-15.476189,,,,,,,
1558972521.206394,1.591285,1.304023,-1.189911,-0.104536,1.472815,0.421408,0.263564,-0.964627,0.005401,-0.143813,0.467404,0.142686,-3.042593,-44.697502,-15.618387,,,,,,,
1558972521.226354,1.611822,1.312735,-1.179925,-0.161888,1.522829,0.444261,0.254992,-0.966887,0.010467,-0.156451,0.468092,0.247666,-2.955487,-44.635994,-15.809851,,,,,,,
1558972521.246356,1.628802,1.322148,-1.166976,-0.218813,1.383652,0.477048,0.245680,-0.969246,0.014267,-0.078123,0.428917,0.324051,-2.853649,-44.536472,-16.106443,,,,,,,
1558972521.266351,1.633046,1.334250,-1.147677,-0.268195,1.032247,0.692512,0.233892,-0.972153,0.014579,-0.039831,0.410538,0.329538,-2.882182,-44.454247,-16.327009,,,,,,,
1558972521.286336,1.641621,1.352344,-1.138187,-0.098042,0.802450,1.007540,0.216175,-0.976234,0.015336,-0.034260,0.375206,0.363021,-3.203454,-44.329243,-16.604654,,,,,,,
1558972521.306304,1.664002,1.375461,-1.146066,0.020568,0.729260,1.254629,0.193253,-0.980983,0.018065,-0.144227,0.292964,0.538561,-4.059852,-44.206230,-16.744703,,,,,,,
1558972521.326308,1.690794,1.401758,-1.158305,-0.088156,0.718314,1.328104,0.167025,-0.985747,0.020139,-0.170702,0.251509,0.608126,-4.959894,-44.088047,-16.813740,,,,,,,
1558972521.346268,1.704533,1.427707,-1.161054,-0.128453,0.416138,1.272865,0.141328,-0.989780,0.019014,-0.229417,0.161274,0.636458,-5.657167,-43.951752,-16.949867,,,,,,,
1558972521.366260,1.732603,1.452086,-1.185436,0.032333,0.086494,1.227133,0.116885,-0.992962,0.019080,-0.199130,0.053021,0.647577,-6.887671,-43.721783,-17.088707,,,,,,,
1558972521.386264,1.793763,1.478764,-1.245973,0.041390,0.048789,1.492623,0.089628,-0.995768,0.020322,-0.141416,-0.022085,0.692203,-8.005518,-43.546574,-17.048914,,,,,,,
1558972521.406220,1.875283,1.511055,-1.329483,-0.235585,-0.246477,1.693496,0.056959,-0.998216,0.017900,-0.165357,-0.099928,0.677245,-9.018791,-43.344196,-17.058720,,,,,,,
1558972521.426236,1.998616,1.544453,-1.463002,-0.340001,-0.633964,1.618171,0.023965,-0.999653,0.010928,-0.153757,-0.202373,0.614042,-10.974006,-42.808765,-17.263807,,,,,,,
1558972521.446207,-2.350893,1.560828,2.870210,-0.059814,-0.924117,1.539815,-0.007088,-0.999950,0.007013,-0.107048,-0.273380,0.558264,-12.173382,-42.456383,-17.329809,,,,,,,
1558972521.466208,-1.861894,1.531122,2.356941,0.337809,-1.381726,1.575256,-0.037995,-0.999213,0.011384,-0.057952,-0.348870,0.553191,-13.817834,-42.052361,-17.079941,,,,,,,
1558972521.486194,-1.879839,1.498044,2.343550,0.447609,-1.651825,1.586638,-0.069245,-0.997355,0.022108,-0.012359,-0.422155,0.568377,-16.077530,-41.622219,-16.129530,,,,,,,
1558972521.506174,-1.878836,1.465033,2.308702,0.322850,-1.679587,1.668481,-0.100598,-0.994412,0.032007,-0.029972,-0.492587,0.582281,-17.928755,-41.199032,-15.239995,,,,,,,
1558972521.526164,-1.884915,1.430711,2.280133,0.403451,-1.771975,1.665526,-0.132795,-0.990204,0.043142,-0.051363,-0.539871,0.549510,-18.870420,-40.938774,-14.798048,,,,,,,
1558972521.546151,-1.913928,1.398884,2.272195,0.453447,-1.895218,1.418828,-0.161094,-0.985260,0.057553,-0.229623,-0.633088,0.543368,-21.595123,-40.126041,-13.213984,,,,,,,
1558972521.566111,-1.946795,1.374210,2.264087,0.290335,-2.147567,1.029793,-0.181677,-0.980739,0.071723,-0.266092,-0.679753,0.509805,-22.763390,-39.765644,-12.311765,,,,,,,
1558972521.586121,-1.975751,1.358591,2.247379,0.051878,-2.318094,0.663902,-0.193582,-0.977569,0.082978,-0.240805,-0.699723,0.462203,-23.755402,-39.458134,-11.392759,,,,,,,
1558972521.606108,-2.002430,1.348723,2.226500,-0.022580,-2.385628,0.478493,-0.200052,-0.975443,0.092144,-0.166296,-0.710516,0.256062,-25.252520,-38.996742,-9.624063,,,,,,,
1558972521.626093,-2.034210,1.342062,2.208950,-0.042866,-2.471359,0.331389,-0.202831,-0.973954,0.101356,-0.180958,-0.700957,0.145546,-25.840580,-38.824974,-8.714565,,,,,,,
1558972521.646077,-2.074123,1.339353,2.197533,-0.052541,-2.618619,0.071601,-0.200935,-0.973336,0.110641,-0.203789,-0.709708,0.089738,-26.336956,-38.691505,-7.771126,,,,,,,
1558972521.666063,-2.131865,1.340503,2.201720,0.059277,-2.700913,-0.140492,-0.193267,-0.973599,0.121457,-0.273606,-0.797915,-0.068097,-26.923241,-38.647758,-5.705079,,,,,,,
1558972521.686049,-2.201827,1.344454,2.217904,-0.010665,-2.702977,-0.354097,-0.181197,-0.974494,0.132399,-0.356920,-0.829034,-0.088180,-27.024256,-38.727928,-4.571116,,,,,,,
1558972521.706024,-2.270438,1.354923,2.235152,-0.291641,-2.490509,-0.629877,-0.163879,-0.976790,0.137933,-0.358444,-0.823000,-0.156137,-26.979816,-38.871445,-3.486908,,,,,,,
1558972521.726002,-2.330559,1.371922,2.250363,-0.527578,-2.124839,-0.789916,-0.143236,-0.980290,0.136074,-0.373213,-0.744381,-0.274425,-26.420715,-39.361969,-1.907627,,,,,,,
1558972521.745988,-2.389831,1.394242,2.268894,-0.763386,-2.053050,-0.970918,-0.119948,-0.984455,0.128302,-0.410752,-0.724499,-0.303610,-25.975578,-39.677040,-1.435325,,,,,,,
1558972521.765992,-2.451686,1.422194,2.289952,-1.049507,-2.040100,-1.092735,-0.094233,-0.988979,0.114197,-0.440985,-0.723790,-0.414459,-25.434708,-40.036499,-1.101171,,,,,,,
1558972521.785968,-2.510305,1.454785,2.311773,-1.269834,-1.719757,-1.114401,-0.068315,-0.993278,0.093442,-0.455382,-0.582650,-0.597333,-24.170816,-40.816097,-0.935938,,,,,,,
1558972521.805964,-2.586294,1.488128,2.358075,-1.213273,-1.361758,-1.134417,-0.043533,-0.996585,0.070167,-0.471283,-0.503430,-0.621665,-23.510149,-41.195107,-1.137379,,,,,,,
1558972521.825928,-2.788289,1.519368,2.536126,-1.113405,-1.171205,-1.296931,-0.017787,-0.998678,0.048231,-0.501165,-0.355753,-0.666380,-22.830719,-41.566971,-1.415260,,,,,,,
1558972521.845936,2.680101,1.542401,-2.954697,-1.185234,-1.138505,-1.595617,0.012642,-0.999597,0.025421,-0.501869,-0.163245,-0.662231,-21.202423,-42.394253,-2.059773,,,,,,,
1558972521.865921,1.595909,1.524047,-1.892293,-1.132764,-1.088189,-1.692250,0.046717,-0.998907,0.001173,-0.525919,-0.099207,-0.637221,-20.184772,-42.866219,-2.473915,,,,,,,
1558972521.885895,1.310933,1.489892,-1.626553,-0.997339,-0.931127,-1.504867,0.078103,-0.996729,-0.020766,-0.472375,0.004267,-0.620302,-18.804548,-43.455009,-3.018062,,,,,,,
1558972521.905892,1.200920,1.457971,-1.532986,-0.864139,-0.794107,-1.297393,0.104972,-0.993642,-0.040700,-0.303855,0.148900,-0.600719,-17.289179,-44.030014,-3.674257,,,,,,,
1558972521.925877,1.148323,1.432259,-1.492746,-0.650709,-0.477621,-0.958952,0.125953,-0.990419,-0.056621,-0.368171,0.209886,-0.542713,-16.525755,-44.292076,-4.021144,,,,,,,
1558972521.945863,1.114443,1.410288,-1.461400,-0.749204,0.028244,-0.894401,0.143465,-0.987146,-0.070429,-0.491488,0.383096,-0.360509,-15.716888,-44.542316,-4.474288,,,,,,,
1558972521.965839,1.079437,1.384973,-1.418647,-1.014457,0.559016,-1.018718,0.162898,-0.982784,-0.087173,-0.453578,0.441280,-0.311952,-14.670215,-44.791275,-5.439161,,,,,,,
1558972521.985819,1.048448,1.353577,-1.368997,-1.286080,1.083440,-1.168725,0.186776,-0.976501,-0.107524,-0.311898,0.531615,-0.328237,-14.426566,-44.837074,-5.706923,,,,,,,
1558972522.005821,1.028283,1.321427,-1.319429,-1.292191,1.567835,-0.999676,0.211356,-0.969068,-0.127416,-0.166785,0.586012,-0.358744,-12.686716,-45.049553,-7.787373,,,,,,,
1558972522.025807,1.016100,1.297072,-1.272576,-1.038188,1.650680,-0.545997,0.229787,-0.962771,-0.142373,-0.094167,0.605898,-0.354209,-11.339627,-45.046505,-9.658337,,,,,,,
1558972522.045786,1.015900,1.285353,-1.239165,-0.478127,1.579714,-0.087140,0.239333,-0.959537,-0.148353,-0.124007,0.627658,-0.278206,-11.135778,-45.026218,-9.984608,,,,,,,
1558972522.065777,1.039052,1.283629,-1.226645,-0.084321,1.931906,0.012646,0.244129,-0.959050,-0.143612,-0.218616,0.617070,-0.108707,-10.393258,-44.902504,-11.260700,,,,,,,
1558972522.085754,1.085698,1.281110,-1.227592,-0.049212,2.476825,-0.198842,0.252695,-0.958334,-0.133198,-0.187662,0.608968,0.027226,-9.742819,-44.891930,-11.868033,,,,,,,
1558972522.105726,1.143359,1.275514,-1.234530,-0.002039,2.522903,-0.321143,0.264828,-0.956720,-0.120635,-0.082073,0.621301,0.084212,-8.889188,-44.930206,-12.382118,,,,,,,
1558972522.125732,1.205423,1.272437,-1.249575,0.251329,2.290363,-0.135260,0.274549,-0.955820,-0.105028,-0.032956,0.614222,0.100359,-8.437506,-44.959686,-12.589401,,,,,,,
1558972522.145710,1.268921,1.275909,-1.272290,0.402057,1.970790,0.158608,0.277490,-0.956835,-0.086408,0.023368,0.484636,0.289259,-7.461065,-45.084236,-12.759399,,,,,,,
1558972522.165706,1.323115,1.282519,-1.290099,0.274753,1.827864,0.264970,0.275625,-0.958735,-0.069698,0.016505,0.387904,0.395489,-7.179377,-45.145481,-12.704320,,,,,,,
1558972522.185691,1.367380,1.286839,-1.298451,0.107722,1.780931,0.099969,0.274380,-0.959954,-0.056596,0.021014,0.344857,0.452958,-7.062821,-45.158913,-12.721913,,,,,,,
1558972522.205679,1.405288,1.284947,-1.303920,0.044485,1.503851,-0.218757,0.278119,-0.959423,-0.046456,0.075626,0.184215,0.588601,-6.455641,-45.188641,-12.937131,,,,,,,
1558972522.225663,1.437518,1.279692,-1.313653,0.150117,0.902817,-0.283146,0.284464,-0.957928,-0.038139,0.163213,0.092358,0.548011,-6.016609,-45.223766,-13.025711,,,,,,,
1558972522.245636,1.464369,1.276758,-1.330609,0.245896,0.333921,-0.095271,0.288180,-0.957081,-0.030786,0.199613,-0.001979,0.502100,-5.652395,-45.277359,-13.002668,,,,,,,
1558972522.265616,1.481917,1.277119,-1.344838,0.154649,0.158064,0.028955,0.288332,-0.957186,-0.025695,0.078261,-0.059721,0.539778,-5.412838,-45.379852,-12.744723,,,,,,,
1558972522.285621,1.483474,1.276784,-1.342920,-0.157028,0.184943,-0.056449,0.288691,-0.957089,-0.025273,0.074057,-0.084491,0.504125,-5.394433,-45.395313,-12.697403,,,,,,,
1558972522.305604,1.470889,1.275003,-1.324727,-0.290896,0.268109,-0.046151,0.290046,-0.956571,-0.029075,0.056298,-0.067233,0.409980,-5.322965,-45.370419,-12.815974,,,,,,,
1558972522.325580,1.460681,1.274525,-1.308252,-0.225026,0.265767,0.033952,0.290187,-0.956432,-0.032084,0.043980,-0.030369,0.301966,-5.171265,-45.271843,-13.220299,,,,,,,
1558972522.345577,1.447358,1.275543,-1.291778,-0.219610,0.002647,0.104038,0.288768,-0.956729,-0.035827,0.013875,0.019244,0.291717,-5.163090,-45.221287,-13.395370,,,,,,,
1558972522.365541,1.428276,1.277515,-1.275690,-0.234387,-0.267822,0.136670,0.286164,-0.957300,-0.041063,-0.009858,0.020121,0.213899,-5.232273,-45.168354,-13.546263,,,,,,,
1558972522.385547,1.402932,1.279529,-1.254333,-0.329932,-0.186980,0.141638,0.283130,-0.957881,-0.047979,-0.029132,0.007609,0.087667,-5.521192,-45.043930,-13.842656,,,,,,,
1558972522.405535,1.373768,1.280604,-1.224698,-0.450502,0.039819,0.118088,0.280600,-0.958189,-0.056013,-0.023749,0.015959,0.059888,-5.641192,-44.956512,-14.076468,,,,,,,
1558972522.425507,1.346241,1.280793,-1.194377,-0.367339,0.068941,0.092810,0.278776,-0.958243,-0.063675,-0.034971,0.067832,-0.016617,-5.729919,-44.816372,-14.481687,,,,,,,
1558972522.445499,1.333973,1.280894,-1.181438,-0.055647,-0.027944,0.015262,0.277879,-0.958272,-0.067067,-0.023637,0.038091,-0.099193,-5.796069,-44.700291,-14.810378,,,,,,,
1558972522.465472,1.340593,1.280488,-1.190251,0.199604,-0.142536,-0.085990,0.278697,-0.958156,-0.065315,-0.013133,0.002391,-0.090828,-5.801548,-44.695732,-14.821993,,,,,,,
1558972522.485476,1.356273,1.278870,-1.210539,0.291118,-0.189649,-0.168576,0.281200,-0.957691,-0.061267,-0.031979,0.022816,-0.051190,-5.755853,-44.779831,-14.584063,,,,,,,
1558972522.505463,1.374890,1.276584,-1.233682,0.310335,-0.174960,-0.173759,0.284440,-0.957031,-0.056447,-0.023606,0.037277,-0.036585,-5.626844,-44.910686,-14.227676,,,,,,,
1558972522.525431,1.393455,1.275468,-1.255947,0.286988,-0.107038,-0.072769,0.286489,-0.956707,-0.051346,0.007395,-0.015278,-0.017899,-5.600249,-44.937569,-14.153115,,,,,,,
