timestamp(unix),attitude_roll(radians),attitude_pitch(radians),attitude_yaw(radians),rotation_rate_x(radians/s),rotation_rate_y(radians/s),rotation_rate_z(radians/s),gravity_x(G),gravity_y(G),gravity_z(G),user_acc_x(G),user_acc_y(G),user_acc_z(G),magnetic_field_x(microteslas),magnetic_field_y(microteslas),magnetic_field_z(microteslas),latitude(degree),longitude(degree),altitude(meter),speed(m/s),course(degree),timestamp(unix),User Mark
1558971387.073490,-0.020391,1.055695,-0.201226,-0.117804,-0.030618,-0.135172,-0.010044,-0.870243,-0.492521,-0.054073,-0.008587,-0.022402,-8.668723,-30.159052,-33.133778,,,,,,,
1558971387.093475,-0.020450,1.051801,-0.202492,-0.116733,-0.012605,-0.100829,-0.010142,-0.868318,-0.495904,-0.022038,0.007234,-0.022284,-8.704891,-30.053131,-33.220425,,,,,,,
1558971387.113461,-0.018922,1.051272,-0.205665,0.025615,-0.089417,-0.073691,-0.009394,-0.868055,-0.496379,-0.008795,0.009901,-0.023305,-8.667181,-30.009983,-33.269249,,,,,,,
1558971387.133419,-0.018127,1.052524,-0.208728,0.062884,-0.088566,-0.080059,-0.008979,-0.868676,-0.495298,-0.009209,0.012460,-0.012331,-8.682326,-30.055532,-33.224155,,,,,,,
1558971387.153434,-0.016618,1.053116,-0.212304,0.012901,-0.078806,-0.090682,-0.008223,-0.868969,-0.494797,0.002196,0.001935,-0.007705,-8.685037,-30.097450,-33.185478,,,,,,,
1558971387.173414,-0.014579,1.053343,-0.216285,0.024641,-0.067234,-0.086292,-0.007212,-0.869082,-0.494616,0.003382,-0.001295,-0.003599,-8.674650,-30.112345,-33.174683,,,,,,,
1558971387.193390,-0.013158,1.053930,-0.219125,0.023609,-0.044992,-0.059389,-0.006502,-0.869372,-0.494116,-0.003889,-0.001386,0.004888,-8.665853,-30.151720,-33.141197,,,,,,,
1558971387.213375,-0.012242,1.054183,-0.221355,-0.000924,-0.061780,-0.062772,-0.006047,-0.869497,-0.493901,-0.001919,-0.004435,0.000142,-8.659771,-30.169439,-33.126663,,,,,,,
1558971387.233351,-0.012238,1.054548,-0.223619,0.036113,-0.124325,-0.053733,-0.006041,-0.869677,-0.493584,-0.004198,-0.004362,-0.005302,-8.659771,-30.169439,-33.126663,,,,,,,
1558971387.253357,-0.015496,1.055552,-0.224120,0.110502,-0.170195,-0.071192,-0.007636,-0.870172,-0.492689,-0.012613,-0.002249,-0.010104,-8.710968,-30.208923,-33.077217,,,,,,,
1558971387.273338,-0.018106,1.057391,-0.225434,0.124415,-0.148074,-0.073101,-0.008892,-0.871077,-0.491066,-0.019276,0.004271,-0.014672,-8.858144,-30.307121,-32.948051,,,,,,,
1558971387.293337,-0.020171,1.058764,-0.226045,0.101118,-0.090809,-0.029864,-0.009882,-0.871751,-0.489850,-0.015005,0.004624,-0.017520,-8.858144,-30.307121,-32.948051,,,,,,,
1558971387.313325,-0.021854,1.059435,-0.225546,0.093796,-0.035758,0.002688,-0.010694,-0.872079,-0.489248,-0.002124,0.004022,-0.011744,-5.570271,-28.757132,-34.355705,,,,,,,
1558971387.333311,-0.022320,1.061350,-0.225919,0.129874,-0.069771,0.003459,-0.010884,-0.873015,-0.487572,0.007863,0.002470,-0.006431,-5.622851,-28.795204,-34.315224,,,,,,,
1558971387.353296,-0.022170,1.065187,-0.228598,0.243417,-0.187727,-0.017868,-0.010737,-0.874879,-0.484222,0.018626,0.005846,-0.001115,-5.641349,-28.886099,-34.235703,,,,,,,
1558971387.373284,-0.022821,1.071195,-0.232420,0.310268,-0.257859,-0.031301,-0.010932,-0.877774,-0.478951,0.021186,0.003689,0.002968,-5.738289,-29.120148,-34.020641,,,,,,,
1558971387.393269,-0.023702,1.077192,-0.235672,0.226501,-0.161240,-0.037919,-0.011229,-0.880631,-0.473670,0.011031,-0.001968,0.001670,-5.743579,-29.181025,-33.967545,,,,,,,
1558971387.413256,-0.023639,1.079487,-0.236724,0.045060,0.025777,-0.018125,-0.011151,-0.881716,-0.471649,-0.000812,0.002810,0.002411,-5.840460,-29.448406,-33.719360,,,,,,,
1558971387.433243,-0.021562,1.079061,-0.237633,-0.024035,0.054676,-0.020039,-0.010180,-0.881515,-0.472047,0.004336,0.006606,-0.002990,-5.796948,-29.470030,-33.707977,,,,,,,
1558971387.453208,-0.019046,1.078091,-0.240455,-0.003013,-0.050156,-0.072273,-0.009009,-0.881056,-0.472925,0.003821,0.013793,-0.005392,-5.753668,-29.445837,-33.736519,,,,,,,
1558971387.473214,-0.018757,1.078782,-0.243568,0.053080,-0.148753,-0.072104,-0.008860,-0.881383,-0.472319,0.005137,0.018712,-0.010912,-5.750777,-29.445326,-33.737457,,,,,,,
1558971387.493201,-0.020026,1.078424,-0.245288,0.057415,-0.110681,-0.042908,-0.009466,-0.881214,-0.472623,-0.007197,0.030643,-0.010882,-5.825202,-29.475016,-33.698746,,,,,,,
1558971387.513175,-0.021819,1.078477,-0.244812,0.028912,-0.016388,0.003882,-0.010312,-0.881239,-0.472559,-0.015231,0.028105,-0.012381,-5.897497,-29.453407,-33.705063,,,,,,,
1558971387.533173,-0.021608,1.078411,-0.243891,-0.027202,0.087532,0.029387,-0.010214,-0.881208,-0.472619,-0.014017,0.025495,-0.009879,-5.900638,-29.460875,-33.697987,,,,,,,
1558971387.553160,-0.020886,1.077053,-0.242515,-0.067659,0.086690,0.031482,-0.009898,-0.880565,-0.473822,0.003733,0.012859,0.012610,-5.843969,-29.416708,-33.746410,,,,,,,
1558971387.573147,-0.022201,1.076672,-0.240435,0.002198,-0.017207,0.070046,-0.010528,-0.880384,-0.474144,0.003280,0.028150,0.023690,-5.832591,-29.388075,-33.773315,,,,,,,
1558971387.593131,-0.026992,1.077733,-0.236290,0.079692,-0.064064,0.109163,-0.012775,-0.880887,-0.473154,0.003894,0.034329,0.026773,-5.865112,-29.388651,-33.767181,,,,,,,
1558971387.613108,-0.032576,1.079471,-0.230823,0.024482,-0.010891,0.130980,-0.015366,-0.881709,-0.471544,-0.004409,0.027201,0.030123,-6.020414,-29.458265,-33.679077,,,,,,,
1558971387.633105,-0.037914,1.078411,-0.223640,-0.106107,0.108229,0.164046,-0.017919,-0.881208,-0.472390,-0.010219,0.020825,0.019051,-6.103032,-29.428783,-33.689983,,,,,,,
1558971387.653078,-0.040448,1.074854,-0.216377,-0.203615,0.246182,0.183438,-0.019242,-0.879521,-0.475472,-0.015929,0.022999,0.008904,-6.109858,-29.377821,-33.733192,,,,,,,
1558971387.673057,-0.041433,1.069625,-0.208665,-0.218296,0.310725,0.176572,-0.019901,-0.877020,-0.480041,-0.014248,0.021857,-0.010911,-6.028116,-29.115330,-33.974613,,,,,,,
1558971387.693064,-0.043616,1.065013,-0.200470,-0.115301,0.239385,0.190920,-0.021125,-0.874795,-0.484032,-0.012231,0.024682,-0.020988,-5.964170,-28.922138,-34.150455,,,,,,,
1558971387.713024,-0.046967,1.063820,-0.192183,-0.021891,0.168105,0.211666,-0.022796,-0.874217,-0.485001,-0.010987,0.031413,-0.023773,-5.940736,-28.876591,-34.193054,,,,,,,
1558971387.733033,-0.050618,1.062908,-0.184801,-0.064486,0.130199,0.147212,-0.024607,-0.873773,-0.485710,0.003595,0.016031,-0.015663,-5.944823,-28.806736,-34.251221,,,,,,,
1558971387.753023,-0.051694,1.060907,-0.181090,-0.103887,0.095425,0.080653,-0.025220,-0.872799,-0.487428,0.018567,0.007488,-0.008406,-5.934807,-28.754711,-34.296638,,,,,,,
1558971387.772993,-0.052115,1.058986,-0.178188,-0.050840,0.069871,0.142373,-0.025512,-0.871859,-0.489092,0.021804,0.007998,-0.001570,-5.920952,-28.694948,-34.349052,,,,,,,
1558971387.792969,-0.057207,1.058832,-0.171350,0.026679,0.027230,0.174056,-0.028010,-0.871784,-0.489089,0.014445,-0.019909,0.007613,-5.941185,-28.623995,-34.404713,,,,,,,
1558971387.812981,-0.062931,1.059662,-0.164795,0.064904,-0.016355,0.142708,-0.030764,-0.872190,-0.488198,0.010302,-0.029803,0.006082,-6.005970,-28.627850,-34.390255,,,,,,,
1558971387.832960,-0.068593,1.061096,-0.159755,0.082813,-0.091557,0.102499,-0.033441,-0.872891,-0.486768,0.006525,-0.042560,0.004468,-6.076697,-28.648155,-34.360909,,,,,,,
1558971387.852936,-0.073400,1.063655,-0.156880,0.066816,-0.125376,0.049847,-0.035617,-0.874136,-0.484373,0.003680,-0.050302,0.000822,-6.256209,-28.712223,-34.275105,,,,,,,
1558971387.872940,-0.076510,1.064841,-0.155844,0.062720,-0.096883,0.004208,-0.037044,-0.874712,-0.483226,-0.000508,-0.047239,-0.003423,-6.346745,-28.791737,-34.191666,,,,,,,
1558971387.892926,-0.078243,1.066398,-0.155993,0.088294,-0.097045,-0.013924,-0.037775,-0.875465,-0.481803,-0.013495,-0.039513,0.005377,-6.393672,-28.826658,-34.153477,,,,,,,
1558971387.912915,-0.081636,1.069349,-0.155314,0.090392,-0.123535,-0.049407,-0.039199,-0.876888,-0.479094,-0.016969,-0.034810,0.006362,-6.506103,-28.939920,-34.036251,,,,,,,
1558971387.932900,-0.081541,1.071103,-0.158285,0.074468,-0.130917,-0.094331,-0.039027,-0.877729,-0.477565,-0.017247,-0.023134,0.011332,-6.551410,-29.006861,-33.970516,,,,,,,
1558971387.952885,-0.082807,1.073352,-0.160990,0.060451,-0.190051,-0.103449,-0.039469,-0.878805,-0.475546,-0.016149,-0.003122,0.013784,-6.610334,-29.077785,-33.898392,,,,,,,
1558971387.972844,-0.084336,1.075188,-0.164257,0.098605,-0.228263,-0.076025,-0.040060,-0.879680,-0.473876,-0.022776,0.006434,0.006866,-6.712426,-29.154440,-33.812378,,,,,,,
1558971387.992857,-0.088469,1.077548,-0.165193,0.130561,-0.222092,-0.077006,-0.041834,-0.880799,-0.471638,-0.022512,0.007508,0.000675,-6.862098,-29.231443,-33.715714,,,,,,,
1558971388.012844,-0.089819,1.080613,-0.168124,0.142429,-0.176712,-0.082968,-0.042229,-0.882247,-0.468889,-0.017631,0.001448,0.010622,-6.935295,-29.310928,-33.631622,,,,,,,
1558971388.032832,-0.091208,1.083363,-0.169787,0.067255,-0.062186,-0.100081,-0.042659,-0.883538,-0.466413,-0.048329,0.001916,0.026166,-7.042071,-29.447924,-33.489464,,,,,,,
1558971388.052812,-0.087593,1.084409,-0.174588,0.018300,-0.055577,-0.093651,-0.040892,-0.884027,-0.465643,-0.016131,-0.007849,-0.008463,-7.002649,-29.492035,-33.458900,,,,,,,
1558971388.072784,-0.087037,1.085250,-0.177251,0.069111,-0.127675,-0.062271,-0.040568,-0.884420,-0.464925,-0.047124,0.004858,0.019430,-6.988742,-29.512411,-33.443832,,,,,,,
1558971388.092791,-0.091271,1.087602,-0.176962,0.174350,-0.177930,-0.076543,-0.042347,-0.885515,-0.462676,-0.026898,-0.002394,-0.026337,-7.123623,-29.588089,-33.348373,,,,,,,
1558971388.112749,-0.094214,1.091127,-0.177941,0.196809,-0.150583,-0.086938,-0.043414,-0.887148,-0.459439,-0.018918,0.001619,-0.012348,-7.181641,-29.689367,-33.245758,,,,,,,
1558971388.132762,-0.093156,1.094470,-0.181333,0.126865,-0.057203,-0.090371,-0.042652,-0.888685,-0.456530,-0.020657,-0.006609,-0.013121,-7.254515,-29.774931,-33.153290,,,,,,,
1558971388.152750,-0.092178,1.095846,-0.183163,0.018429,-0.005870,-0.071815,-0.042093,-0.889315,-0.455353,-0.004813,0.002490,0.006226,-7.268292,-29.874397,-33.060658,,,,,,,
1558971388.172721,-0.089282,1.096049,-0.186878,0.028897,-0.055592,-0.063742,-0.040758,-0.889408,-0.455293,0.009874,0.018055,0.001237,-7.230832,-29.919003,-33.028519,,,,,,,
1558971388.192721,-0.089146,1.097890,-0.189205,0.123411,-0.120555,-0.055747,-0.040550,-0.890248,-0.453667,0.014427,0.035710,-0.008446,-7.217343,-29.948919,-33.004356,,,,,,,
1558971388.212708,-0.091050,1.101316,-0.190264,0.182877,-0.151479,-0.027169,-0.041136,-0.891803,-0.450549,0.023695,0.041614,-0.011914,-7.286210,-30.075134,-32.874191,,,,,,,
1558971388.232693,-0.091073,1.103899,-0.192094,0.131005,-0.058171,-0.015643,-0.040937,-0.892969,-0.448252,0.018918,0.021540,-0.006551,-7.356658,-30.190516,-32.752514,,,,,,,
1558971388.252680,-0.090409,1.104966,-0.192427,0.005776,0.059823,-0.010343,-0.040553,-0.893449,-0.447331,0.017757,0.014573,-0.002148,-7.328703,-30.224560,-32.727375,,,,,,,
1558971388.272645,-0.088795,1.104635,-0.192288,-0.009070,0.087417,0.012329,-0.039858,-0.893300,-0.447690,0.015871,0.015584,0.000165,-7.268340,-30.222576,-32.742668,,,,,,,
1558971388.292653,-0.085244,1.104759,-0.194400,0.058909,0.034181,-0.007346,-0.038258,-0.893356,-0.447718,0.011708,0.005188,-0.006323,-7.200886,-30.226883,-32.753593,,,,,,,
1558971388.312626,-0.083410,1.105983,-0.195880,0.074845,0.015040,-0.028870,-0.037346,-0.893905,-0.446698,0.007271,0.001678,-0.008045,-7.146076,-30.245796,-32.748135,,,,,,,
1558971388.332605,-0.080737,1.106705,-0.197991,0.036592,0.036381,-0.028698,-0.036100,-0.894229,-0.446153,0.006055,-0.004651,-0.005065,-7.097700,-30.294949,-32.713203,,,,,,,
1558971388.352612,-0.078071,1.107859,-0.199862,0.014239,0.039681,-0.021212,-0.034830,-0.894745,-0.445218,0.005517,-0.010163,0.007626,-7.056377,-30.310839,-32.707424,,,,,,,
1558971388.372572,-0.076695,1.108814,-0.200890,0.009876,0.004814,-0.026888,-0.034151,-0.895170,-0.444414,0.001421,-0.013185,0.014436,-7.006845,-30.345287,-32.686119,,,,,,,
1558971388.392579,-0.076638,1.109822,-0.201704,-0.000864,-0.035331,-0.049700,-0.034057,-0.895619,-0.443516,-0.017930,-0.018794,0.020039,-6.995402,-30.409595,-32.628757,,,,,,,
1558971388.412571,-0.077425,1.110392,-0.202366,0.033143,-0.056664,-0.058416,-0.034366,-0.895873,-0.442979,-0.023037,-0.004777,0.003938,-6.992834,-30.417234,-32.622185,,,,,,,
1558971388.432550,-0.078296,1.111400,-0.202932,0.045966,-0.039813,-0.053972,-0.034682,-0.896320,-0.442049,-0.008546,-0.008083,-0.006423,-7.054657,-30.450605,-32.577713,,,,,,,
1558971388.452515,-0.077598,1.111539,-0.204399,0.045970,-0.027094,-0.030362,-0.034364,-0.896382,-0.441949,-0.000015,0.003789,-0.014167,-7.063954,-30.480087,-32.548119,,,,,,,
1558971388.472512,-0.077258,1.115164,-0.205680,0.074459,-0.103342,-0.025732,-0.033962,-0.897983,-0.438718,0.004864,-0.014615,0.033399,-7.056562,-30.543034,-32.490658,,,,,,,
1558971388.492506,-0.080583,1.119070,-0.205907,0.078618,-0.142497,-0.041050,-0.035138,-0.899695,-0.435103,-0.004962,0.000067,0.043532,-7.121880,-30.657251,-32.368607,,,,,,,
1558971388.512482,-0.083129,1.119371,-0.206405,0.067002,-0.102235,-0.017185,-0.036223,-0.899826,-0.434742,-0.001420,0.004715,-0.022701,-7.239578,-30.744677,-32.259396,,,,,,,
1558971388.532488,-0.082818,1.119396,-0.207250,0.016267,0.001598,-0.031179,-0.036086,-0.899837,-0.434731,-0.005051,-0.004063,-0.039069,-7.262943,-30.733557,-32.264736,,,,,,,
1558971388.552474,-0.081179,1.119813,-0.209060,0.035429,-0.002747,-0.041881,-0.035343,-0.900019,-0.434415,0.008213,-0.010442,-0.026690,-7.245165,-30.742823,-32.259903,,,,,,,
1558971388.572461,-0.080130,1.120838,-0.210560,0.104488,-0.027371,-0.008966,-0.034814,-0.900465,-0.433533,0.012383,0.007353,-0.014237,-7.216438,-30.773979,-32.236633,,,,,,,
1558971388.592429,-0.081618,1.123153,-0.209417,0.108686,-0.034758,0.014455,-0.035288,-0.901470,-0.431401,0.014506,0.014278,-0.002117,-7.228747,-30.828754,-32.181484,,,,,,,
1558971388.612432,-0.081834,1.125628,-0.210530,0.066033,-0.083238,-0.040494,-0.035199,-0.902538,-0.429169,0.008847,-0.010609,0.026688,-7.250850,-30.879250,-32.128059,,,,,,,
1558971388.632421,-0.081693,1.127125,-0.212735,0.079839,-0.100247,-0.056661,-0.035028,-0.903182,-0.427827,-0.005011,0.005782,0.023758,-7.280743,-30.985573,-32.018742,,,,,,,
1558971388.652396,-0.081213,1.128779,-0.215624,0.063900,-0.101252,-0.078036,-0.034702,-0.903891,-0.426354,-0.014035,0.010336,0.012978,-7.309588,-31.046824,-31.952770,,,,,,,
1558971388.672392,-0.078926,1.129340,-0.219768,-0.000863,-0.056541,-0.093675,-0.033687,-0.904131,-0.425926,-0.016271,0.012605,0.009758,-7.314672,-31.070309,-31.928768,,,,,,,
1558971388.692380,-0.076745,1.129472,-0.223136,0.011964,-0.029089,-0.068845,-0.032749,-0.904187,-0.425880,0.006442,0.016202,0.003517,-7.292683,-31.093185,-31.911522,,,,,,,
1558971388.712362,-0.075198,1.130018,-0.225532,0.025747,-0.035471,-0.046475,-0.032052,-0.904420,-0.425438,0.018640,0.017167,0.007866,-7.274931,-31.114445,-31.894855,,,,,,,
1558971388.732351,-0.074714,1.130641,-0.227609,0.029810,-0.094684,-0.045971,-0.031804,-0.904686,-0.424891,0.024251,0.014854,0.009059,-7.273617,-31.126190,-31.883686,,,,,,,
1558971388.752338,-0.073904,1.131449,-0.231109,0.062625,-0.151908,-0.042222,-0.031406,-0.905030,-0.424187,0.017124,0.014374,-0.006614,-7.298190,-31.166620,-31.838547,,,,,,,
1558971388.772324,-0.073976,1.132606,-0.234228,0.092426,-0.156303,-0.049716,-0.031360,-0.905521,-0.423141,0.015170,0.012134,-0.011795,-7.346889,-31.205498,-31.789234,,,,,,,
1558971388.792307,-0.073175,1.134500,-0.237597,0.097951,-0.096088,-0.053407,-0.030895,-0.906323,-0.421455,0.014187,0.009655,-0.004158,-7.392389,-31.258678,-31.726372,,,,,,,
1558971388.812297,-0.071163,1.136074,-0.240775,0.062953,-0.046190,-0.030539,-0.029946,-0.906987,-0.420093,0.030617,0.003712,0.008457,-7.366129,-31.336414,-31.655714,,,,,,,
1558971388.832255,-0.068794,1.138363,-0.244045,0.071346,-0.070499,-0.000874,-0.028807,-0.907948,-0.418090,0.037383,-0.002589,0.022674,-7.328532,-31.416592,-31.584888,,,,,,,
1558971388.852249,-0.071574,1.140132,-0.243176,0.106263,-0.126678,0.016766,-0.029855,-0.908689,-0.416406,0.035333,-0.001590,0.024530,-7.352665,-31.439724,-31.556252,,,,,,,
1558971388.872254,-0.073101,1.144892,-0.245075,0.200638,-0.241340,0.010402,-0.030175,-0.910665,-0.412041,0.052010,-0.024485,0.042778,-7.369432,-31.558062,-31.433985,,,,,,,
1558971388.892232,-0.074806,1.152699,-0.249430,0.302422,-0.381446,-0.021825,-0.030345,-0.913863,-0.404887,0.068263,-0.046556,0.053035,-7.617771,-31.758070,-31.172256,,,,,,,
1558971388.912211,-0.082947,1.159286,-0.250264,0.324557,-0.463001,-0.054617,-0.033140,-0.916518,-0.398619,0.066008,-0.060121,0.044691,-7.617771,-31.758070,-31.172256,,,,,,,
1558971388.932207,-0.089084,1.166372,-0.253220,0.278789,-0.459579,-0.048217,-0.035007,-0.919329,-0.391930,0.046345,-0.088636,0.034767,-7.887917,-32.153179,-30.696396,,,,,,,
1558971388.952201,-0.098604,1.172447,-0.254012,0.338062,-0.559240,-0.041650,-0.038186,-0.921702,-0.386014,0.047311,-0.111196,0.021786,-8.244858,-32.467579,-30.268686,,,,,,,
1558971388.972181,-0.111730,1.182087,-0.255318,0.566130,-0.832191,-0.109207,-0.042257,-0.925399,-0.376631,0.053243,-0.128983,0.009169,-8.244858,-32.467579,-30.268686,,,,,,,
1558971388.992174,-0.128645,1.197311,-0.259841,0.874815,-1.208152,-0.213985,-0.046808,-0.931061,-0.361847,0.055674,-0.169967,0.015763,-8.816127,-32.918182,-29.613916,,,,,,,
1558971389.012159,-0.152425,1.220989,-0.266740,1.338560,-1.702289,-0.341122,-0.052037,-0.939439,-0.338743,0.065159,-0.194854,0.038724,-9.696684,-33.798229,-28.319054,,,,,,,
1558971389.032146,-0.184342,1.253829,-0.274929,1.717284,-2.134606,-0.423963,-0.057132,-0.950185,-0.306406,0.077319,-0.207423,0.035104,-9.696684,-33.798229,-28.319054,,,,,,,
1558971389.052133,-0.230536,1.290546,-0.275375,1.833290,-2.433190,-0.354128,-0.063202,-0.960986,-0.269279,0.050888,-0.271634,0.042365,-11.359727,-35.713921,-25.175129,,,,,,,
1558971389.072119,-0.293447,1.330495,-0.263880,2.065683,-2.690324,-0.432206,-0.068841,-0.971266,-0.227821,0.031655,-0.341554,0.032875,-12.324465,-36.721916,-23.193180,,,,,,,
1558971389.092104,-0.356722,1.375523,-0.256311,2.184941,-2.838394,-0.780513,-0.067758,-0.980995,-0.181819,0.015527,-0.344933,0.013698,-12.765574,-37.253948,-22.079369,,,,,,,
1558971389.112061,-0.403539,1.421192,-0.266413,1.999016,-2.823986,-0.988716,-0.058527,-0.988830,-0.137075,0.012339,-0.278763,0.055471,-13.575793,-38.878487,-18.506111,,,,,,,
1558971389.132072,-0.435193,1.462898,-0.289456,1.737631,-2.659772,-0.947851,-0.045400,-0.994185,-0.097651,0.041753,-0.230272,0.073084,-13.754589,-39.814430,-16.246143,,,,,,,
1558971389.152063,-0.450321,1.494857,-0.322968,1.119136,-2.252441,-0.744797,-0.033021,-0.997118,-0.068303,0.023027,-0.195311,0.056264,-13.796591,-40.205990,-15.213392,,,,,,,
1558971389.172050,-0.381841,1.513621,-0.430677,0.505274,-1.808392,-0.711144,-0.021294,-0.998366,-0.053029,-0.064903,-0.133592,0.037542,-13.806097,-40.958412,-13.042826,,,,,,,
1558971389.192008,-0.150899,1.524725,-0.696804,0.320447,-1.766451,-0.881715,-0.006923,-0.998939,-0.045532,-0.056950,-0.099984,0.019378,-13.621602,-41.268059,-12.235763,,,,,,,
1558971389.212021,0.276018,1.531910,-1.161579,0.480852,-1.909069,-0.972634,0.010595,-0.999244,-0.037405,-0.075765,-0.081673,-0.017298,-13.463743,-41.430637,-11.855178,,,,,,,
1558971389.232009,0.817089,1.530947,-1.740447,0.557849,-1.815446,-1.003705,0.029048,-0.999206,-0.027263,-0.084514,-0.061219,-0.040715,-12.883559,-41.977001,-10.500496,,,,,,,
1558971389.251974,1.191957,1.517969,-2.149017,0.352265,-1.559710,-1.060143,0.049058,-0.998605,-0.019528,-0.043519,-0.037131,-0.017062,-12.508608,-42.251453,-9.831814,,,,,,,
1558971389.271981,1.315641,1.498114,-2.301617,0.025051,-1.384712,-1.107842,0.070267,-0.997360,-0.018328,-0.027100,-0.026551,-0.008420,-11.896177,-42.570541,-9.194837,,,,,,,
1558971389.291967,1.341742,1.475212,-2.356217,-0.060190,-1.459475,-1.217526,0.092946,-0.995435,-0.021670,-0.051152,0.014692,-0.049558,-11.002151,-42.893349,-8.799342,,,,,,,
1558971389.311942,1.371640,1.449692,-2.416762,0.137804,-1.534752,-1.382505,0.118420,-0.992676,-0.023901,-0.066036,0.026383,-0.061319,-10.386276,-43.091602,-8.576350,,,,,,,
1558971389.331940,1.417763,1.422469,-2.493988,0.346576,-1.521138,-1.440929,0.146057,-0.989020,-0.022528,-0.057891,0.047583,-0.064402,-9.439609,-43.394272,-8.133008,,,,,,,
1558971389.351850,1.461296,1.396898,-2.568993,0.446341,-1.526673,-1.256199,0.171987,-0.984918,-0.018908,-0.001836,0.104684,-0.039289,-8.684603,-43.630177,-7.700680,,,,,,,
1558971389.371832,1.476575,1.376269,-2.612987,0.178456,-1.275353,-0.948661,0.192446,-0.981139,-0.018186,-0.051088,0.134231,-0.004458,-7.591195,-43.960239,-6.941638,,,,,,,
1558971389.391822,1.461990,1.361335,-2.618750,-0.131478,-0.858906,-0.633170,0.206703,-0.978143,-0.022580,-0.068016,0.144205,0.017438,-6.957197,-44.111336,-6.640991,,,,,,,
1558971389.411808,1.432860,1.350930,-2.603687,-0.232319,-0.679438,-0.429748,0.216028,-0.975927,-0.029989,-0.089365,0.137075,0.019567,-6.721595,-44.150764,-6.621563,,,,,,,
1558971389.431779,1.409542,1.343110,-2.592814,-0.152313,-0.589889,-0.346618,0.222796,-0.974191,-0.036241,-0.156695,0.084970,0.026949,-6.254266,-44.196983,-6.769480,,,,,,,
1558971389.451759,1.391857,1.336999,-2.585368,-0.120211,-0.487359,-0.233508,0.227974,-0.972794,-0.041235,-0.161873,0.083572,0.031942,-6.254266,-44.196983,-6.769480,,,,,,,
1558971389.471749,1.379705,1.333735,-2.583011,-0.007632,-0.519513,-0.133367,0.230572,-0.972032,-0.044605,-0.196606,0.071092,0.037006,-5.898804,-44.231224,-6.864230,,,,,,,
1558971389.491753,1.377131,1.329741,-2.590611,0.084249,-0.482154,-0.274933,0.234264,-0.971087,-0.045945,-0.228466,0.095308,0.045090,-5.810640,-44.255756,-6.780797,,,,,,,
1558971389.511738,1.381828,1.323571,-2.606253,0.131981,-0.570256,-0.354744,0.240358,-0.969595,-0.045969,-0.291567,0.128302,0.049631,-5.656178,-44.293098,-6.666632,,,,,,,
1558971389.531723,1.377827,1.317349,-2.615642,-0.023892,-0.685631,-0.302591,0.246089,-0.968054,-0.048086,-0.297740,0.171408,0.000265,-5.375586,-44.357224,-6.469535,,,,,,,
1558971389.551712,1.354313,1.312043,-2.603667,-0.305580,-0.508506,-0.181545,0.249903,-0.966710,-0.054961,-0.286509,0.194478,-0.017778,-5.228893,-44.367546,-6.518775,,,,,,,
1558971389.571683,1.316843,1.308138,-2.572454,-0.484977,-0.289602,-0.035461,0.251321,-0.965703,-0.065232,-0.214623,0.201497,-0.072982,-5.185604,-44.354198,-6.643023,,,,,,,
1558971389.591671,1.281603,1.306436,-2.538750,-0.406588,-0.037241,0.063106,0.250441,-0.965260,-0.074515,-0.139311,0.184452,-0.083062,-5.205002,-44.262592,-7.214291,,,,,,,
1558971389.611671,1.259993,1.306235,-2.514676,-0.237878,0.127844,0.077633,0.248957,-0.965207,-0.079969,-0.111735,0.182142,-0.071185,-5.269616,-44.203289,-7.524323,,,,,,,
1558971389.631652,1.250380,1.305194,-2.502187,-0.137743,0.095429,-0.042174,0.249131,-0.964935,-0.082675,-0.039170,0.169967,-0.030927,-5.286098,-44.175816,-7.672639,,,,,,,
1558971389.651644,1.250012,1.304101,-2.501698,0.059735,-0.059928,-0.039232,0.250101,-0.964647,-0.083099,0.011526,0.132707,-0.012467,-5.225877,-44.164082,-7.780660,,,,,,,
1558971389.671630,1.261797,1.304780,-2.516615,0.265927,-0.149778,-0.023913,0.250439,-0.964826,-0.079946,0.030078,0.124799,-0.009241,-5.213908,-44.189930,-7.640696,,,,,,,
1558971389.691587,1.279969,1.306766,-2.538226,0.298988,-0.103354,0.036346,0.250014,-0.965346,-0.074833,0.030458,0.102187,-0.005062,-5.223186,-44.223228,-7.439053,,,,,,,
1558971389.711592,1.295288,1.309781,-2.554696,0.208799,0.020905,0.113266,0.248329,-0.966129,-0.070202,0.021507,0.073962,0.005169,-5.299419,-44.266239,-7.122561,,,,,,,
1558971389.731589,1.303617,1.313696,-2.562119,0.108781,0.066989,0.185160,0.245255,-0.967131,-0.067132,0.014754,0.045302,0.016702,-5.421422,-44.274517,-6.977840,,,,,,,
1558971389.751568,1.307130,1.318050,-2.564952,0.086184,0.002661,0.205879,0.241422,-0.968229,-0.065172,-0.005200,0.019209,0.020281,-5.542703,-44.269131,-6.916457,,,,,,,
1558971389.771532,1.309191,1.322006,-2.568176,0.092393,-0.077760,0.154936,0.237854,-0.969211,-0.063683,-0.022552,0.003177,0.013344,-5.762683,-44.256664,-6.815735,,,,,,,
1558971389.791548,1.312107,1.324242,-2.573387,0.093451,-0.123359,0.059480,0.235943,-0.969759,-0.062435,-0.021679,-0.001936,-0.001637,-5.877772,-44.255440,-6.724778,,,,,,,
1558971389.811533,1.317282,1.325180,-2.581480,0.119053,-0.133093,0.001754,0.235382,-0.969988,-0.060985,-0.005966,-0.014433,-0.008488,-5.918795,-44.261532,-6.648308,,,,,,,
1558971389.831497,1.324589,1.326235,-2.591434,0.133012,-0.107838,-0.024683,0.234829,-0.970244,-0.059014,-0.008648,-0.004793,-0.001670,-5.932979,-44.283024,-6.490664,,,,,,,
1558971389.851482,1.331962,1.325948,-2.601046,0.089488,-0.084398,-0.053320,0.235528,-0.970174,-0.057347,0.002631,-0.010600,0.000416,-5.949544,-44.297707,-6.374222,,,,,,,
1558971389.871488,1.334340,1.324163,-2.604670,-0.011433,-0.035287,-0.081758,0.237347,-0.969740,-0.057192,0.006702,-0.005877,-0.001447,-5.914444,-44.309517,-6.324615,,,,,,,
1558971389.891479,1.333062,1.322472,-2.603598,-0.037949,-0.004489,-0.078282,0.238867,-0.969326,-0.057881,0.020197,-0.002919,-0.000041,-5.844269,-44.317959,-6.330723,,,,,,,
1558971389.911444,1.333158,1.319793,-2.603738,-0.041170,-0.012927,-0.077299,0.241396,-0.968664,-0.058470,0.012129,0.006917,0.004240,-5.739223,-44.324429,-6.381323,,,,,,,
1558971389.931421,1.334907,1.318299,-2.605767,-0.030671,-0.029802,-0.015530,0.242905,-0.968291,-0.058386,-0.002106,0.017303,0.006918,-5.624774,-44.339928,-6.375553,,,,,,,
1558971389.951438,1.330382,1.318876,-2.601827,-0.087148,-0.041111,-0.000734,0.242095,-0.968436,-0.059351,-0.012664,0.014243,0.002268,-5.608924,-44.341278,-6.380126,,,,,,,
1558971389.971424,1.312665,1.320611,-2.584586,-0.185023,-0.022632,-0.002765,0.239381,-0.968867,-0.063202,-0.039140,0.020045,-0.007340,-5.697043,-44.312191,-6.502936,,,,,,,
1558971389.991410,1.290683,1.321195,-2.561986,-0.255142,0.027438,0.012609,0.237390,-0.969011,-0.068292,-0.042611,0.021623,-0.007407,-5.864691,-44.263496,-6.683020,,,,,,,
1558971390.011397,1.272115,1.320364,-2.542311,-0.223298,0.012514,0.040250,0.236850,-0.968805,-0.072924,-0.022144,0.013315,-0.010373,-5.870670,-44.236694,-6.853086,,,,,,,
1558971390.031378,1.254282,1.321062,-2.524276,-0.126511,-0.004887,0.054042,0.234870,-0.968978,-0.076926,-0.027167,0.009566,-0.013025,-5.970387,-44.174164,-7.163268,,,,,,,
1558971390.051370,1.247441,1.321481,-2.517263,-0.049865,-0.010597,0.039101,0.233953,-0.969082,-0.078402,-0.025304,0.007259,-0.005567,-6.005340,-44.158089,-7.232841,,,,,,,
1558971390.071356,1.242164,1.322123,-2.512961,-0.014897,-0.068950,0.017219,0.232947,-0.969240,-0.079434,-0.009817,0.001543,-0.005329,-6.024444,-44.151432,-7.257544,,,,,,,
1558971390.091315,1.238731,1.322367,-2.510343,-0.038193,-0.026530,0.028282,0.232450,-0.969300,-0.080157,-0.009168,-0.015350,-0.007200,-6.093074,-44.135605,-7.296429,,,,,,,
1558971390.111329,1.234406,1.323078,-2.506139,-0.028628,-0.013841,0.065779,0.231450,-0.969474,-0.080934,-0.013524,-0.014214,-0.000304,-6.109109,-44.130714,-7.312582,,,,,,,
1558971390.131315,1.231176,1.324662,-2.503655,0.013807,-0.053158,0.076114,0.229739,-0.969862,-0.081169,0.008862,-0.022295,-0.003075,-6.215038,-44.112263,-7.334604,,,,,,,
1558971390.151302,1.227644,1.326441,-2.501509,0.030822,-0.063839,0.062146,0.227826,-0.970293,-0.081400,-0.002301,-0.029615,-0.015311,-6.303725,-44.100883,-7.327359,,,,,,,
1558971390.171287,1.222722,1.327691,-2.497123,-0.032754,-0.000170,0.005054,0.226282,-0.970595,-0.082106,-0.016489,-0.029405,-0.011980,-6.332281,-44.099182,-7.312952,,,,,,,
1558971390.191274,1.212976,1.327174,-2.487507,-0.041212,-0.002310,-0.041950,0.225941,-0.970471,-0.084483,0.000866,-0.023060,-0.020741,-6.409541,-44.073551,-7.399632,,,,,,,
1558971390.211260,1.210572,1.325573,-2.485750,0.021513,-0.039680,-0.072152,0.227192,-0.970083,-0.085574,0.007092,-0.024332,-0.025663,-6.369426,-44.065041,-7.484489,,,,,,,
1558971390.231246,1.212013,1.323903,-2.488345,0.063009,-0.044124,-0.071096,0.228830,-0.969676,-0.085815,0.011770,-0.020375,-0.028611,-6.340303,-44.071812,-7.469316,,,,,,,
1558971390.251233,1.214454,1.321212,-2.491860,0.110950,-0.017906,-0.041986,0.231484,-0.969015,-0.086166,0.025993,-0.007257,-0.026627,-6.236564,-44.081337,-7.500403,,,,,,,
1558971390.271219,1.225072,1.320081,-2.502678,0.130200,0.013719,-0.032064,0.233417,-0.968735,-0.084075,0.018917,-0.006317,-0.002763,-6.119275,-44.108868,-7.434885,,,,,,,
1558971390.291204,1.233555,1.319229,-2.510888,0.020648,0.016329,-0.085509,0.234901,-0.968524,-0.082365,0.004769,-0.006727,0.008878,-6.067748,-44.129364,-7.355054,,,,,,,
1558971390.311172,1.235307,1.317821,-2.512726,-0.043363,-0.017126,-0.063459,0.236332,-0.968172,-0.082402,-0.002811,0.011919,0.010487,-5.990445,-44.150372,-7.292051,,,,,,,
1558971390.331152,1.229855,1.316121,-2.507497,-0.113624,-0.013571,-0.052805,0.237430,-0.967745,-0.084239,-0.003757,0.017565,-0.006886,-5.918848,-44.151791,-7.341774,,,,,,,
1558971390.351155,1.218793,1.314359,-2.496210,-0.129571,0.009822,-0.016295,0.238084,-0.967300,-0.087448,-0.002275,0.021697,-0.024856,-5.885607,-44.143944,-7.415314,,,,,,,
1558971390.371143,1.210359,1.313484,-2.487063,-0.132745,0.023605,0.000917,0.238129,-0.967078,-0.089751,0.005462,0.004507,-0.042268,-5.863147,-44.113110,-7.613917,,,,,,,
1558971390.391137,1.195223,1.311347,-2.471031,-0.149671,0.044792,-0.026655,0.238666,-0.966531,-0.094103,0.008633,-0.007574,-0.056913,-5.844292,-44.080589,-7.814160,,,,,,,
1558971390.411113,1.187349,1.309812,-2.462248,-0.123126,0.021389,-0.033263,0.239293,-0.966136,-0.096535,0.011134,-0.015324,-0.064629,-5.828692,-44.070629,-7.881663,,,,,,,
1558971390.431106,1.169557,1.307002,-2.443901,-0.154961,0.043717,-0.056565,0.240037,-0.965407,-0.101837,0.001006,-0.033692,-0.105469,-5.786489,-44.022781,-8.174753,,,,,,,
1558971390.451095,1.159496,1.304108,-2.431827,-0.239889,0.104382,-0.077406,0.241560,-0.964649,-0.105363,-0.005598,-0.028363,-0.161345,-5.718502,-44.000320,-8.341789,,,,,,,
1558971390.471067,1.142409,1.300140,-2.411097,-0.399363,0.170775,-0.064086,0.243204,-0.963596,-0.111064,-0.032023,-0.020490,-0.232823,-5.654161,-43.972118,-8.532186,,,,,,,
1558971390.491043,1.114623,1.294371,-2.377126,-0.621366,0.314636,-0.065022,0.245011,-0.962037,-0.120225,-0.068772,-0.005584,-0.280395,-5.539734,-43.880817,-9.060896,,,,,,,
1558971390.511055,1.080983,1.286478,-2.331987,-0.791903,0.571328,-0.065905,0.247522,-0.959853,-0.131966,-0.063104,0.019683,-0.310920,-5.402012,-43.757973,-9.714571,,,,,,,
1558971390.531034,1.047059,1.277573,-2.282494,-0.844662,0.727032,-0.034563,0.250296,-0.957317,-0.144555,-0.070303,0.069881,-0.321128,-5.270693,-43.640839,-10.296224,,,,,,,
1558971390.551010,1.018309,1.268347,-2.235779,-0.803795,0.841993,-0.060121,0.253545,-0.954610,-0.156319,-0.108479,0.136418,-0.316063,-5.024672,-43.420151,-11.303009,,,,,,,
1558971390.571013,0.998510,1.258227,-2.195939,-0.771403,0.946354,-0.135967,0.258509,-0.951546,-0.166531,-0.133158,0.213372,-0.307529,-4.742457,-43.244526,-12.072081,,,,,,,
1558971390.590995,0.986065,1.247571,-2.161950,-0.704085,1.016796,-0.152321,0.264856,-0.948216,-0.175322,-0.116358,0.288929,-0.289796,-4.467281,-43.113823,-12.631577,,,,,,,
1558971390.610986,0.982067,1.239238,-2.135174,-0.500557,1.115196,-0.077549,0.270715,-0.945536,-0.180761,-0.069605,0.327860,-0.254496,-3.985900,-42.913525,-13.448298,,,,,,,
1558971390.630971,0.993864,1.235314,-2.121630,-0.163685,1.295329,-0.012564,0.275936,-0.944252,-0.179577,-0.052517,0.338493,-0.180774,-3.612629,-42.814899,-13.861752,,,,,,,
1558971390.650957,1.017722,1.236197,-2.118322,0.026933,1.376966,0.116488,0.279432,-0.944542,-0.172505,-0.098737,0.363686,-0.082637,-3.348494,-42.794067,-13.991797,,,,,,,
1558971390.670945,1.038935,1.238943,-2.111263,-0.093398,1.403095,0.203121,0.280792,-0.945440,-0.165224,-0.077438,0.370794,-0.024092,-3.014219,-42.783890,-14.098518,,,,,,,
1558971390.690930,1.052600,1.242411,-2.094988,-0.125280,1.484867,0.346943,0.280173,-0.946564,-0.159746,-0.047782,0.385117,-0.002561,-2.818282,-42.731609,-14.296212,,,,,,,
1558971390.710917,1.067670,1.250736,-2.079703,0.095840,1.499899,0.574672,0.275635,-0.949216,-0.151701,-0.038300,0.381056,0.039289,-2.756140,-42.695667,-14.415222,,,,,,,
1558971390.730904,1.093404,1.265754,-2.074560,0.371359,1.529381,0.760946,0.266755,-0.953834,-0.137993,-0.052186,0.376243,0.119758,-2.877471,-42.714493,-14.335527,,,,,,,
1558971390.750884,1.124808,1.284755,-2.076536,0.467783,1.441296,0.863742,0.254557,-0.959368,-0.121708,-0.067072,0.360064,0.206165,-3.066218,-42.766792,-14.139120,,,,,,,
1558971390.770876,1.153994,1.303887,-2.078540,0.403501,1.321151,0.875352,0.241171,-0.964591,-0.106777,-0.054114,0.346625,0.225551,-3.314293,-42.823017,-13.911127,,,,,,,
1558971390.790863,1.178145,1.325806,-2.078161,0.442007,1.157485,1.110835,0.224089,-0.970140,-0.092808,-0.104155,0.331575,0.308598,-3.960016,-42.895386,-13.513672,,,,,,,
1558971390.810835,1.199289,1.352641,-2.077362,0.522303,1.074946,1.332180,0.201665,-0.976298,-0.078568,-0.158361,0.342494,0.359605,-4.482584,-42.914288,-13.288529,,,,,,,
1558971390.830834,1.217876,1.382566,-2.073560,0.433922,1.117859,1.445690,0.175588,-0.982337,-0.064676,-0.165639,0.353141,0.397593,-5.123715,-42.920933,-13.032886,,,,,,,
1558971390.850822,1.205336,1.412113,-2.040633,0.151014,0.900647,1.514917,0.147583,-0.987436,-0.056473,-0.114318,0.300501,0.476410,-6.573581,-42.815449,-12.725578,,,,,,,
1558971390.870795,1.140009,1.441196,-1.960459,-0.018280,0.603587,1.600553,0.117431,-0.991614,-0.053968,-0.216033,0.253683,0.587354,-7.692656,-42.614681,-12.772109,,,,,,,
1558971390.890793,0.989308,1.468638,-1.798908,-0.284089,0.406367,1.668917,0.085220,-0.994786,-0.056015,-0.208434,0.262746,0.590316,-8.618423,-42.405560,-12.876574,,,,,,,
1558971390.910763,0.669856,1.485646,-1.474047,-0.671562,0.064817,1.630105,0.052803,-0.996377,-0.066669,-0.125893,0.207971,0.559406,-10.254077,-41.885357,-13.371078,,,,,,,
1558971390.930762,0.237729,1.489767,-1.042582,-0.463932,-0.187667,1.748499,0.019061,-0.996719,-0.078664,-0.064258,0.115142,0.524053,-11.282943,-41.483040,-13.790112,,,,,,,
1558971390.950752,-0.216665,1.485784,-0.592439,-0.136811,-0.356210,1.872062,-0.018253,-0.996389,-0.082925,-0.159679,0.048848,0.577340,-12.801487,-40.943924,-14.072378,,,,,,,
1558971390.970738,-0.554284,1.467155,-0.264077,-0.396242,-0.664803,1.703415,-0.054453,-0.994634,-0.087967,-0.202582,-0.033595,0.605469,-14.805470,-40.244137,-14.125239,,,,,,,
1558971390.990724,-0.742374,1.439034,-0.091410,-0.506617,-0.909522,1.655075,-0.088819,-0.991332,-0.096810,-0.217563,-0.172395,0.549935,-16.353193,-39.589756,-14.266726,,,,,,,
1558971391.010693,-0.879896,1.410134,0.027355,-0.279201,-1.048200,1.606954,-0.123286,-0.987122,-0.101939,-0.224645,-0.213638,0.548564,-17.534624,-39.071396,-14.292583,,,,,,,
1558971391.030685,-0.994263,1.384215,0.120117,-0.031521,-1.213536,1.474249,-0.155516,-0.982644,-0.101120,-0.288988,-0.305137,0.528550,-19.436859,-38.270882,-13.995105,,,,,,,
1558971391.050685,-1.092507,1.359675,0.193324,-0.013882,-1.388153,1.395721,-0.186040,-0.977797,-0.096451,-0.321772,-0.337908,0.506820,-20.884890,-37.689751,-13.476612,,,,,,,
1558971391.070669,-1.163193,1.334233,0.235508,-0.186640,-1.519491,1.315319,-0.215162,-0.972149,-0.092904,-0.300386,-0.358890,0.487816,-21.593359,-37.390388,-13.190928,,,,,,,
1558971391.090652,-1.208972,1.308535,0.250627,-0.394232,-1.570343,1.215375,-0.242478,-0.965806,-0.091775,-0.295043,-0.484954,0.444543,-23.626503,-36.421631,-12.392252,,,,,,,
1558971391.110643,-1.234686,1.284672,0.243519,-0.560397,-1.694498,1.013336,-0.266444,-0.959345,-0.093086,-0.344015,-0.530874,0.383080,-24.837311,-35.758400,-11.948221,,,,,,,
1558971391.130618,-1.256477,1.264517,0.226423,-0.533562,-2.051182,0.792143,-0.286741,-0.953462,-0.093219,-0.317812,-0.568389,0.335773,-25.393284,-35.443218,-11.716408,,,,,,,
1558971391.150589,-1.285319,1.248219,0.209135,-0.505647,-2.368648,0.647130,-0.304182,-0.948421,-0.089276,-0.325075,-0.607349,0.177060,-26.917862,-34.654026,-10.622722,,,,,,,
1558971391.170602,-1.303865,1.233913,0.178746,-0.793769,-2.328244,0.499950,-0.318841,-0.943789,-0.087190,-0.350119,-0.641950,0.081132,-27.808502,-34.209072,-9.733521,,,,,,,
1558971391.190587,-1.303464,1.221684,0.131261,-0.988755,-2.156294,0.291113,-0.329913,-0.939677,-0.090359,-0.339261,-0.644002,0.001233,-28.366211,-33.894768,-9.209652,,,,,,,
1558971391.210575,-1.297086,1.214229,0.077911,-0.965167,-2.236123,0.003171,-0.336066,-0.937100,-0.094353,-0.327752,-0.636584,-0.081047,-29.030212,-33.519764,-8.484520,,,,,,,
1558971391.230561,-1.295753,1.212206,0.026599,-0.845980,-2.359732,-0.244543,-0.337764,-0.936392,-0.095315,-0.356282,-0.630273,-0.179114,-29.348501,-33.419113,-7.755207,,,,,,,
1558971391.250516,-1.293815,1.216111,-0.024026,-0.782223,-2.203005,-0.535528,-0.334059,-0.937756,-0.094969,-0.353213,-0.639408,-0.253893,-29.449074,-33.468044,-7.138422,,,,,,,
1558971391.270533,-1.284265,1.225511,-0.078840,-0.768552,-2.054444,-0.807413,-0.324666,-0.940979,-0.095659,-0.333506,-0.556565,-0.316175,-29.297054,-33.785801,-6.206225,,,,,,,
1558971391.290497,-1.268115,1.239084,-0.137082,-0.720886,-1.889026,-0.996900,-0.310858,-0.945486,-0.097074,-0.299494,-0.507425,-0.356326,-29.038591,-34.094906,-5.710748,,,,,,,
1558971391.310506,-1.243001,1.255154,-0.200531,-0.699678,-1.646207,-1.119474,-0.293899,-0.950597,-0.099944,-0.312638,-0.472178,-0.367707,-28.682625,-34.465893,-5.265360,,,,,,,
1558971391.330493,-1.207508,1.273037,-0.268002,-0.634602,-1.329610,-1.229562,-0.274231,-0.955996,-0.104252,-0.275605,-0.424466,-0.412883,-27.735188,-35.322308,-4.626969,,,,,,,
1558971391.350470,-1.156953,1.292654,-0.346787,-0.704274,-1.229079,-1.398411,-0.251392,-0.961567,-0.110413,-0.294415,-0.358929,-0.410201,-27.146248,-35.800880,-4.437682,,,,,,,
1558971391.370464,-1.078270,1.313136,-0.453610,-0.892247,-1.194592,-1.617100,-0.224531,-0.966989,-0.120492,-0.311937,-0.309836,-0.411857,-26.470245,-36.317085,-4.325544,,,,,,,
1558971391.390452,-0.970672,1.332326,-0.587950,-0.904560,-1.093181,-1.701551,-0.194942,-0.971700,-0.133402,-0.251775,-0.222681,-0.435903,-24.834845,-37.446785,-4.391325,,,,,,,
1558971391.410429,-0.838652,1.349115,-0.743383,-0.863280,-0.884251,-1.796674,-0.163527,-0.975529,-0.146975,-0.255602,-0.141521,-0.437085,-23.932690,-38.015366,-4.513690,,,,,,,
1558971391.430423,-0.675683,1.362798,-0.926087,-0.823162,-0.721878,-1.928544,-0.129153,-0.978446,-0.161129,-0.273099,-0.098840,-0.440372,-22.961506,-38.587852,-4.696983,,,,,,,
1558971391.450411,-0.487427,1.371568,-1.131896,-0.744095,-0.663202,-1.996248,-0.092694,-0.980220,-0.174865,-0.215610,0.025035,-0.467927,-21.543587,-39.358021,-5.013477,,,,,,,
1558971391.470373,-0.293835,1.375134,-1.342288,-0.533196,-0.600817,-1.947438,-0.056308,-0.980919,-0.186084,-0.183911,0.118416,-0.501172,-19.272530,-40.460716,-5.460291,,,,,,,
1558971391.490382,-0.108655,1.374640,-1.540324,-0.345127,-0.334225,-1.842242,-0.021135,-0.980823,-0.193751,-0.207350,0.141559,-0.489766,-18.145830,-40.959755,-5.598411,,,,,,,
1558971391.510369,0.064914,1.369099,-1.719638,-0.317561,0.011454,-1.720402,0.012995,-0.979728,-0.199911,-0.195902,0.191093,-0.476282,-17.038042,-41.415340,-5.726207,,,,,,,
1558971391.530341,0.218946,1.358131,-1.873658,-0.315930,0.238882,-1.599715,0.045844,-0.977472,-0.206027,-0.158392,0.265512,-0.428449,-14.894806,-42.175636,-6.138004,,,,,,,
1558971391.550339,0.349669,1.343575,-2.001037,-0.298577,0.375271,-1.515120,0.077175,-0.974296,-0.211639,-0.190227,0.284019,-0.412552,-13.872864,-42.484707,-6.395972,,,,,,,
1558971391.570307,0.464525,1.326687,-2.109414,-0.252380,0.519890,-1.480601,0.108278,-0.970353,-0.216081,-0.170289,0.318360,-0.364409,-12.194080,-42.928234,-6.840049,,,,,,,
1558971391.590314,0.564434,1.309393,-2.200518,-0.157479,0.618913,-1.371745,0.138247,-0.966028,-0.218351,-0.155993,0.342768,-0.334918,-10.871788,-43.231110,-7.154740,,,,,,,
1558971391.610288,0.647795,1.292419,-2.272551,-0.168991,0.753457,-1.208184,0.165820,-0.961503,-0.219127,-0.163959,0.354767,-0.320439,-10.240200,-43.363125,-7.286456,,,,,,,
1558971391.630263,0.711988,1.275139,-2.321181,-0.267635,0.958296,-0.994909,0.190363,-0.956611,-0.220585,-0.129786,0.401923,-0.277935,-8.525065,-43.651962,-7.755296,,,,,,,
1558971391.650244,0.762808,1.258679,-2.351224,-0.339450,1.206257,-0.831378,0.212174,-0.951686,-0.221983,-0.110474,0.413661,-0.234224,-7.548269,-43.754917,-8.175947,,,,,,,
1558971391.670255,0.805972,1.243368,-2.368802,-0.340222,1.365041,-0.678253,0.232042,-0.946873,-0.222685,-0.115160,0.413746,-0.206392,-7.089892,-43.785793,-8.417391,,,,,,,
1558971391.690231,0.842039,1.230882,-2.378017,-0.286239,1.362939,-0.479648,0.248722,-0.942783,-0.222030,-0.101582,0.429416,-0.158860,-5.875554,-43.824932,-9.119664,,,,,,,
1558971391.710231,0.875113,1.223658,-2.384132,-0.067206,1.385363,-0.263593,0.261149,-0.940350,-0.218043,-0.081324,0.403210,-0.130727,-5.276946,-43.829399,-9.457920,,,,,,,
1558971391.730191,0.914445,1.221410,-2.394429,0.125893,1.551475,-0.183910,0.271195,-0.939583,-0.208895,-0.075410,0.374214,-0.107557,-5.036868,-43.838654,-9.545547,,,,,,,
1558971391.750205,0.961534,1.220145,-2.409489,0.193453,1.690606,-0.210283,0.281702,-0.939149,-0.196578,-0.074808,0.308610,0.021010,-4.329206,-43.902458,-9.599317,,,,,,,
1558971391.770191,1.010254,1.219631,-2.425153,0.222074,1.693755,-0.123751,0.291350,-0.938973,-0.182882,-0.075743,0.273705,0.117971,-3.835114,-43.957016,-9.559685,,,,,,,
1558971391.790176,1.055762,1.221328,-2.439075,0.258721,1.557368,-0.016127,0.297981,-0.939555,-0.168653,-0.067253,0.249110,0.152494,-3.628000,-43.982742,-9.522137,,,,,,,
1558971391.810136,1.096681,1.223844,-2.451675,0.256049,1.407369,0.024074,0.302526,-0.940413,-0.155243,-0.047003,0.223327,0.218826,-3.303596,-44.032524,-9.409470,,,,,,,
1558971391.830134,1.139483,1.227829,-2.468239,0.396241,1.334836,0.077942,0.305486,-0.941761,-0.140588,-0.040959,0.180500,0.278802,-2.953861,-44.108868,-9.165022,,,,,,,
1558971391.850123,1.185701,1.232548,-2.490831,0.452210,1.187582,0.054156,0.307532,-0.943337,-0.124653,-0.033195,0.167321,0.307591,-2.868677,-44.143883,-9.022392,,,,,,,
1558971391.870094,1.233559,1.237475,-2.517938,0.546505,1.068753,0.089394,0.308754,-0.944961,-0.108259,-0.032829,0.102844,0.437254,-2.644780,-44.261597,-8.498896,,,,,,,
1558971391.890082,1.281940,1.242588,-2.549689,0.567978,0.790612,0.066464,0.308993,-0.946621,-0.091823,-0.000002,0.083600,0.481150,-2.561328,-44.350224,-8.050584,,,,,,,
1558971391.910093,1.320587,1.246039,-2.579357,0.452754,0.376832,0.042126,0.309143,-0.947728,-0.079006,0.016770,0.083470,0.465481,-2.528050,-44.393120,-7.821435,,,,,,,
1558971391.930081,1.345806,1.249486,-2.599725,0.294786,0.289007,0.131909,0.307850,-0.948823,-0.070456,-0.005390,0.064225,0.389014,-2.517203,-44.486641,-7.274454,,,,,,,
1558971391.950049,1.359453,1.254298,-2.607283,0.078695,0.342109,0.248617,0.304316,-0.950331,-0.065290,-0.014521,0.056471,0.351240,-2.632891,-44.509220,-7.093099,,,,,,,
1558971391.970040,1.358649,1.259003,-2.599706,-0.126940,0.283995,0.246829,0.299888,-0.951785,-0.064593,-0.004860,0.053561,0.325411,-2.721486,-44.505703,-7.081737,,,,,,,
1558971391.990040,1.353166,1.263632,-2.589689,-0.046509,0.154661,0.276617,0.295224,-0.953195,-0.065284,-0.005063,0.037286,0.239661,-3.002054,-44.461578,-7.243685,,,,,,,
1558971392.010025,1.356267,1.269274,-2.591668,0.153172,0.004521,0.242243,0.290167,-0.954885,-0.063222,-0.027227,0.020987,0.206533,-3.234804,-44.449970,-7.214637,,,,,,,
1558971392.030012,1.362817,1.272953,-2.599890,0.136034,-0.092847,0.099300,0.287135,-0.955972,-0.060594,-0.028926,0.007501,0.189058,-3.336342,-44.454094,-7.142657,,,,,,,
1558971392.049999,1.364833,1.274381,-2.604199,0.040222,-0.120966,0.043436,0.285920,-0.956390,-0.059736,-0.025209,-0.010743,0.128553,-3.486485,-44.469616,-6.972301,,,,,,,
1558971392.069985,1.360193,1.275257,-2.602128,-0.056696,-0.127829,0.061443,0.284821,-0.956645,-0.060887,-0.006028,-0.010396,0.088551,-3.544426,-44.466995,-6.959763,,,,,,,
1558971392.089970,1.349459,1.276561,-2.592866,-0.151308,-0.070192,0.102489,0.282933,-0.957024,-0.063667,-0.003911,-0.007621,0.077720,-3.583925,-44.459625,-6.986574,,,,,,,
1558971392.109942,1.335758,1.277393,-2.579060,-0.188297,-0.003455,0.070001,0.281260,-0.957265,-0.067352,-0.000910,-0.011683,0.046355,-3.681820,-44.432819,-7.105174,,,,,,,
1558971392.129944,1.325900,1.277616,-2.569089,-0.096801,-0.036762,0.030252,0.280375,-0.957330,-0.070069,-0.015498,-0.009666,0.029527,-3.771866,-44.388622,-7.330656,,,,,,,
1558971392.149900,1.320899,1.277321,-2.566189,-0.019396,-0.154582,-0.026331,0.280295,-0.957244,-0.071540,-0.019003,-0.003052,0.020439,-3.771866,-44.388622,-7.330656,,,,,,,
1558971392.169906,1.318567,1.276518,-2.567579,0.022010,-0.193930,-0.040554,0.280871,-0.957012,-0.072386,-0.004489,-0.003315,0.011198,-3.790084,-44.378761,-7.380772,,,,,,,
1558971392.189902,1.316377,1.276326,-2.568920,0.012508,-0.149419,0.004706,0.280890,-0.956956,-0.073047,-0.006644,-0.000442,0.011386,-3.787176,-44.386127,-7.337828,,,,,,,
1558971392.209867,1.315238,1.277139,-2.569470,0.017065,-0.039452,0.046332,0.280054,-0.957192,-0.073170,-0.004541,-0.001091,0.013416,-3.787176,-44.386127,-7.337828,,,,,,,
1558971392.229873,1.314492,1.277480,-2.568663,-0.026340,0.011442,-0.001260,0.279683,-0.957290,-0.073296,-0.010045,-0.011444,0.026162,-3.856822,-44.384697,-7.310147,,,,,,,
1558971392.249851,1.311453,1.276740,-2.565650,-0.054123,-0.038148,-0.039124,0.280144,-0.957076,-0.074327,-0.011925,-0.009522,0.027986,-3.848669,-44.380821,-7.337940,,,,,,,
1558971392.269831,1.317718,1.276204,-2.573745,0.018936,-0.155848,-0.031652,0.281101,-0.956921,-0.072699,0.007763,-0.016712,0.023200,-3.802115,-44.396011,-7.270037,,,,,,,
1558971392.289835,1.326151,1.277076,-2.585619,0.026270,-0.187575,-0.017000,0.280894,-0.957173,-0.070124,-0.004344,-0.013698,0.012446,-3.785642,-44.416935,-7.149819,,,,,,,
1558971392.309820,1.325519,1.278052,-2.588014,-0.042828,-0.148062,0.010017,0.279943,-0.957456,-0.070075,0.003809,-0.005206,0.006919,-3.873666,-44.424461,-7.055273,,,,,,,
1558971392.329806,1.319227,1.277724,-2.584270,-0.040680,-0.129004,0.039025,0.279801,-0.957361,-0.071913,0.012069,-0.007666,-0.001299,-3.873666,-44.424461,-7.055273,,,,,,,
1558971392.349793,1.312974,1.279799,-2.579760,-0.032958,-0.058264,0.013023,0.277425,-0.957958,-0.073154,-0.016270,-0.014011,0.000172,-3.947065,-44.410564,-7.101952,,,,,,,
1558971392.369779,1.310142,1.280132,-2.577926,-0.043571,-0.069905,-0.033003,0.276908,-0.958054,-0.073858,-0.010032,-0.012710,0.005437,-4.005476,-44.401360,-7.126722,,,,,,,
1558971392.389765,1.305230,1.279463,-2.574991,-0.057474,-0.109005,-0.076092,0.277160,-0.957862,-0.075385,-0.011825,-0.012185,0.000785,-4.028460,-44.399128,-7.127683,,,,,,,
1558971392.409752,1.297500,1.278534,-2.569567,-0.039446,-0.121762,-0.060182,0.277426,-0.957595,-0.077765,-0.007040,-0.000612,-0.008096,-4.020248,-44.388557,-7.197842,,,,,,,
1558971392.429724,1.293794,1.277642,-2.568119,-0.005300,-0.087031,-0.040604,0.277957,-0.957337,-0.079027,-0.002948,-0.000198,-0.009444,-4.016008,-44.384731,-7.223718,,,,,,,
1558971392.449724,1.290980,1.277053,-2.566298,-0.021139,-0.032992,-0.008070,0.278276,-0.957167,-0.079964,-0.001100,-0.000078,-0.006599,-4.004107,-44.380028,-7.259145,,,,,,,
1558971392.469710,1.286747,1.277046,-2.562334,0.007686,0.012369,0.032957,0.277941,-0.957165,-0.081143,-0.000552,0.013622,-0.008243,-4.007080,-44.374073,-7.293789,,,,,,,
1558971392.489691,1.291614,1.276924,-2.566482,0.009920,0.024981,-0.007494,0.278445,-0.957129,-0.079822,0.005613,0.014045,0.016070,-4.011780,-44.372612,-7.300141,,,,,,,
1558971392.509683,1.290555,1.275970,-2.565729,-0.041325,-0.040349,-0.050866,0.279238,-0.956853,-0.080369,-0.000628,0.018330,0.019074,-3.975856,-44.380306,-7.272986,,,,,,,
1558971392.529669,1.288926,1.274017,-2.564805,-0.039216,-0.040341,-0.038056,0.280901,-0.956283,-0.081343,0.006025,0.022323,-0.001497,-3.911453,-44.380619,-7.305921,,,,,,,
1558971392.549627,1.287394,1.272506,-2.563986,-0.008366,-0.035181,-0.013429,0.282163,-0.955840,-0.082177,0.013781,0.025573,-0.001960,-3.827027,-44.381474,-7.345314,,,,,,,
1558971392.569623,1.288236,1.272160,-2.565316,0.036341,-0.009964,0.042363,0.282550,-0.955739,-0.082032,0.012860,0.029408,-0.002013,-3.826228,-44.381657,-7.344633,,,,,,,
1558971392.589616,1.290141,1.272618,-2.566973,-0.007218,0.023057,0.058656,0.282285,-0.955873,-0.081373,0.002917,0.024706,0.007428,-3.825010,-44.386864,-7.313723,,,,,,,
1558971392.609595,1.288383,1.272930,-2.564254,-0.077409,0.030787,0.033050,0.281855,-0.955965,-0.081786,0.003453,0.012850,0.014616,-3.830825,-44.384842,-7.322950,,,,,,,
1558971392.629575,1.283109,1.273258,-2.558856,-0.063782,-0.029521,0.042092,0.281119,-0.956061,-0.083182,0.009561,0.013007,0.021185,-3.843821,-44.377838,-7.358497,,,,,,,
1558971392.649578,1.279821,1.273065,-2.555837,-0.062676,-0.018963,0.037921,0.281021,-0.956004,-0.084159,0.004699,0.012569,0.002707,-3.862123,-44.369244,-7.400631,,,,,,,
1558971392.669573,1.273314,1.273354,-2.549391,0.010821,0.013472,0.074589,0.280204,-0.956089,-0.085905,-0.006018,0.011173,-0.008807,-3.895293,-44.348721,-7.505509,,,,,,,
1558971392.689532,1.275396,1.275399,-2.550988,0.081143,0.034244,0.075912,0.278510,-0.956687,-0.084752,-0.009116,0.011725,-0.005291,-3.895293,-44.348721,-7.505509,,,,,,,
1558971392.709518,1.276874,1.277404,-2.552488,0.059817,-0.001667,0.020037,0.276799,-0.957268,-0.083784,-0.011204,0.010552,-0.007418,-4.022167,-44.345093,-7.459877,,,,,,,
1558971392.729533,1.277034,1.277810,-2.553110,0.057704,-0.004856,0.000788,0.276440,-0.957386,-0.083627,-0.008313,0.010471,-0.009940,-4.082576,-44.347260,-7.414072,,,,,,,
1558971392.749509,1.282994,1.278627,-2.558964,0.123795,0.030758,0.016129,0.276184,-0.957621,-0.081756,-0.004211,0.009623,-0.007172,-4.082576,-44.347260,-7.414072,,,,,,,
1558971392.769485,1.296843,1.278861,-2.572382,0.174915,0.041071,0.023738,0.277073,-0.957689,-0.077863,0.024593,0.006929,0.010770,-4.085336,-44.378868,-7.220881,,,,,,,
1558971392.789492,1.308051,1.280943,-2.583291,0.167378,0.041197,0.081386,0.276003,-0.958286,-0.074235,0.006438,0.006748,0.014649,-4.086747,-44.406013,-7.051212,,,,,,,
1558971392.809476,1.316280,1.283703,-2.590987,0.075740,0.031169,0.121787,0.274043,-0.959071,-0.071294,0.006276,-0.005742,0.019338,-4.123146,-44.413418,-6.983061,,,,,,,
1558971392.829465,1.323484,1.286977,-2.597297,0.002350,0.028356,0.086471,0.271504,-0.959993,-0.068550,-0.008290,-0.015135,0.022727,-4.271797,-44.425770,-6.813071,,,,,,,
1558971392.849451,1.320414,1.287701,-2.593831,-0.058315,0.004274,0.026404,0.270619,-0.960195,-0.069210,-0.013554,-0.016810,0.013852,-4.338805,-44.420166,-6.807280,,,,,,,
1558971392.869413,1.315777,1.287325,-2.589204,-0.065794,-0.026412,-0.021940,0.270644,-0.960090,-0.070556,-0.024352,-0.012139,0.007995,-4.347658,-44.415001,-6.835215,,,,,,,
1558971392.889400,1.312622,1.286601,-2.586992,-0.003048,-0.055318,-0.046721,0.271093,-0.959888,-0.071587,-0.002126,0.001498,-0.011299,-4.335482,-44.404610,-6.910083,,,,,,,
1558971392.909410,1.314538,1.286331,-2.590038,0.054425,-0.039706,-0.007023,0.271480,-0.959812,-0.071133,0.000035,0.007175,-0.017291,-4.315374,-44.408798,-6.895754,,,,,,,
1558971392.929395,1.318747,1.286789,-2.594161,0.067457,0.046927,0.010899,0.271351,-0.959940,-0.069880,-0.018818,0.008326,-0.016668,-4.313877,-44.414783,-6.858036,,,,,,,
1558971392.949382,1.327881,1.288367,-2.602504,0.115338,0.027609,-0.015936,0.270508,-0.960381,-0.067034,-0.014267,0.001061,0.017550,-4.339055,-44.428226,-6.754284,,,,,,,
1558971392.969367,1.335607,1.287654,-2.611130,0.089636,-0.051638,-0.087180,0.271684,-0.960182,-0.065102,-0.013764,0.000740,0.025246,-4.333413,-44.444233,-6.651834,,,,,,,
1558971392.989354,1.340729,1.286338,-2.617309,0.008800,-0.034307,-0.091348,0.273243,-0.959814,-0.063998,-0.011433,0.008672,0.019991,-4.280725,-44.458534,-6.590099,,,,,,,
1558971393.009341,1.343067,1.284453,-2.619603,-0.014576,0.006073,-0.030128,0.275154,-0.959283,-0.063767,0.015877,0.021096,0.006729,-4.180717,-44.475929,-6.536707,,,,,,,
1558971393.029320,1.342873,1.284435,-2.618927,-0.009220,0.038886,0.019303,0.275159,-0.959278,-0.063824,0.016284,0.023182,0.011136,-4.136305,-44.479897,-6.537946,,,,,,,
1558971393.049313,1.341343,1.285187,-2.616415,-0.040153,0.035930,0.054482,0.274358,-0.959490,-0.064081,0.016520,0.018938,0.019739,-4.145518,-44.477619,-6.547585,,,,,,,
1558971393.069300,1.336986,1.285108,-2.611593,-0.094537,-0.006107,0.026275,0.274150,-0.959468,-0.065293,0.010640,0.020350,0.008744,-4.201572,-44.461674,-6.619782,,,,,,,
1558971393.089277,1.332432,1.284737,-2.607111,-0.022198,-0.015988,0.034778,0.274196,-0.959363,-0.066625,0.013188,0.013715,-0.001109,-4.191655,-44.455311,-6.668617,,,,,,,
1558971393.109271,1.335289,1.285618,-2.610517,0.077792,-0.034471,0.042154,0.273562,-0.959612,-0.065644,0.006971,0.011858,0.004655,-4.192213,-44.452744,-6.685346,,,,,,,
1558971393.129259,1.342048,1.286441,-2.618371,0.050097,-0.059754,0.001319,0.273231,-0.959843,-0.063615,0.000237,0.000630,0.016556,-4.229797,-44.467335,-6.563514,,,,,,,
1558971393.149237,1.349504,1.286682,-2.626720,0.041610,-0.047007,0.013177,0.273472,-0.959910,-0.061525,0.010082,-0.009633,0.027559,-4.228041,-44.481400,-6.468696,,,,,,,
1558971393.169231,1.352414,1.286863,-2.630798,-0.011701,-0.076329,0.008582,0.273480,-0.959961,-0.060691,0.017535,-0.015228,0.028983,-4.226877,-44.489521,-6.413345,,,,,,,
1558971393.189194,1.350173,1.286039,-2.629814,-0.118159,-0.077875,0.013817,0.274115,-0.959730,-0.061477,0.025491,-0.032854,0.013107,-4.206927,-44.501549,-6.342618,,,,,,,
1558971393.209185,1.336813,1.285532,-2.616521,-0.224405,-0.001164,0.046494,0.273743,-0.959587,-0.065246,0.017623,-0.048012,-0.034500,-4.208709,-44.479240,-6.496082,,,,,,,
1558971393.229190,1.319243,1.285018,-2.598275,-0.269138,-0.018932,0.023868,0.273032,-0.959442,-0.070169,0.016442,-0.051544,-0.050193,-4.238864,-44.452751,-6.655806,,,,,,,
1558971393.249149,1.292741,1.282999,-2.571763,-0.321258,-0.031430,-0.033946,0.272938,-0.958872,-0.077910,0.007183,-0.065710,-0.089540,-4.266769,-44.390442,-7.042615,,,,,,,
1558971393.269162,1.269233,1.279684,-2.547947,-0.420189,-0.028854,-0.072436,0.274066,-0.957925,-0.085248,0.006650,-0.095374,-0.148486,-4.238641,-44.357334,-7.264689,,,,,,,
1558971393.289132,1.235749,1.274469,-2.513271,-0.654268,-0.009699,-0.102334,0.275772,-0.956415,-0.096017,-0.026535,-0.097799,-0.230765,-4.193658,-44.314888,-7.544464,,,,,,,
1558971393.309128,1.190945,1.266612,-2.465302,-0.885988,0.078145,-0.134776,0.278165,-0.954092,-0.111055,-0.060606,-0.067728,-0.398467,-4.051408,-44.164352,-8.450522,,,,,,,
1558971393.329121,1.142896,1.256597,-2.411258,-0.966414,0.221260,-0.137742,0.281191,-0.951044,-0.128246,-0.100054,-0.035269,-0.442387,-3.945151,-44.051464,-9.067484,,,,,,,
1558971393.349088,1.106393,1.245686,-2.365027,-0.824885,0.500526,-0.203285,0.285584,-0.947615,-0.143062,-0.157471,0.036651,-0.503697,-3.820141,-43.924355,-9.714549,,,,,,,
1558971393.369095,1.089356,1.234279,-2.332271,-0.688562,0.804095,-0.293155,0.292667,-0.943910,-0.152902,-0.185352,0.147173,-0.533393,-3.363496,-43.698833,-10.835760,,,,,,,
1558971393.389080,1.087696,1.223522,-2.309739,-0.505620,1.081124,-0.295696,0.301388,-0.940304,-0.158095,-0.193478,0.183727,-0.516969,-3.021785,-43.604904,-11.304695,,,,,,,
1558971393.409055,1.104317,1.216019,-2.301758,-0.142037,1.282227,-0.250774,0.310266,-0.937724,-0.156233,-0.182031,0.248729,-0.484133,-2.643332,-43.531040,-11.678022,,,,,,,
1558971393.429031,1.141878,1.212885,-2.311694,0.220473,1.486525,-0.193010,0.318585,-0.936631,-0.145693,-0.209744,0.341523,-0.389189,-1.859921,-43.512032,-11.897844,,,,,,,
1558971393.449040,1.195509,1.213624,-2.334720,0.446578,1.672603,-0.074675,0.325293,-0.936889,-0.128152,-0.201117,0.380294,-0.263205,-1.359513,-43.594429,-11.661578,,,,,,,
1558971393.469022,1.251882,1.215885,-2.357316,0.335183,1.812799,-0.017905,0.329985,-0.937677,-0.108956,-0.166883,0.362619,-0.233787,-1.137753,-43.647324,-11.486151,,,,,,,
1558971393.489012,1.300372,1.217450,-2.368167,0.168384,1.944853,0.054758,0.333464,-0.938220,-0.092441,-0.087279,0.383670,-0.137249,-0.505661,-43.750607,-11.133009,,,,,,,
1558971393.508999,1.352717,1.222108,-2.381732,0.384467,2.032800,0.252220,0.333573,-0.939822,-0.073921,-0.115830,0.400927,-0.042778,-0.178705,-43.800262,-10.946242,,,,,,,
1558971393.528958,1.416849,1.230845,-2.405306,0.493141,2.130755,0.402715,0.329498,-0.942771,-0.051130,-0.143050,0.411445,-0.000064,-0.077562,-43.844402,-10.769269,,,,,,,
1558971393.548972,1.477849,1.241038,-2.425783,0.315975,2.037766,0.506312,0.322417,-0.946121,-0.030054,-0.147734,0.444915,0.163599,0.039680,-43.986862,-10.171981,,,,,,,
1558971393.568940,1.526018,1.252757,-2.435496,0.137562,1.891942,0.615809,0.312391,-0.949850,-0.013998,-0.105513,0.422537,0.243078,-0.009707,-44.026558,-9.998856,,,,,,,
1558971393.588943,1.565298,1.267244,-2.439152,0.059148,1.760498,0.798123,0.298908,-0.954281,-0.001644,-0.151813,0.429409,0.297847,-0.135321,-44.046452,-9.909918,,,,,,,
1558971393.608931,1.604402,1.284996,-2.443232,0.001457,1.754647,0.924003,0.281766,-0.959436,0.009473,-0.195935,0.420801,0.358020,-0.684257,-44.055279,-9.847778,,,,,,,
1558971393.628912,1.634066,1.304788,-2.438091,-0.193791,1.667041,1.029773,0.262356,-0.964828,0.016621,-0.164898,0.408279,0.436122,-1.048248,-44.036037,-9.901706,,,,,,,
1558971393.648902,1.641721,1.327457,-2.416234,-0.407009,1.311104,1.172463,0.240340,-0.970539,0.017075,-0.083296,0.388431,0.435730,-1.479671,-43.986782,-10.064225,,,,,,,
1558971393.668890,1.652068,1.354805,-2.402011,-0.140636,1.193855,1.456616,0.213608,-0.976765,0.017399,-0.170334,0.371647,0.460995,-2.685651,-43.804413,-10.596024,,,,,,,
1558971393.688862,1.692205,1.385013,-2.419239,0.085657,1.100842,1.547724,0.183357,-0.982792,0.022371,-0.174965,0.303272,0.557204,-3.743208,-43.699951,-10.705945,,,,,,,
1558971393.708861,1.734920,1.415299,-2.444826,-0.116721,0.722383,1.510843,0.152790,-0.987935,0.025304,-0.159016,0.287800,0.599940,-4.305737,-43.647045,-10.710337,,,,,,,
1558971393.728848,1.740132,1.448461,-2.440175,-0.396030,0.380672,1.746501,0.120285,-0.992526,0.020565,-0.136627,0.248111,0.603595,-6.118739,-43.353649,-11.015316,,,,,,,
1558971393.748834,1.715036,1.487484,-2.409385,-0.480945,0.231350,1.966007,0.082351,-0.996532,0.011961,-0.206573,0.193355,0.574098,-7.643843,-43.000683,-11.438010,,,,,,,
1558971393.768820,1.646490,1.528464,-2.338799,-0.429612,0.002840,2.016176,0.042198,-0.999104,0.003200,-0.216697,0.183354,0.575184,-7.643843,-43.000683,-11.438010,,,,,,,
1558971393.788807,0.301675,1.564764,-0.997920,-0.470187,-0.341477,2.053418,0.001794,-0.999982,-0.005766,-0.206887,0.124982,0.569776,-10.174286,-42.307961,-12.034753,,,,,,,
1558971393.808774,-1.171369,1.526984,0.464342,-0.643806,-0.668142,2.118481,-0.040349,-0.999040,-0.017032,-0.163646,0.013506,0.542972,-12.903401,-41.410099,-12.530789,,,,,,,
1558971393.828753,-1.227918,1.481870,0.505494,-0.694376,-0.800959,2.186567,-0.083640,-0.996049,-0.029858,-0.172784,-0.030410,0.551663,-14.352600,-40.848045,-12.796671,,,,,,,
1558971393.848764,-1.257814,1.435506,0.518338,-0.687392,-0.929875,2.220571,-0.128326,-0.990862,-0.041529,-0.218064,-0.223737,0.596872,-15.835711,-40.219444,-13.036151,,,,,,,
1558971393.868750,-1.278252,1.388985,0.514320,-0.744264,-1.398914,2.204291,-0.173129,-0.983518,-0.052144,-0.253812,-0.337680,0.578175,-18.867556,-38.789116,-13.331728,,,,,,,
1558971393.888730,-1.291407,1.343754,0.496481,-0.871289,-1.578175,2.045530,-0.216368,-0.974336,-0.062075,-0.305818,-0.376097,0.566805,-19.903309,-38.264008,-13.343121,,,,,,,
1558971393.908706,-1.289482,1.302357,0.460844,-1.089407,-1.676811,1.761484,-0.254801,-0.964186,-0.073632,-0.395361,-0.506822,0.466622,-22.786270,-36.624355,-13.332577,,,,,,,
1558971393.928687,-1.275026,1.264130,0.409691,-1.297983,-1.752128,1.554540,-0.288774,-0.953345,-0.087992,-0.408660,-0.534799,0.433908,-24.051476,-35.794636,-13.363598,,,,,,,
1558971393.948667,-1.267794,1.229942,0.363901,-1.103201,-1.859183,1.332669,-0.319064,-0.942469,-0.099748,-0.475965,-0.583333,0.339006,-25.598888,-34.696236,-13.385942,,,,,,,
1558971393.968684,-1.279031,1.202705,0.333045,-0.823579,-2.113775,0.999485,-0.344628,-0.933016,-0.103504,-0.544379,-0.551756,0.214329,-27.308697,-33.524864,-12.985882,,,,,,,
