timestamp(unix),attitude_roll(radians),attitude_pitch(radians),attitude_yaw(radians),rotation_rate_x(radians/s),rotation_rate_y(radians/s),rotation_rate_z(radians/s),gravity_x(G),gravity_y(G),gravity_z(G),user_acc_x(G),user_acc_y(G),user_acc_z(G),magnetic_field_x(microteslas),magnetic_field_y(microteslas),magnetic_field_z(microteslas),latitude(degree),longitude(degree),altitude(meter),speed(m/s),course(degree),timestamp(unix),User Mark
1558974945.105707,-1.113917,1.328836,-0.690404,-0.025893,-0.033511,0.013039,-0.215031,-0.970870,-0.105702,0.012821,0.012130,0.008946,-13.455896,-37.509884,13.818050,,,,,,,
1558974945.125713,-1.110379,1.328325,-0.693688,-0.083140,0.043971,0.026545,-0.215100,-0.970748,-0.106683,0.013073,0.007796,0.012002,-13.468253,-37.509312,13.807566,,,,,,,
1558974945.145684,-1.103288,1.327225,-0.699471,-0.126639,0.091778,0.035508,-0.215291,-0.970483,-0.108686,0.001515,0.002679,0.006163,-13.478841,-37.525013,13.754473,,,,,,,
1558974945.165676,-1.093980,1.325335,-0.707031,-0.135100,0.103434,0.024937,-0.215899,-0.970025,-0.111527,-0.005109,0.005899,0.004731,-13.542604,-37.554722,13.609983,,,,,,,
1558974945.185686,-1.085148,1.323272,-0.714638,-0.091636,0.045056,0.015874,-0.216675,-0.969522,-0.114364,-0.007263,0.000543,-0.009568,-13.561146,-37.558170,13.581985,,,,,,,
1558974945.205661,-1.079912,1.322360,-0.719627,-0.047030,0.005685,-0.002617,-0.216853,-0.969298,-0.115913,-0.000417,0.006545,-0.002205,-13.628009,-37.589821,13.426597,,,,,,,
1558974945.225669,-1.076549,1.322226,-0.722690,-0.041613,0.033134,-0.005553,-0.216577,-0.969265,-0.116704,0.004526,0.010311,0.003117,-13.628836,-37.606861,13.377970,,,,,,,
1558974945.245658,-1.073745,1.322294,-0.724800,-0.041581,0.042647,-0.005463,-0.216191,-0.969282,-0.117279,0.006245,0.014387,0.011948,-13.627623,-37.610268,13.369629,,,,,,,
1558974945.265648,-1.069905,1.321871,-0.727764,-0.044774,0.051146,0.012766,-0.216098,-0.969178,-0.118305,0.003802,0.010956,0.001820,-13.630741,-37.626030,13.322012,,,,,,,
1558974945.285641,-1.066552,1.320935,-0.730391,-0.032086,0.031015,0.025395,-0.216495,-0.968947,-0.119468,0.007968,0.012770,-0.010095,-13.662957,-37.637234,13.257198,,,,,,,
1558974945.305630,-1.061474,1.320035,-0.734544,-0.045845,0.059640,0.034198,-0.216646,-0.968724,-0.120990,0.008089,0.017171,-0.007931,-13.678281,-37.644814,13.219827,,,,,,,
1558974945.325592,-1.056908,1.318706,-0.737156,-0.064814,0.119995,0.037964,-0.217212,-0.968393,-0.122611,0.001636,0.016779,0.000190,-13.720478,-37.652992,13.152650,,,,,,,
1558974945.345597,-1.049464,1.317512,-0.742386,-0.074432,0.104176,0.028195,-0.217296,-0.968095,-0.124800,0.010555,0.010819,-0.002641,-13.793911,-37.665649,13.039088,,,,,,,
1558974945.365603,-1.044092,1.316517,-0.746470,-0.044841,0.044846,0.040461,-0.217455,-0.967845,-0.126450,0.015078,0.008357,-0.006744,-13.820864,-37.677544,12.976032,,,,,,,
1558974945.385568,-1.043164,1.315377,-0.746733,-0.007700,0.022495,0.068035,-0.218291,-0.967557,-0.127207,0.012191,0.009565,-0.006750,-13.846533,-37.688866,12.915651,,,,,,,
1558974945.405575,-1.045256,1.314473,-0.744412,-0.006679,0.001324,0.050750,-0.219313,-0.967329,-0.127189,0.001250,0.004987,0.005454,-13.907996,-37.670208,12.904028,,,,,,,
1558974945.425576,-1.044952,1.313434,-0.744757,-0.042852,0.001494,0.037911,-0.220143,-0.967065,-0.127760,0.001180,0.005456,0.000868,-13.934444,-37.661671,12.900423,,,,,,,
1558974945.445535,-1.043430,1.312310,-0.746066,-0.044926,0.016297,0.033781,-0.220888,-0.966778,-0.128642,-0.001463,0.005093,0.006098,-13.967628,-37.659706,12.870225,,,,,,,
1558974945.465558,-1.044150,1.311585,-0.745284,-0.011918,0.004454,0.003808,-0.221586,-0.966593,-0.128835,-0.008348,-0.003104,0.005132,-14.003059,-37.657314,12.838697,,,,,,,
1558974945.485548,-1.044884,1.311774,-0.744502,0.027473,0.001060,-0.006869,-0.221523,-0.966641,-0.128581,-0.002705,-0.002185,0.000147,-14.009602,-37.653511,12.842715,,,,,,,
1558974945.505533,-1.046520,1.312404,-0.742771,0.044462,-0.007471,0.002670,-0.221206,-0.966802,-0.127913,0.006698,0.000478,-0.003129,-14.002695,-37.648777,12.864111,,,,,,,
1558974945.525531,-1.049140,1.312890,-0.740195,0.043427,-0.003254,-0.007967,-0.221133,-0.966926,-0.127099,0.002154,0.006721,-0.002112,-13.993803,-37.638237,12.904569,,,,,,,
1558974945.545520,-1.050302,1.313189,-0.738573,0.010554,0.039213,0.000954,-0.221029,-0.967002,-0.126698,0.001700,0.004676,-0.001323,-13.990708,-37.633316,12.922253,,,,,,,
1558974945.565509,-1.050275,1.313191,-0.737783,-0.010712,0.040362,-0.011863,-0.221024,-0.967003,-0.126703,-0.008132,-0.001091,0.008936,-14.000590,-37.630753,12.919016,,,,,,,
1558974945.585503,-1.048458,1.313297,-0.739192,-0.019272,0.019240,-0.029154,-0.220705,-0.967030,-0.127053,-0.000960,0.008732,-0.003180,-14.005911,-37.631031,12.912437,,,,,,,
1558974945.605487,-1.047271,1.313612,-0.740672,0.006052,-0.044299,-0.019065,-0.220291,-0.967110,-0.127163,0.003448,0.009896,-0.009281,-13.995593,-37.640640,12.895615,,,,,,,
1558974945.625481,-1.049472,1.314237,-0.740199,0.049523,-0.101622,-0.030255,-0.220045,-0.967269,-0.126377,0.001280,0.013198,-0.001400,-13.965546,-37.646412,12.911338,,,,,,,
1558974945.645476,-1.054843,1.316075,-0.736312,0.064589,-0.053082,-0.031915,-0.219175,-0.967733,-0.124316,0.013227,0.008978,0.017169,-13.902134,-37.640717,12.996086,,,,,,,
1558974945.665457,-1.063161,1.317713,-0.728250,0.101891,-0.008782,0.036866,-0.218815,-0.968145,-0.121718,0.017170,0.020895,0.015745,-13.861500,-37.626324,13.080887,,,,,,,
1558974945.685454,-1.083024,1.317981,-0.708436,0.230413,-0.042052,0.153024,-0.220960,-0.968212,-0.117226,0.005827,0.027172,0.022683,-13.881433,-37.575542,13.205128,,,,,,,
1558974945.705447,-1.115514,1.317694,-0.676455,0.320717,-0.060378,0.232994,-0.224901,-0.968140,-0.110109,0.000338,0.009095,0.022142,-14.013601,-37.418583,13.507763,,,,,,,
1558974945.725421,-1.154022,1.315727,-0.636443,0.422199,0.073415,0.290943,-0.230715,-0.967646,-0.102140,-0.024992,0.013758,0.044477,-14.167152,-37.269867,13.756445,,,,,,,
1558974945.745426,-1.194872,1.314068,-0.591905,0.506437,0.107822,0.269987,-0.236186,-0.967226,-0.093221,-0.009236,0.004335,0.043112,-14.410817,-37.063217,14.058359,,,,,,,
1558974945.765420,-1.235860,1.313338,-0.548291,0.469122,0.058236,0.201153,-0.240474,-0.967040,-0.083697,-0.001179,0.000076,-0.005033,-14.674521,-36.787209,14.503489,,,,,,,
1558974945.785388,-1.267142,1.312879,-0.514447,0.412802,0.070099,0.160650,-0.243398,-0.966923,-0.076267,0.015279,0.020955,-0.022320,-14.823094,-36.605602,14.808681,,,,,,,
1558974945.805398,-1.297127,1.311491,-0.481700,0.353227,0.103251,0.208964,-0.246867,-0.966568,-0.069299,0.015864,0.019974,-0.025077,-14.925497,-36.488449,14.993776,,,,,,,
1558974945.825386,-1.321848,1.308494,-0.453045,0.316186,0.190190,0.255675,-0.251311,-0.965796,-0.063889,-0.000962,0.020544,-0.011291,-15.062089,-36.361820,15.163853,,,,,,,
1558974945.845381,-1.341881,1.304812,-0.428518,0.232040,0.149326,0.200769,-0.256002,-0.964834,-0.059648,0.007375,-0.004694,-0.033735,-15.424758,-36.107155,15.405886,,,,,,,
1558974945.865370,-1.359363,1.301925,-0.408808,0.217855,0.034155,0.179370,-0.259728,-0.964071,-0.055749,0.018242,-0.004923,-0.033317,-15.563030,-36.006950,15.501045,,,,,,,
1558974945.885363,-1.369937,1.301270,-0.397575,0.201888,-0.019850,0.057126,-0.260922,-0.963897,-0.053125,0.008694,0.029846,-0.010733,-15.677866,-35.895554,15.643054,,,,,,,
1558974945.905354,-1.380507,1.301255,-0.386700,0.134937,-0.000521,0.024160,-0.261483,-0.963893,-0.050367,0.008340,0.028438,-0.017031,-15.697243,-35.845829,15.737349,,,,,,,
1558974945.925332,-1.386548,1.301441,-0.380425,0.100800,-0.020418,0.028211,-0.261606,-0.963943,-0.048754,0.020685,0.017409,-0.018141,-15.711473,-35.814999,15.793254,,,,,,,
1558974945.945308,-1.392851,1.302017,-0.375869,0.102494,-0.148314,0.035526,-0.261361,-0.964096,-0.047005,0.012277,0.015701,-0.001365,-15.680991,-35.789970,15.880032,,,,,,,
1558974945.965326,-1.400545,1.301478,-0.369910,0.065488,-0.069895,0.039450,-0.262227,-0.963953,-0.045081,0.003042,0.005044,-0.011178,-15.664305,-35.760361,15.963005,,,,,,,
1558974945.985299,-1.403780,1.300912,-0.367223,0.001813,-0.020971,0.017447,-0.262910,-0.963802,-0.044323,-0.002211,0.005123,0.002636,-15.668867,-35.740040,16.003979,,,,,,,
1558974946.005306,-1.404099,1.301186,-0.367721,-0.024775,-0.038882,-0.037196,-0.262664,-0.963875,-0.044196,-0.001649,0.008385,0.011801,-15.664794,-35.733501,16.022552,,,,,,,
1558974946.025298,-1.402588,1.301914,-0.369788,-0.025758,-0.015627,-0.040177,-0.261904,-0.964069,-0.044475,-0.002256,0.006457,0.004680,-15.635809,-35.743752,16.028008,,,,,,,
1558974946.045266,-1.402446,1.302104,-0.370241,0.024143,-0.028488,0.017392,-0.261718,-0.964119,-0.044481,0.012313,0.012794,-0.001829,-15.614297,-35.754906,16.024094,,,,,,,
1558974946.065273,-1.408404,1.301862,-0.365538,0.083565,-0.081637,0.026540,-0.262209,-0.964055,-0.042959,0.002046,0.008107,-0.008723,-15.601982,-35.735813,16.078577,,,,,,,
1558974946.085270,-1.413915,1.301841,-0.360754,0.033817,-0.003182,0.010168,-0.262461,-0.964049,-0.041516,0.003932,0.006377,0.005002,-15.595632,-35.711262,16.139181,,,,,,,
1558974946.105230,-1.413175,1.301914,-0.360557,-0.020240,0.066864,0.009727,-0.262361,-0.964068,-0.041700,0.010667,0.009601,0.004026,-15.597875,-35.704437,16.152115,,,,,,,
1558974946.125254,-1.407374,1.301782,-0.365199,-0.062882,0.054425,0.023451,-0.262241,-0.964033,-0.043241,0.010303,0.008772,-0.004778,-15.624088,-35.719154,16.094133,,,,,,,
1558974946.145243,-1.403187,1.301097,-0.368607,-0.036338,0.033143,0.022201,-0.262708,-0.963851,-0.044449,0.002515,0.012771,-0.006118,-15.644506,-35.732922,16.043665,,,,,,,
1558974946.165231,-1.402078,1.300725,-0.369708,0.011458,-0.013666,-0.011305,-0.263012,-0.963752,-0.044801,-0.003468,0.008430,-0.001556,-15.670843,-35.737782,16.007084,,,,,,,
1558974946.185226,-1.406958,1.301093,-0.365253,0.058249,-0.029773,-0.014624,-0.262877,-0.963850,-0.043459,0.000777,0.014708,0.010485,-15.659836,-35.727974,16.039722,,,,,,,
1558974946.205188,-1.414629,1.301799,-0.358248,0.092241,-0.042606,0.005564,-0.262531,-0.964038,-0.041335,0.013111,0.016330,0.005096,-15.641488,-35.707775,16.102482,,,,,,,
1558974946.225204,-1.422296,1.302169,-0.350426,0.073296,0.025151,0.011535,-0.262487,-0.964136,-0.039269,0.007055,0.015253,0.005821,-15.619739,-35.676159,16.193409,,,,,,,
1558974946.245198,-1.425722,1.302114,-0.345926,0.047801,0.041140,0.011667,-0.262673,-0.964121,-0.038377,0.001625,0.009104,0.000382,-15.640457,-35.643040,16.246248,,,,,,,
1558974946.265185,-1.430752,1.302304,-0.341210,0.067693,-0.068923,-0.007520,-0.262681,-0.964172,-0.037029,0.003007,0.011810,0.002987,-15.649259,-35.628117,16.270510,,,,,,,
1558974946.285151,-1.440355,1.302691,-0.334359,0.127954,-0.196086,-0.010824,-0.262654,-0.964275,-0.034457,-0.001094,0.017116,-0.012220,-15.613518,-35.604759,16.355732,,,,,,,
1558974946.305170,-1.453132,1.302524,-0.324999,0.137562,-0.173896,0.018224,-0.263233,-0.964230,-0.031117,-0.003445,0.012418,-0.004619,-15.544624,-35.555344,16.527962,,,,,,,
1558974946.325152,-1.466096,1.302649,-0.314445,0.085737,-0.101842,-0.045185,-0.263495,-0.964263,-0.027689,-0.008234,0.019073,0.016550,-15.522575,-35.513645,16.637968,,,,,,,
1558974946.345148,-1.467053,1.303477,-0.313568,-0.051025,0.065880,-0.047958,-0.262727,-0.964482,-0.027354,-0.003966,0.008245,0.001582,-15.477176,-35.487469,16.735821,,,,,,,
1558974946.365143,-1.458730,1.303115,-0.319863,-0.069065,0.113640,0.018679,-0.262837,-0.964387,-0.029579,-0.007503,0.009431,-0.008232,-15.500571,-35.520523,16.643791,,,,,,,
1558974946.385129,-1.455354,1.302344,-0.320616,-0.009334,0.146080,0.010498,-0.263474,-0.964183,-0.030552,-0.008453,0.009623,0.012242,-15.545799,-35.525764,16.590336,,,,,,,
1558974946.405121,-1.455794,1.302902,-0.317766,0.060840,0.110797,-0.011138,-0.262953,-0.964330,-0.030374,0.015700,0.003835,0.013895,-15.602954,-35.517929,16.553417,,,,,,,
1558974946.425114,-1.460389,1.303316,-0.311556,0.111722,0.056655,0.010804,-0.262693,-0.964440,-0.029122,0.008771,0.018639,-0.015327,-15.613789,-35.497612,16.586752,,,,,,,
1558974946.445104,-1.463175,1.303286,-0.307818,0.027514,0.022216,0.010406,-0.262802,-0.964432,-0.028393,0.005005,0.012619,-0.006397,-15.630179,-35.474895,16.619886,,,,,,,
1558974946.465093,-1.460223,1.303094,-0.310416,-0.063978,0.026886,-0.015245,-0.262901,-0.964381,-0.029189,-0.008156,0.011134,-0.001344,-15.642002,-35.470932,16.617220,,,,,,,
1558974946.485087,-1.453661,1.303196,-0.316863,-0.095952,0.004831,-0.035759,-0.262606,-0.964408,-0.030902,-0.011472,0.001411,0.005725,-15.651617,-35.500713,16.544403,,,,,,,
1558974946.505077,-1.447119,1.303830,-0.324283,-0.088708,-0.055448,-0.029925,-0.261791,-0.964576,-0.032544,0.004253,-0.006555,0.000210,-15.629536,-35.533138,16.495604,,,,,,,
1558974946.525065,-1.442643,1.304061,-0.330406,-0.091947,-0.063870,-0.018264,-0.261422,-0.964637,-0.033687,0.001977,0.005332,0.008037,-15.584738,-35.573486,16.450964,,,,,,,
1558974946.545039,-1.440128,1.304553,-0.334861,-0.073931,-0.098879,-0.039938,-0.260866,-0.964766,-0.034282,0.007509,0.012007,0.011577,-15.556666,-35.591442,16.438690,,,,,,,
1558974946.565020,-1.441011,1.305735,-0.335854,-0.028001,-0.054736,-0.045886,-0.259766,-0.965076,-0.033904,0.000626,0.016956,0.010360,-15.451244,-35.636089,16.441395,,,,,,,
1558974946.585031,-1.443820,1.306448,-0.333515,0.065771,-0.017150,-0.028369,-0.259177,-0.965263,-0.033087,-0.001993,0.008766,0.005408,-15.430051,-35.640709,16.451279,,,,,,,
1558974946.605006,-1.453828,1.307209,-0.323885,0.109351,-0.039586,-0.033886,-0.258765,-0.965462,-0.030406,-0.001977,0.005470,0.002467,-15.388256,-35.607895,16.561111,,,,,,,
1558974946.625021,-1.461220,1.307501,-0.316865,0.090179,-0.027808,-0.000691,-0.258703,-0.965538,-0.028462,-0.007045,0.005455,-0.006313,-15.367039,-35.585457,16.628908,,,,,,,
1558974946.644998,-1.467151,1.307989,-0.311383,0.065689,-0.038277,-0.018961,-0.258399,-0.965664,-0.026878,0.005744,0.004757,0.000221,-15.365623,-35.563129,16.677914,,,,,,,
1558974946.665004,-1.470674,1.308433,-0.308584,0.043324,-0.038150,-0.012572,-0.258065,-0.965780,-0.025925,0.004022,0.011663,-0.013382,-15.323633,-35.539627,16.766394,,,,,,,
1558974946.684993,-1.471483,1.308488,-0.307902,-0.009767,0.010779,0.006004,-0.258032,-0.965794,-0.025711,0.008032,0.011570,-0.012864,-15.313289,-35.540028,16.775003,,,,,,,
1558974946.704962,-1.466297,1.308470,-0.312245,-0.007532,0.053077,0.025626,-0.257913,-0.965789,-0.027050,0.010446,0.016235,-0.010273,-15.315772,-35.555801,16.739279,,,,,,,
1558974946.724958,-1.466966,1.308178,-0.310083,-0.011640,0.094309,0.017476,-0.258211,-0.965714,-0.026907,0.004320,0.009735,0.022039,-15.357314,-35.555828,16.701118,,,,,,,
1558974946.744965,-1.465319,1.308062,-0.310408,0.005180,0.024440,0.005076,-0.258279,-0.965683,-0.027344,0.003350,0.006378,0.001007,-15.388969,-35.547203,16.690336,,,,,,,
1558974946.764939,-1.467176,1.308140,-0.309319,0.008143,-0.055942,-0.017043,-0.258254,-0.965704,-0.026857,-0.002046,0.008978,0.000001,-15.389413,-35.545422,16.693718,,,,,,,
1558974946.784939,-1.466411,1.308152,-0.311196,-0.005713,-0.062216,-0.020316,-0.258222,-0.965707,-0.027053,0.009641,0.014214,-0.009126,-15.357739,-35.548561,16.716173,,,,,,,
1558974946.804938,-1.466600,1.308626,-0.312397,-0.009982,-0.060062,-0.008556,-0.257772,-0.965830,-0.026957,0.012395,0.011667,-0.005163,-15.337377,-35.555046,16.721081,,,,,,,
1558974946.824899,-1.464864,1.308560,-0.314465,-0.032162,-0.001793,0.002660,-0.257788,-0.965813,-0.027411,-0.003977,-0.000572,-0.004618,-15.311297,-35.565285,16.723213,,,,,,,
1558974946.844921,-1.461177,1.308928,-0.318684,-0.031163,-0.034609,-0.026480,-0.257332,-0.965908,-0.028322,-0.000404,0.011654,-0.000777,-15.291878,-35.593594,16.680695,,,,,,,
1558974946.864910,-1.459093,1.309318,-0.321288,-0.030027,-0.016658,-0.034848,-0.256898,-0.966009,-0.028816,0.000031,0.009817,0.000099,-15.269215,-35.610542,16.665277,,,,,,,
1558974946.884897,-1.458616,1.309890,-0.322524,0.012433,-0.053881,-0.037305,-0.256335,-0.966157,-0.028877,-0.006360,0.003312,-0.004769,-15.255327,-35.619747,16.658327,,,,,,,
1558974946.904893,-1.459346,1.310295,-0.322856,0.024145,-0.057129,-0.048001,-0.255967,-0.966261,-0.028646,-0.001403,0.005919,-0.010904,-15.208027,-35.630531,16.678499,,,,,,,
1558974946.924882,-1.462376,1.311235,-0.320766,0.042259,-0.054061,-0.053296,-0.255150,-0.966503,-0.027772,-0.002083,0.004360,-0.002501,-15.174150,-35.637047,16.695431,,,,,,,
1558974946.944872,-1.466294,1.312472,-0.318285,0.037917,-0.087890,-0.071772,-0.254067,-0.966819,-0.026648,-0.004600,0.007652,-0.006998,-15.133684,-35.639023,16.727894,,,,,,,
1558974946.964866,-1.464612,1.314492,-0.321099,0.008314,-0.037036,-0.098002,-0.252080,-0.967333,-0.026868,0.013448,-0.001157,-0.025424,-15.020546,-35.661682,16.781496,,,,,,,
1558974946.984851,-1.461348,1.316016,-0.322836,0.005660,0.152265,-0.042810,-0.250525,-0.967719,-0.027530,-0.016290,0.009222,0.001910,-14.959036,-35.698502,16.758141,,,,,,,
1558974947.004844,-1.464983,1.316122,-0.315939,0.080007,0.127649,0.015735,-0.250521,-0.967745,-0.026608,0.000719,-0.006223,0.010815,-14.988903,-35.698429,16.731598,,,,,,,
1558974947.024838,-1.470281,1.316433,-0.309887,0.095441,-0.040518,0.001324,-0.250359,-0.967824,-0.025250,0.010995,0.000752,-0.020008,-15.029392,-35.653820,16.790272,,,,,,,
1558974947.044815,-1.470911,1.317653,-0.309550,0.030813,0.027386,-0.055732,-0.249200,-0.968130,-0.024975,0.043115,-0.084788,-0.045582,-14.987789,-35.670727,16.791567,,,,,,,
1558974947.064816,-1.466303,1.319051,-0.311835,-0.067653,0.169480,-0.098225,-0.247736,-0.968479,-0.025982,0.002314,-0.096966,-0.031544,-14.965040,-35.678684,16.794943,,,,,,,
1558974947.084811,-1.451880,1.320485,-0.321831,-0.185299,0.303212,-0.144011,-0.245956,-0.968835,-0.029387,-0.061463,-0.020468,0.038420,-14.940701,-35.768677,16.624338,,,,,,,
1558974947.104785,-1.437897,1.321594,-0.328768,0.009525,0.365790,-0.022612,-0.244456,-0.969109,-0.032681,0.005504,-0.040916,0.054638,-15.001573,-35.800896,16.499685,,,,,,,
1558974947.124788,-1.439667,1.321795,-0.323606,0.049798,0.008373,0.020976,-0.244320,-0.969159,-0.032222,0.019772,-0.175449,-0.104481,-15.087946,-35.800835,16.420879,,,,,,,
1558974947.144783,-1.438193,1.319911,-0.325320,-0.064177,0.033439,0.125754,-0.246082,-0.968693,-0.032824,-0.024243,-0.262600,0.002001,-15.104079,-35.785442,16.439579,,,,,,,
1558974947.164752,-1.438185,1.318264,-0.329815,-0.071789,-0.385249,0.024584,-0.247663,-0.968283,-0.033037,-0.106311,-0.207376,0.044450,-15.173985,-35.767521,16.414192,,,,,,,
1558974947.184761,-1.444981,1.319613,-0.332626,0.026115,-0.461030,-0.122331,-0.246586,-0.968619,-0.031189,-0.134014,-0.194467,0.055466,-15.056132,-35.786129,16.482016,,,,,,,
1558974947.204739,-1.460218,1.320916,-0.322906,0.206847,-0.178608,-0.059694,-0.245777,-0.968942,-0.027289,-0.099956,-0.188635,0.060873,-14.889231,-35.803616,16.595272,,,,,,,
1558974947.224719,-1.482875,1.325753,-0.302049,0.322308,-0.129868,-0.283342,-0.241662,-0.970127,-0.021302,-0.026344,-0.208508,0.037965,-14.672241,-35.750393,16.900461,,,,,,,
1558974947.244723,-1.516059,1.333149,-0.270519,0.436278,-0.158112,-0.392421,-0.235064,-0.971895,-0.012880,-0.015348,-0.162429,0.020448,-14.545829,-35.735561,17.040524,,,,,,,
1558974947.264706,-1.551628,1.343899,-0.237829,0.344915,-0.193868,-0.592486,-0.224914,-0.974369,-0.004312,-0.025284,-0.093136,0.021005,-14.005616,-35.704254,17.551071,,,,,,,
1558974947.284716,-1.580973,1.357045,-0.210906,0.284682,-0.103851,-0.689896,-0.212117,-0.977242,0.002159,-0.023036,-0.082115,0.042885,-13.625496,-35.747036,17.761948,,,,,,,
1558974947.304696,-1.611563,1.371335,-0.179278,0.331116,0.074466,-0.739400,-0.197976,-0.980174,0.008075,-0.038764,-0.048116,0.043057,-13.101240,-35.829380,17.989000,,,,,,,
1558974947.324672,-1.649106,1.386525,-0.139981,0.308577,-0.003707,-0.788210,-0.182669,-0.983070,0.014334,-0.017542,-0.034813,0.003397,-12.445127,-35.922443,18.267136,,,,,,,
1558974947.344688,-1.684942,1.400693,-0.103589,0.240444,0.027411,-0.716434,-0.168183,-0.985567,0.019281,-0.023697,-0.039717,0.029288,-12.032846,-35.986328,18.416992,,,,,,,
1558974947.364664,-1.728628,1.414697,-0.058985,0.280889,0.001752,-0.768962,-0.153534,-0.987841,0.024436,-0.042541,0.014269,0.005975,-11.521351,-36.065521,18.588383,,,,,,,
1558974947.384670,-1.782021,1.427812,-0.004781,0.282973,0.024054,-0.690808,-0.139331,-0.989795,0.029876,-0.042768,0.019977,-0.024138,-10.845133,-36.144707,18.839695,,,,,,,
1558974947.404661,-1.838391,1.438816,0.052016,0.187876,-0.047200,-0.608290,-0.126914,-0.991303,0.034796,-0.040033,0.033952,-0.050223,-10.503398,-36.169918,18.984390,,,,,,,
1558974947.424626,-1.898970,1.450976,0.110332,0.183473,-0.140354,-0.715950,-0.113154,-0.992830,0.038527,0.014659,0.098253,0.042420,-10.149044,-36.208843,19.102560,,,,,,,
1558974947.444619,-1.985446,1.461016,0.194693,0.310007,-0.118614,-0.575778,-0.100275,-0.993980,0.044138,-0.096685,0.099129,-0.012995,-9.324050,-36.286026,19.374659,,,,,,,
1558974947.464633,-2.068009,1.462452,0.274892,0.395471,-0.149063,-0.137193,-0.095039,-0.994137,0.051576,-0.132714,0.101009,-0.029955,-9.020818,-36.255550,19.574245,,,,,,,
1558974947.484598,-2.123003,1.460419,0.326329,0.200298,-0.235684,-0.079458,-0.093781,-0.993915,0.057783,-0.015807,0.105441,-0.071607,-8.916981,-36.122471,19.865688,,,,,,,
1558974947.504604,-2.161882,1.465958,0.358995,-0.154105,-0.373857,-0.426976,-0.086892,-0.994509,0.058316,-0.059135,0.052554,-0.049405,-8.601616,-36.105064,20.035666,,,,,,,
1558974947.524605,-2.142826,1.472835,0.333079,-0.307692,-0.295334,-0.054806,-0.082234,-0.995206,0.052945,0.008397,-0.006183,0.023104,-8.236341,-36.260864,19.907372,,,,,,,
1558974947.544581,-2.113978,1.475567,0.298559,-0.155337,-0.279303,-0.108981,-0.081400,-0.995469,0.049147,0.084315,0.128404,0.044161,-8.170847,-36.320225,19.825991,,,,,,,
1558974947.564588,-2.148702,1.481760,0.326629,0.002341,-0.383134,-0.425872,-0.074479,-0.996039,0.048574,0.134309,0.057883,0.000575,-7.808220,-36.440514,19.751249,,,,,,,
1558974947.584577,-2.215045,1.488349,0.385499,0.001290,-0.356630,-0.376508,-0.065846,-0.996603,0.049461,0.022892,0.057745,-0.037376,-7.454679,-36.484802,19.806009,,,,,,,
1558974947.604566,-2.244691,1.494001,0.411362,-0.243326,0.099388,-0.230342,-0.059949,-0.997053,0.047876,-0.042544,0.074293,-0.218362,-7.142535,-36.525505,19.845982,,,,,,,
1558974947.624538,-2.144121,1.502036,0.314203,-0.367316,-0.009741,-0.130059,-0.057720,-0.997637,0.037268,-0.029758,0.116610,0.037347,-6.961273,-36.769310,19.456350,,,,,,,
1558974947.644549,-2.122109,1.508117,0.287251,-0.136299,-0.377907,-0.243366,-0.053358,-0.998036,0.032811,-0.049318,-0.021876,0.051326,-6.841072,-36.880096,19.288582,,,,,,,
1558974947.664538,-2.197254,1.513011,0.354663,0.134296,-0.363642,-0.356183,-0.046786,-0.998331,0.033859,0.046771,0.061685,0.049744,-6.599272,-36.944809,19.248953,,,,,,,
1558974947.684532,-2.355609,1.515937,0.509422,0.224920,-0.035515,-0.441585,-0.038795,-0.998496,0.038749,0.096412,0.081107,0.116600,-6.022078,-36.922947,19.478762,,,,,,,
1558974947.704516,-2.450447,1.524894,0.613003,-0.359560,0.606051,-0.401747,-0.029249,-0.998947,0.035356,0.093610,0.093612,0.083998,-5.795407,-36.946861,19.502140,,,,,,,
1558974947.724511,-2.460851,1.536078,0.636501,-0.387364,0.556482,-0.425732,-0.021847,-0.999397,0.026975,0.041546,0.074150,0.041949,-5.738060,-37.132492,19.163607,,,,,,,
1558974947.744504,-2.595937,1.547034,0.776829,-0.276928,0.105466,-0.524982,-0.012330,-0.999718,0.020309,-0.001952,0.079872,0.039368,-5.525823,-37.368732,18.762575,,,,,,,
1558974947.764492,-3.077599,1.553768,1.257661,-0.107298,-0.123806,-0.569746,-0.001089,-0.999855,0.016992,-0.002634,0.076454,0.025397,-5.231556,-37.477383,18.629759,,,,,,,
1558974947.784483,2.592421,1.552362,1.867380,-0.053229,-0.154627,-0.490992,0.009621,-0.999830,0.015721,0.009330,0.085783,0.020320,-4.757288,-37.570484,18.569271,,,,,,,
1558974947.804476,2.254053,1.549084,2.204996,-0.124275,0.025754,-0.278996,0.016836,-0.999764,0.013706,0.047830,0.081567,-0.001804,-4.297647,-37.655041,18.509983,,,,,,,
1558974947.824449,2.076867,1.547458,2.383126,-0.108579,0.003671,-0.146807,0.020411,-0.999728,0.011312,0.037023,0.084429,-0.035818,-4.181833,-37.704567,18.435541,,,,,,,
1558974947.844456,1.978033,1.545129,2.479960,-0.018546,-0.146945,-0.178070,0.023566,-0.999671,0.010165,-0.001365,0.086096,-0.044543,-4.061877,-37.752586,18.363937,,,,,,,
1558974947.864449,1.921977,1.540877,2.532423,0.018656,-0.197989,-0.253265,0.028089,-0.999552,0.010291,0.006061,0.070674,-0.039023,-3.803384,-37.775139,18.372927,,,,,,,
1558974947.884411,1.869302,1.535792,2.581340,0.000640,-0.176765,-0.260549,0.033451,-0.999387,0.010293,0.028042,0.070402,-0.033532,-3.599680,-37.785980,18.391653,,,,,,,
1558974947.904427,1.837757,1.531435,2.609528,0.011204,-0.171439,-0.195364,0.037957,-0.999225,0.010381,0.035239,0.069233,-0.027578,-3.343534,-37.801971,18.407137,,,,,,,
1558974947.924421,1.816770,1.528440,2.627032,0.001582,-0.155439,-0.132227,0.041069,-0.999103,0.010311,0.006019,0.081028,-0.017360,-3.093713,-37.812889,18.428383,,,,,,,
1558974947.944411,1.799555,1.526172,2.641757,-0.013202,-0.113061,-0.119022,0.043447,-0.999005,0.010116,0.012095,0.085674,-0.032058,-2.985246,-37.818336,18.435101,,,,,,,
1558974947.964399,1.769809,1.524049,2.669871,-0.051355,-0.062125,-0.119632,0.045807,-0.998908,0.009239,0.019760,0.087302,-0.041999,-2.857938,-37.832542,18.426121,,,,,,,
1558974947.984392,1.704619,1.520706,2.735017,-0.080921,0.022626,-0.096432,0.049623,-0.998746,0.006681,0.024947,0.071194,-0.020825,-2.734711,-37.866760,18.374460,,,,,,,
1558974948.004382,1.598077,1.518530,2.841701,-0.184327,-0.014865,-0.085134,0.052223,-0.998634,0.001425,-0.011909,0.055931,-0.020987,-2.556509,-37.968521,18.189184,,,,,,,
1558974948.024357,1.496079,1.517098,2.943001,-0.216314,-0.027374,-0.081007,0.053523,-0.998559,-0.004007,-0.011042,0.053643,-0.020484,-2.534291,-38.024540,18.074923,,,,,,,
1558974948.044338,1.380591,1.512903,3.058643,-0.168215,0.026250,-0.102882,0.056816,-0.998325,-0.010939,0.021965,0.037082,-0.030824,-2.423226,-38.193100,17.731508,,,,,,,
1558974948.064354,1.343804,1.508607,3.095530,-0.050250,-0.037813,-0.118354,0.060555,-0.998067,-0.013987,0.029105,0.034612,-0.029165,-2.324220,-38.259727,17.600639,,,,,,,
1558974948.084329,1.352906,1.507008,3.083175,0.070400,-0.224395,-0.060255,0.062238,-0.997966,-0.013780,0.023776,0.042705,-0.023131,-2.160356,-38.303696,17.525723,,,,,,,
1558974948.104335,1.381785,1.506837,3.048947,0.095777,-0.259355,-0.023202,0.062777,-0.997955,-0.012009,-0.000125,0.021378,0.006851,-2.008597,-38.268131,17.621193,,,,,,,
1558974948.124326,1.386675,1.506655,3.042525,-0.089508,0.049226,-0.011855,0.063014,-0.997944,-0.011735,-0.001766,0.012470,0.015336,-1.946194,-38.253643,17.659624,,,,,,,
1558974948.144316,1.336341,1.505952,3.096710,-0.210296,0.231704,0.013283,0.063026,-0.997898,-0.015054,0.017785,0.009953,0.017754,-1.969283,-38.280956,17.597765,,,,,,,
1558974948.164309,1.264515,1.505482,-3.110493,-0.258493,0.164380,0.061712,0.062229,-0.997868,-0.019679,0.006161,0.017521,-0.006902,-2.088769,-38.378021,17.371122,,,,,,,
1558974948.184298,1.189629,1.504759,-3.034001,-0.145106,0.002037,0.045300,0.061253,-0.997820,-0.024548,0.003047,0.016055,-0.019000,-2.160622,-38.439430,17.225952,,,,,,,
1558974948.204256,1.170403,1.504615,-3.017090,-0.012559,-0.174189,0.001014,0.060902,-0.997811,-0.025777,0.005291,0.012352,-0.017832,-2.174977,-38.497025,17.095022,,,,,,,
1558974948.224248,1.170198,1.505048,-3.020216,0.033360,-0.127917,0.004698,0.060499,-0.997839,-0.025621,-0.009748,0.015082,-0.003050,-2.100215,-38.495575,17.107620,,,,,,,
1558974948.244257,1.164205,1.505833,-3.014925,-0.023716,0.024687,0.068036,0.059625,-0.997891,-0.025674,-0.014139,0.021115,-0.006141,-2.110536,-38.491386,17.115772,,,,,,,
1558974948.264240,1.133702,1.508437,-2.982926,-0.032107,0.077630,0.100571,0.056459,-0.998056,-0.026380,-0.019899,0.014841,0.000425,-2.189642,-38.497402,17.092304,,,,,,,
1558974948.284240,1.105938,1.510674,-2.954936,-0.031322,-0.020721,0.070808,0.053710,-0.998193,-0.026936,-0.037521,0.011438,0.013158,-2.371084,-38.500591,17.060890,,,,,,,
1558974948.304203,1.091609,1.511356,-2.941721,-0.003811,-0.089632,0.030667,0.052715,-0.998234,-0.027390,-0.044277,0.007465,0.009583,-2.399369,-38.505894,17.044943,,,,,,,
1558974948.324219,1.085053,1.513278,-2.937598,0.037629,-0.117349,0.019765,0.050837,-0.998346,-0.026838,-0.029841,-0.001837,0.003019,-2.443075,-38.497139,17.058519,,,,,,,
1558974948.344213,1.091311,1.514241,-2.945575,0.044169,-0.061331,0.040591,0.050152,-0.998401,-0.026077,-0.018245,-0.006878,0.008132,-2.421950,-38.479042,17.102295,,,,,,,
1558974948.364201,1.094829,1.516374,-2.949380,0.032688,0.008495,0.042321,0.048349,-0.998519,-0.024923,-0.021997,-0.009354,0.010611,-2.424509,-38.474777,17.111534,,,,,,,
1558974948.384190,1.092458,1.517396,-2.946507,-0.025702,0.031977,-0.009812,0.047384,-0.998575,-0.024569,-0.019628,-0.013327,0.009005,-2.501159,-38.447144,17.162519,,,,,,,
1558974948.404185,1.076189,1.517080,-2.929546,-0.075706,0.023731,-0.045160,0.047256,-0.998558,-0.025486,-0.009399,-0.014809,0.005024,-2.544916,-38.455101,17.138254,,,,,,,
1558974948.424173,1.066609,1.516022,-2.920607,-0.088737,-0.055478,-0.045927,0.047934,-0.998500,-0.026448,-0.011130,-0.005238,0.013920,-2.527627,-38.467667,17.112597,,,,,,,
1558974948.444162,1.021330,1.515020,-2.876196,-0.181283,-0.025361,-0.022221,0.047541,-0.998445,-0.029113,-0.015422,-0.001052,0.003982,-2.508258,-38.492241,17.060108,,,,,,,
1558974948.464157,0.945501,1.513404,-2.799298,-0.168165,0.096178,0.012055,0.046507,-0.998354,-0.033575,-0.014830,0.015626,-0.016168,-2.541396,-38.570595,16.877251,,,,,,,
1558974948.484145,0.881689,1.512308,-2.732342,-0.072077,0.185522,0.014059,0.045116,-0.998290,-0.037168,-0.018367,0.019561,-0.020053,-2.621546,-38.627644,16.733915,,,,,,,
1558974948.504135,0.876791,1.512522,-2.724380,0.054354,0.099198,-0.014422,0.044771,-0.998303,-0.037253,-0.006349,0.026333,0.000297,-2.723323,-38.661121,16.640078,,,,,,,
1558974948.524129,0.925265,1.513432,-2.774068,0.136617,-0.148607,-0.041281,0.045796,-0.998355,-0.034493,0.011073,0.025760,0.014320,-2.720794,-38.627163,16.719173,,,,,,,
1558974948.544099,0.975654,1.515127,-2.828837,0.177872,-0.199469,0.020189,0.046075,-0.998451,-0.031194,0.020941,0.022911,0.007833,-2.636264,-38.583263,16.833694,,,,,,,
1558974948.564082,0.968591,1.519630,-2.821414,0.111587,0.123551,0.210066,0.042147,-0.998691,-0.028971,0.029996,0.027347,0.040843,-2.654324,-38.528431,16.955992,,,,,,,
1558974948.584073,1.003721,1.522317,-2.852892,0.050392,0.217717,0.056106,0.040875,-0.998825,-0.026031,0.002856,0.013535,0.029587,-2.842345,-38.458031,17.084843,,,,,,,
1558974948.604061,0.983621,1.522234,-2.828799,-0.099799,0.173006,0.023528,0.040413,-0.998821,-0.026894,0.011512,0.014065,0.028664,-2.920691,-38.454754,17.079008,,,,,,,
1558974948.624048,0.938906,1.521070,-2.782691,-0.128101,-0.022410,0.012026,0.040108,-0.998764,-0.029359,0.030388,0.026321,0.009874,-2.989807,-38.489155,16.989332,,,,,,,
1558974948.644056,0.912607,1.519023,-2.759019,-0.092370,-0.169545,-0.003237,0.040940,-0.998660,-0.031655,0.023894,0.035342,-0.008109,-2.931905,-38.542496,16.878119,,,,,,,
1558974948.664036,0.893918,1.518139,-2.742955,-0.058020,-0.087295,-0.014166,0.041029,-0.998614,-0.032967,0.020311,0.032229,-0.005271,-2.888083,-38.561546,16.842121,,,,,,,
1558974948.684046,0.876925,1.516825,-2.726129,-0.085291,0.030157,-0.026943,0.041472,-0.998544,-0.034499,0.014528,0.033487,-0.010118,-2.852140,-38.583435,16.798067,,,,,,,
1558974948.704046,0.859908,1.514528,-2.707909,-0.074539,0.067108,-0.019110,0.042616,-0.998417,-0.036695,0.028154,0.041478,-0.032747,-2.820223,-38.632301,16.690796,,,,,,,
1558974948.724034,0.858839,1.514045,-2.705940,0.027500,0.023242,-0.014110,0.042943,-0.998390,-0.037057,0.030223,0.045402,-0.032218,-2.826120,-38.647545,16.654472,,,,,,,
1558974948.744023,0.883791,1.515453,-2.731267,0.133702,-0.035399,0.021714,0.042767,-0.998469,-0.035082,0.035648,0.048411,-0.016218,-2.824830,-38.633694,16.686800,,,,,,,
1558974948.764017,0.928620,1.516512,-2.777055,0.108090,-0.057470,0.016139,0.043450,-0.998527,-0.032497,0.024895,0.029411,0.012905,-2.785689,-38.579773,16.817610,,,,,,,
1558974948.784006,0.942790,1.517551,-2.792337,0.045339,-0.035984,0.026971,0.043066,-0.998583,-0.031269,0.035166,0.029360,0.013584,-2.778017,-38.557014,16.870993,,,,,,,
1558974948.803995,0.961760,1.517965,-2.811588,0.029374,-0.009389,0.084859,0.043312,-0.998605,-0.030209,0.042199,0.026711,0.012890,-2.736415,-38.537567,16.922148,,,,,,,
1558974948.823990,0.973745,1.518824,-2.823664,0.003878,-0.002940,0.066746,0.042962,-0.998650,-0.029206,0.019950,0.008934,0.027329,-2.764522,-38.513721,16.971786,,,,,,,
1558974948.843976,0.951039,1.519352,-2.800141,-0.057617,0.068191,0.058836,0.041859,-0.998677,-0.029868,0.018704,0.008244,0.018912,-2.777116,-38.512474,16.972572,,,,,,,
1558974948.863967,0.937951,1.519628,-2.785698,-0.025765,0.052200,0.080058,0.041241,-0.998691,-0.030250,0.020343,0.008243,0.016303,-2.842241,-38.522976,16.937922,,,,,,,
1558974948.883960,0.921532,1.521206,-2.769475,0.028184,-0.048491,0.085543,0.039483,-0.998771,-0.029970,0.008765,0.003455,0.023912,-2.933388,-38.520279,16.928516,,,,,,,
1558974948.903933,0.915253,1.522901,-2.764399,-0.019694,-0.052501,0.063046,0.037953,-0.998853,-0.029185,-0.000401,-0.001757,0.014430,-2.945748,-38.516636,16.934650,,,,,,,
1558974948.923924,0.885399,1.523329,-2.734713,-0.037541,0.022638,0.061616,0.036734,-0.998874,-0.030035,-0.003927,0.000857,0.003362,-3.001177,-38.503479,16.954819,,,,,,,
1558974948.943918,0.881446,1.525225,-2.729791,0.042382,0.038040,0.039409,0.035154,-0.998962,-0.028975,-0.007780,-0.003388,0.015441,-3.082788,-38.500717,16.946457,,,,,,,
1558974948.963902,0.895280,1.525974,-2.743318,0.037036,0.009458,-0.007845,0.034967,-0.998996,-0.028018,-0.010034,-0.006192,0.028018,-3.118269,-38.472721,17.003447,,,,,,,
1558974948.983893,0.905595,1.525736,-2.753309,0.007317,0.028617,-0.023701,0.035441,-0.998985,-0.027802,-0.006495,-0.010903,0.017884,-3.115111,-38.468262,17.014105,,,,,,,
1558974949.003884,0.925971,1.525776,-2.773034,0.049811,0.014691,0.002890,0.035968,-0.998987,-0.027051,0.006268,-0.001975,-0.002185,-3.103574,-38.459354,17.036345,,,,,,,
1558974949.023893,0.950035,1.527103,-2.797847,0.050599,-0.063511,0.017089,0.035531,-0.999046,-0.025407,-0.004128,0.005653,0.016251,-3.098457,-38.446945,17.065256,,,,,,,
1558974949.043883,0.962494,1.528965,-2.811587,-0.022808,-0.054677,0.011781,0.034317,-0.999125,-0.023898,-0.014847,-0.003728,0.018939,-3.110798,-38.407589,17.151409,,,,,,,
1558974949.063856,0.932859,1.528567,-2.782554,-0.093997,-0.021557,-0.002905,0.033913,-0.999108,-0.025141,-0.002266,-0.009436,0.000559,-3.128154,-38.408760,17.145636,,,,,,,
1558974949.083865,0.906688,1.527090,-2.756966,-0.041889,-0.040871,-0.011591,0.034407,-0.999045,-0.026930,0.010195,-0.007211,-0.011400,-3.121709,-38.431561,17.095644,,,,,,,
1558974949.103853,0.913062,1.527075,-2.764989,0.051574,-0.106902,-0.015351,0.034588,-0.999044,-0.026719,-0.003170,-0.008936,0.000977,-3.080345,-38.452080,17.056965,,,,,,,
1558974949.123823,0.937861,1.528181,-2.792100,0.043053,-0.105791,-0.008939,0.034350,-0.999092,-0.025200,-0.016299,-0.016853,0.005562,-3.029593,-38.424835,17.127312,,,,,,,
1558974949.143837,0.929315,1.528641,-2.785116,-0.021742,-0.061048,-0.003222,0.033766,-0.999112,-0.025218,-0.021422,-0.016895,0.002101,-3.029771,-38.412315,17.155331,,,,,,,
1558974949.163813,0.899872,1.528358,-2.756643,-0.042960,-0.046162,-0.019108,0.033229,-0.999100,-0.026376,-0.026011,-0.020279,-0.010764,-3.040755,-38.423931,17.127356,,,,,,,
1558974949.183820,0.861526,1.528065,-2.719423,-0.022739,-0.060054,-0.049112,0.032416,-0.999087,-0.027821,-0.021551,-0.024625,-0.014430,-3.028211,-38.446251,17.079430,,,,,,,
1558974949.203809,0.858758,1.526764,-2.718090,-0.023827,-0.074874,-0.067404,0.033323,-0.999031,-0.028761,-0.011625,-0.027901,-0.018374,-2.995128,-38.468697,17.034651,,,,,,,
1558974949.223799,0.863679,1.525085,-2.724614,0.008081,-0.076079,-0.054579,0.034740,-0.998955,-0.029686,0.006917,-0.028633,-0.026283,-2.928112,-38.489365,16.999592,,,,,,,
1558974949.243787,0.868806,1.524010,-2.731049,0.066660,-0.054156,-0.031903,0.035711,-0.998906,-0.030200,0.003169,-0.040584,-0.024747,-2.844289,-38.496254,16.998230,,,,,,,
1558974949.263782,0.895548,1.524028,-2.759009,0.068823,-0.056325,-0.060748,0.036492,-0.998907,-0.029224,-0.002449,-0.044200,-0.019772,-2.796080,-38.491676,17.016579,,,,,,,
1558974949.283770,0.939616,1.523164,-2.803596,0.053125,-0.002426,-0.122168,0.038441,-0.998866,-0.028098,-0.007512,-0.062078,-0.031961,-2.741574,-38.478462,17.055292,,,,,,,
1558974949.303764,0.994999,1.521309,-2.858794,0.057496,0.010163,-0.170089,0.041491,-0.998776,-0.026935,0.012800,-0.081440,-0.052884,-2.614884,-38.463543,17.108747,,,,,,,
1558974949.323725,1.031181,1.517571,-2.895556,0.061618,-0.041692,-0.197274,0.045641,-0.998584,-0.027334,0.026747,-0.105115,-0.053720,-2.510192,-38.457085,17.138922,,,,,,,
1558974949.343742,1.082214,1.515061,-2.947436,0.052043,-0.027861,-0.170459,0.049188,-0.998447,-0.026147,0.020819,-0.138485,-0.064368,-2.334650,-38.470745,17.133078,,,,,,,
1558974949.363736,1.121525,1.511933,-2.986383,0.010864,0.054738,-0.213475,0.052991,-0.998268,-0.025550,-0.016919,-0.148537,-0.084817,-2.160509,-38.462143,17.175196,,,,,,,
1558974949.383724,1.153650,1.506904,-3.016539,-0.033486,0.123546,-0.301466,0.058373,-0.997960,-0.025868,-0.025307,-0.154109,-0.122768,-2.124185,-38.463490,17.176693,,,,,,,
1558974949.403713,1.188232,1.499925,-3.048403,-0.039642,0.146678,-0.404812,0.065694,-0.997490,-0.026434,-0.030339,-0.161583,-0.145196,-1.847000,-38.494286,17.139715,,,,,,,
1558974949.423708,1.225429,1.490900,-3.082170,-0.038255,0.202555,-0.497161,0.075099,-0.996810,-0.027020,-0.024287,-0.157563,-0.188572,-1.500679,-38.529922,17.093391,,,,,,,
1558974949.443670,1.268917,1.481162,-3.120375,0.028118,0.308939,-0.514240,0.085466,-0.995986,-0.026614,0.004286,-0.146928,-0.225889,-1.267463,-38.547184,17.073355,,,,,,,
1558974949.463685,1.322082,1.472023,3.116321,0.119817,0.365568,-0.492271,0.095578,-0.995126,-0.024274,0.027743,-0.132789,-0.250140,-0.981477,-38.544849,17.097448,,,,,,,
1558974949.483680,1.383185,1.462914,3.063355,0.191534,0.470843,-0.525371,0.105783,-0.994186,-0.020082,0.010352,-0.106430,-0.263334,-0.669870,-38.495060,17.224195,,,,,,,
1558974949.503666,1.450417,1.451749,3.007965,0.246715,0.688121,-0.643891,0.117907,-0.992922,-0.014263,-0.011172,-0.061048,-0.250660,-0.486622,-38.446877,17.337589,,,,,,,
1558974949.523657,1.524499,1.438486,2.949313,0.345277,0.846045,-0.717036,0.131783,-0.991260,-0.006106,-0.017846,-0.046109,-0.250791,-0.233459,-38.360260,17.533600,,,,,,,
1558974949.543651,1.596346,1.423664,2.894914,0.382841,0.920853,-0.753651,0.146554,-0.989196,0.003745,-0.011468,-0.010850,-0.250434,0.079605,-38.204659,17.871454,,,,,,,
1558974949.563633,1.662326,1.408221,2.847035,0.447845,0.946951,-0.743741,0.161182,-0.986814,0.014794,-0.031025,0.059308,-0.272561,0.318455,-38.058369,18.178291,,,,,,,
1558974949.583629,1.734390,1.392219,2.794235,0.621684,1.052817,-0.729776,0.175257,-0.984097,0.028930,-0.056269,0.061139,-0.266768,0.476310,-37.921703,18.458290,,,,,,,
1558974949.603623,1.816223,1.375014,2.733997,0.755103,1.160985,-0.731837,0.188704,-0.980896,0.047266,-0.074141,0.095184,-0.233621,0.654799,-37.598858,19.102058,,,,,,,
1558974949.623611,1.884186,1.357170,2.689428,0.611708,1.254753,-0.733190,0.201679,-0.977269,0.065358,-0.074680,0.131718,-0.238530,0.724559,-37.378181,19.527872,,,,,,,
1558974949.643601,1.933675,1.340001,2.666310,0.503592,1.407571,-0.706190,0.213856,-0.973485,0.081200,-0.072727,0.156697,-0.273323,0.763267,-37.188885,19.884556,,,,,,,
1558974949.663580,1.991910,1.323648,2.636826,0.761333,1.511064,-0.569402,0.223266,-0.969614,0.100003,-0.044968,0.226389,-0.298520,0.660066,-36.839130,20.528862,,,,,,,
1558974949.683584,2.071797,1.306293,2.585294,1.058057,1.487495,-0.443408,0.229300,-0.965223,0.125566,-0.046988,0.258496,-0.273026,0.483763,-36.567867,21.013050,,,,,,,
1558974949.703557,2.148955,1.288261,2.536062,0.968741,1.519679,-0.439968,0.233479,-0.960352,0.152355,-0.080800,0.297006,-0.253536,0.252650,-36.230118,21.594118,,,,,,,
1558974949.723559,2.213135,1.272222,2.504152,0.788561,1.804057,-0.338100,0.235532,-0.955757,0.176221,-0.104733,0.329063,-0.260251,-0.330217,-35.610828,22.599794,,,,,,,
1558974949.743556,2.291184,1.257481,2.464235,1.055292,2.089431,-0.119490,0.231639,-0.951317,0.203322,-0.117732,0.329811,-0.242339,-0.829817,-35.329300,23.024843,,,,,,,
1558974949.763545,2.383585,1.240233,2.411302,1.245703,2.100223,-0.008199,0.223138,-0.945860,0.235709,-0.154352,0.342634,-0.176704,-1.492883,-34.963860,23.543385,,,,,,,
1558974949.783521,2.467338,1.222994,2.366917,1.023221,2.097158,-0.011609,0.212787,-0.940124,0.266249,-0.237933,0.374313,-0.090620,-2.994637,-34.098755,24.643429,,,,,,,
1558974949.803527,2.541522,1.208194,2.333106,0.967925,2.149356,0.064649,0.200304,-0.934977,0.292739,-0.249727,0.368495,-0.072860,-3.780704,-33.738049,25.028816,,,,,,,
1558974949.823513,2.620388,1.191464,2.295680,1.094751,2.242918,0.168140,0.184382,-0.928912,0.321132,-0.232218,0.345920,0.056554,-4.923441,-33.227654,25.508308,,,,,,,
1558974949.843486,2.696631,1.176843,2.263874,0.773764,2.393651,0.173596,0.165215,-0.923399,0.346467,-0.261010,0.360975,0.058593,-6.543001,-32.541744,26.023355,,,,,,,
1558974949.863500,2.759489,1.168702,2.248604,0.361030,2.432658,0.067942,0.145922,-0.920244,0.363123,-0.241198,0.387590,0.014715,-7.895392,-32.212559,26.057722,,,,,,,
1558974949.883484,2.818466,1.159654,2.234056,0.714477,2.167758,0.171386,0.126904,-0.916665,0.378974,-0.171567,0.360467,0.085733,-8.859655,-32.050812,25.946936,,,,,,,
1558974949.903455,2.880119,1.143349,2.208383,0.970627,1.788206,0.308888,0.107163,-0.910027,0.400459,-0.170105,0.330635,0.185021,-10.362454,-31.474533,26.095291,,,,,,,
1558974949.923470,2.936041,1.131913,2.185653,0.387348,1.824097,0.348267,0.086731,-0.905227,0.415983,-0.187271,0.360412,0.200792,-11.481688,-30.979286,26.219183,,,,,,,
1558974949.943446,2.995451,1.136752,2.165635,-0.433482,2.200763,0.539121,0.061240,-0.907272,0.416061,-0.175742,0.323090,0.134888,-12.412777,-30.851122,25.944603,,,,,,,
1558974949.963454,3.067285,1.147182,2.141050,-0.396340,2.525186,0.616991,0.030517,-0.911609,0.409924,-0.151794,0.317157,0.083774,-14.308670,-30.949131,24.827490,,,,,,,
1558974949.983442,-3.139106,1.151300,2.107429,-0.057216,2.124044,0.744744,-0.001013,-0.913294,0.407299,-0.114374,0.362620,0.086933,-15.512028,-30.917692,24.134296,,,,,,,
1558974950.003433,-3.066146,1.149512,2.066989,0.085745,1.631970,0.871469,-0.030823,-0.912564,0.407770,-0.107055,0.358838,0.106436,-16.959871,-30.684719,23.447857,,,,,,,
1558974950.023426,-2.992911,1.144848,2.019814,0.131764,1.470289,1.062135,-0.061207,-0.910647,0.408626,-0.126690,0.254229,0.170399,-18.580132,-30.214653,22.822014,,,,,,,
1558974950.043400,-2.913230,1.140296,1.965735,-0.081943,1.603722,1.184952,-0.094475,-0.908757,0.406491,-0.167762,0.259084,0.180713,-19.576004,-29.868423,22.442118,,,,,,,
1558974950.063404,-2.823841,1.138019,1.906301,-0.281429,1.837443,1.272441,-0.131032,-0.907804,0.398399,-0.161540,0.303450,0.182457,-20.636976,-29.539452,21.920933,,,,,,,
1558974950.083397,-2.732142,1.131803,1.841137,-0.105287,1.433031,1.469429,-0.169206,-0.905180,0.389895,-0.085387,0.291166,0.263745,-22.895315,-28.839876,20.568344,,,,,,,
1558974950.103387,-2.656095,1.116797,1.778435,0.178400,0.674884,1.579841,-0.204655,-0.898700,0.387884,-0.120495,0.213596,0.375468,-24.232109,-28.116867,20.030916,,,,,,,
1558974950.123376,-2.595382,1.098227,1.719086,0.047226,0.301469,1.631679,-0.236442,-0.890402,0.388947,-0.200020,0.257437,0.452407,-25.053886,-27.469194,19.918268,,,,,,,
1558974950.143369,-2.518044,1.087777,1.645384,-0.901571,0.897495,1.746592,-0.271205,-0.885597,0.377050,-0.181386,0.349998,0.463556,-26.284500,-33.346165,24.986820,,,,,,,
1558974950.163358,-2.402344,1.086178,1.543482,-1.628584,1.350939,2.010855,-0.313872,-0.884853,0.344267,-0.041658,0.191493,0.419970,-28.057053,-32.961040,23.527760,,,,,,,
1558974950.183347,-2.280973,1.077584,1.430015,-1.551944,0.799089,2.221299,-0.358998,-0.880817,0.308679,-0.091762,0.142246,0.401969,-29.514452,-32.624962,22.174137,,,,,,,
1558974950.203320,-2.176609,1.061191,1.320662,-1.699569,0.284139,2.285649,-0.401018,-0.872937,0.277787,-0.191115,0.172299,0.403137,-31.651226,-31.745089,20.436066,,,,,,,
1558974950.223329,-2.061535,1.043798,1.197949,-2.442700,0.594654,2.337138,-0.443587,-0.864320,0.237025,-0.252122,0.271440,0.360524,-33.238701,-31.014866,18.985523,,,,,,,
1558974950.243293,-1.931440,1.024151,1.062967,-2.779077,0.586882,2.319712,-0.486384,-0.854273,0.183434,-0.163564,0.134837,0.263618,-34.501915,-30.545311,17.429440,,,,,,,
1558974950.263288,-1.835938,0.994721,0.951423,-2.091163,-0.322647,2.282730,-0.525701,-0.838607,0.142746,-0.164286,-0.079362,0.236847,-36.396900,-29.544449,15.151718,,,,,,,
1558974950.283282,-1.784143,0.959552,0.866948,-1.833077,-1.153779,2.268576,-0.560876,-0.818934,0.121510,-0.216452,-0.060552,0.270793,-37.256733,-28.731281,14.616170,,,,,,,
1558974950.303278,-1.743181,0.923747,0.787565,-2.104068,-1.065843,2.159233,-0.593900,-0.797866,0.103405,-0.362994,-0.008775,0.307392,-38.189613,-27.569691,14.444691,,,,,,,
1558974950.323255,-1.689471,0.890332,0.699305,-2.628260,-0.643728,1.976015,-0.624729,-0.777281,0.074490,-0.320995,-0.013186,0.274494,-39.275093,-26.321606,13.850044,,,,,,,
1558974950.343266,-1.637785,0.857942,0.610660,-2.609139,-1.051011,1.819458,-0.652529,-0.756499,0.043777,-0.295927,-0.115526,0.231034,-40.074760,-25.525826,13.024167,,,,,,,
1558974950.363245,-1.612953,0.826500,0.538127,-2.206531,-1.715103,1.626586,-0.676853,-0.735564,0.028550,-0.265957,-0.206940,0.235198,-40.074760,-25.525826,13.024167,,,,,,,
1558974950.383256,-1.605621,0.797639,0.474182,-2.156149,-1.999926,1.477632,-0.697975,-0.715709,0.024317,-0.412193,-0.165654,0.263373,-40.780621,-24.372059,13.043273,,,,,,,
1558974950.403245,-1.593154,0.771435,0.405092,-2.586986,-1.668125,1.309640,-0.716731,-0.697165,0.016027,-0.435643,-0.143167,0.236201,-41.047981,-23.489950,13.801043,,,,,,,
1558974950.423233,-1.570121,0.748756,0.327637,-2.862810,-1.485207,1.082693,-0.732536,-0.680728,-0.000495,-0.403282,-0.185437,0.209296,-41.047981,-23.489950,13.801043,,,,,,,
1558974950.443227,-1.554904,0.729546,0.253991,-2.628612,-1.913825,0.844963,-0.745383,-0.666531,-0.011847,-0.311608,-0.364612,0.093543,-41.202732,-23.189863,13.847329,,,,,,,
1558974950.463217,-1.553220,0.715070,0.186925,-2.516223,-2.176970,0.566014,-0.754931,-0.655670,-0.013270,-0.429426,-0.357346,0.054072,-41.167820,-23.198439,13.936524,,,,,,,
1558974950.483206,-1.549836,0.706983,0.118760,-2.641702,-1.965403,0.233765,-0.760158,-0.649543,-0.015936,-0.453832,-0.325219,0.013616,-40.671795,-23.553957,14.771575,,,,,,,
1558974950.503199,-1.539210,0.704532,0.047291,-2.764910,-1.689301,-0.051956,-0.761534,-0.647678,-0.024062,-0.429384,-0.292630,-0.027879,-40.061165,-24.391918,15.077148,,,,,,,
1558974950.523162,-1.528590,0.707529,-0.022330,-2.524280,-1.824245,-0.385094,-0.759294,-0.649958,-0.032066,-0.403686,-0.255102,-0.084175,-39.927559,-24.610571,15.076244,,,,,,,
1558974950.543178,-1.529753,0.717449,-0.083348,-2.161891,-2.153244,-0.706111,-0.752851,-0.657465,-0.030917,-0.372760,-0.207403,-0.134122,-38.847645,-26.167065,15.275091,,,,,,,
1558974950.563171,-1.534720,0.732219,-0.138667,-1.987567,-1.982096,-0.868744,-0.743209,-0.668522,-0.026824,-0.311113,-0.192059,-0.161103,-37.517387,-27.704731,15.876915,,,,,,,
1558974950.583134,-1.536057,0.749748,-0.190143,-1.796001,-1.727489,-0.992136,-0.731419,-0.681454,-0.025419,-0.284496,-0.170551,-0.154817,-36.682259,-28.669287,16.114191,,,,,,,
1558974950.603149,-1.535742,0.770101,-0.238909,-1.717759,-1.630870,-1.136349,-0.717399,-0.696208,-0.025158,-0.300347,-0.152013,-0.155170,-35.533943,-29.974909,16.310337,,,,,,,
1558974950.623142,-1.532031,0.793376,-0.288532,-1.712883,-1.508497,-1.280374,-0.700916,-0.712726,-0.027185,-0.259701,-0.152234,-0.253485,-33.973400,-31.696468,16.380632,,,,,,,
1558974950.643118,-1.524550,0.818620,-0.337443,-1.554554,-1.305442,-1.358377,-0.682499,-0.730203,-0.031586,-0.227703,-0.161047,-0.327957,-32.983784,-32.766697,16.297152,,,,,,,
1558974950.663119,-1.518683,0.845279,-0.377941,-1.141010,-1.176646,-1.425143,-0.662622,-0.748156,-0.034563,-0.235297,-0.144071,-0.333113,-31.654320,-34.134674,16.124865,,,,,,,
1558974950.683103,-1.520442,0.873923,-0.408857,-0.818796,-1.321185,-1.525559,-0.641009,-0.766853,-0.032305,-0.219846,-0.114739,-0.317900,-29.901737,-35.675350,16.135021,,,,,,,
1558974950.703103,-1.529166,0.904733,-0.431372,-0.549179,-1.263521,-1.600595,-0.617361,-0.786260,-0.025716,-0.208583,-0.118922,-0.311000,-28.345142,-36.809200,16.395693,,,,,,,
1558974950.723073,-1.536621,0.937171,-0.449867,-0.496113,-1.018673,-1.667606,-0.591724,-0.805887,-0.020230,-0.224270,-0.094565,-0.296359,-27.545879,-37.346134,16.543104,,,,,,,
1558974950.743079,-1.537700,0.971128,-0.470588,-0.582674,-0.834419,-1.748120,-0.564060,-0.825523,-0.018675,-0.221798,-0.058526,-0.242235,-25.125198,-38.927536,16.749775,,,,,,,
1558974950.763075,-1.530918,1.006379,-0.495935,-0.643720,-0.650266,-1.807262,-0.534498,-0.844901,-0.021326,-0.206713,-0.050684,-0.272772,-23.886673,-39.728420,16.681210,,,,,,,
1558974950.783045,-1.521974,1.042191,-0.519240,-0.411117,-0.490844,-1.821565,-0.503729,-0.863511,-0.024613,-0.162089,-0.060592,-0.313110,-22.223324,-40.766922,16.473171,,,,,,,
1558974950.803051,-1.522159,1.078485,-0.529714,-0.033164,-0.480171,-1.838243,-0.472105,-0.881243,-0.022980,-0.143984,-0.047941,-0.238891,-20.145386,-41.858177,16.408533,,,,,,,
1558974950.823047,-1.531423,1.115695,-0.531020,0.052977,-0.525084,-1.882377,-0.439213,-0.898216,-0.017302,-0.172192,-0.004051,-0.212983,-18.415714,-42.561172,16.631039,,,,,,,
1558974950.843013,-1.535185,1.153776,-0.536050,-0.092145,-0.326720,-1.922233,-0.404781,-0.914300,-0.014421,-0.164585,0.034402,-0.222060,-17.077946,-43.059761,16.774498,,,,,,,
1558974950.863019,-1.530117,1.191939,-0.544639,-0.068869,-0.032949,-1.892711,-0.369553,-0.929088,-0.015041,-0.094726,0.051952,-0.230350,-14.887493,-43.864357,16.776892,,,,,,,
1558974950.883018,-1.525504,1.228123,-0.548159,0.061210,0.089168,-1.766524,-0.335662,-0.941860,-0.015213,-0.099824,0.077022,-0.211563,-13.273819,-44.388641,16.752253,,,,,,,
1558974950.902980,-1.523189,1.262695,-0.548881,0.054696,0.072361,-1.718646,-0.302906,-0.952911,-0.014431,-0.106930,0.128280,-0.179523,-12.129333,-44.703274,16.783340,,,,,,,
1558974950.922986,-1.519808,1.297053,-0.551085,0.071743,0.077558,-1.717515,-0.269986,-0.962766,-0.013778,-0.074420,0.173627,-0.223572,-10.226731,-45.161472,16.823746,,,,,,,
1558974950.942989,-1.519647,1.330955,-0.547557,0.169107,0.252589,-1.664515,-0.237238,-0.971376,-0.012145,-0.072836,0.190660,-0.224381,-8.728244,-45.448421,16.895020,,,,,,,
1558974950.962978,-1.523326,1.363024,-0.536202,0.206819,0.443883,-1.548415,-0.206048,-0.978493,-0.009788,-0.021690,0.233803,-0.165199,-7.685898,-45.601837,16.987713,,,,,,,
1558974950.982972,-1.523218,1.393004,-0.524896,0.168950,0.609065,-1.488144,-0.176657,-0.984237,-0.008411,-0.039118,0.241881,-0.153851,-6.156808,-45.782600,17.123976,,,,,,,
1558974951.002961,-1.526137,1.422537,-0.508663,0.244650,0.663690,-1.449125,-0.147569,-0.989030,-0.006595,-0.027419,0.257188,-0.139951,-5.021525,-45.885796,17.218054,,,,,,,
1558974951.022944,-1.556712,1.451130,-0.465394,0.361391,0.579648,-1.398589,-0.119369,-0.992849,-0.001681,-0.008271,0.261342,-0.097974,-4.198738,-45.911026,17.370436,,,,,,,
1558974951.042943,-1.623357,1.477785,-0.387502,0.406933,0.552064,-1.305931,-0.092749,-0.995678,0.004879,-0.023218,0.249065,-0.047665,-2.868655,-45.869751,17.745995,,,,,,,
1558974951.062931,-1.753367,1.501838,-0.245421,0.434533,0.564721,-1.226782,-0.067758,-0.997623,0.012510,-0.002097,0.248127,0.016360,-1.903941,-45.779182,18.105923,,,,,,,
1558974951.082921,-1.974424,1.522457,-0.014710,0.272088,0.405025,-1.148368,-0.044438,-0.998832,0.018978,0.012043,0.255073,0.046772,-1.220872,-45.695007,18.375504,,,,,,,
1558974951.102914,-2.346574,1.539543,0.365695,0.119877,0.431268,-1.098059,-0.022308,-0.999512,0.021883,0.008301,0.260239,0.026365,-0.110820,-45.610641,18.623661,,,,,,,
1558974951.122878,-3.066858,1.545864,1.095936,0.196546,0.491284,-0.984253,-0.001862,-0.999689,0.024862,0.040131,0.261042,0.022914,0.495505,-45.572250,18.711172,,,,,,,
1558974951.142893,2.664129,1.536859,1.657687,0.283464,0.449835,-0.828703,0.015591,-0.999424,0.030135,0.043307,0.262989,0.029573,1.029149,-45.505669,18.850952,,,,,,,
1558974951.162886,2.446074,1.523760,1.884210,0.287357,0.399274,-0.696796,0.030129,-0.998894,0.036097,0.051765,0.245461,0.059362,1.883124,-45.309929,19.252211,,,,,,,
1558974951.182854,2.348165,1.510964,1.989146,0.284753,0.295834,-0.607038,0.042621,-0.998211,0.041942,0.041760,0.245830,0.068791,2.229049,-45.207500,19.455000,,,,,,,
1558974951.202864,2.305898,1.498406,2.035973,0.339683,0.199463,-0.536384,0.053649,-0.997381,0.048507,0.034302,0.238516,0.076737,2.553690,-45.101639,19.659723,,,,,,,
1558974951.222857,2.286099,1.487240,2.059653,0.253268,0.184201,-0.442647,0.063003,-0.996511,0.054737,0.044281,0.219640,0.135479,3.138611,-44.865204,20.110832,,,,,,,
1558974951.242832,2.260634,1.479348,2.089532,0.104301,0.244312,-0.351441,0.070440,-0.995821,0.058118,0.047937,0.189211,0.132190,3.423667,-44.760628,20.296495,,,,,,,
1558974951.262835,2.240085,1.473964,2.115373,0.074363,0.250964,-0.248907,0.075823,-0.995315,0.059984,0.047880,0.178924,0.133879,3.563664,-44.717438,20.367477,,,,,,,
1558974951.282829,2.229432,1.469926,2.130044,0.053753,0.167678,-0.174986,0.079636,-0.994917,0.061632,0.031784,0.163267,0.137312,3.706892,-44.659470,20.468857,,,,,,,
1558974951.302818,2.217006,1.467353,2.144795,-0.009434,0.068706,-0.137548,0.082440,-0.994654,0.062179,0.024143,0.133952,0.132279,3.769303,-44.637508,20.505329,,,,,,,
1558974951.322807,2.196068,1.465741,2.165839,-0.051277,-0.025129,-0.124601,0.085023,-0.994487,0.061378,0.020171,0.111064,0.097100,3.869834,-44.633488,20.495359,,,,,,,
1558974951.342786,2.178182,1.464818,2.183714,-0.045903,0.014029,-0.072974,0.086861,-0.994390,0.060371,0.026482,0.083379,0.076226,4.000461,-44.648445,20.437611,,,,,,,
1558974951.362789,2.167633,1.464857,2.195079,-0.059717,0.050133,-0.010717,0.087460,-0.994394,0.059430,0.011234,0.054010,0.069843,4.031634,-44.663857,20.397768,,,,,,,
1558974951.382757,2.152148,1.466021,2.212206,-0.138365,0.092843,0.000306,0.087403,-0.994516,0.057433,0.003203,0.053552,0.060640,4.023910,-44.677326,20.369789,,,,,,,
1558974951.402753,2.128809,1.467729,2.237451,-0.151207,0.073890,0.004385,0.087278,-0.994693,0.054478,0.011660,0.047184,0.017880,3.970362,-44.761234,20.195345,,,,,,,
1558974951.422760,2.110723,1.468943,2.255909,-0.089781,-0.024746,-0.002916,0.087213,-0.994817,0.052269,0.011008,0.041342,0.019294,3.951108,-44.802647,20.107084,,,,,,,
1558974951.442745,2.094211,1.469291,2.271201,-0.073914,-0.072451,-0.040728,0.087765,-0.994853,0.050649,-0.002285,0.024394,0.020350,3.960880,-44.829769,20.044617,,,,,,,
1558974951.462720,2.074205,1.469253,2.290239,-0.085512,-0.043869,-0.052208,0.088794,-0.994849,0.048902,0.006299,0.023276,0.007250,4.051265,-44.872021,19.931688,,,,,,,
1558974951.482733,2.058138,1.469064,2.305447,-0.054681,-0.050355,-0.040501,0.089734,-0.994830,0.047557,0.025089,0.017504,0.000127,4.097672,-44.891659,19.877903,,,,,,,
1558974951.502692,2.043984,1.469038,2.318488,-0.061108,-0.055585,-0.025609,0.090421,-0.994827,0.046294,0.032550,0.013077,-0.011748,4.154019,-44.910702,19.823132,,,,,,,
1558974951.522695,2.031646,1.469394,2.330251,-0.050360,-0.012265,0.000437,0.090668,-0.994863,0.045017,0.029052,0.010885,-0.014637,4.199542,-44.939732,19.747601,,,,,,,
1558974951.542704,2.029657,1.469935,2.332251,-0.005669,-0.003999,0.030446,0.090275,-0.994918,0.044598,0.025738,-0.001435,-0.006009,-1.002447,-42.609035,23.811977,,,,,,,
1558974951.562692,2.034008,1.470486,2.327771,0.010313,0.002263,0.033722,0.089589,-0.994973,0.044746,0.008021,-0.005012,-0.002692,-1.021348,-42.608025,23.812992,,,,,,,
1558974951.582687,2.035222,1.470848,2.327021,-0.019342,0.034107,0.008387,0.089212,-0.995009,0.044693,0.005926,-0.000932,-0.011993,-1.056008,-42.604733,23.817377,,,,,,,
1558974951.602675,2.013020,1.470211,2.349475,0.022079,0.000042,-0.006859,0.090756,-0.994946,0.042973,0.012104,0.008160,-0.014149,-1.068361,-42.613689,23.800798,,,,,,,
1558974951.622664,2.006439,1.467535,2.354696,0.071801,-0.098537,-0.017381,0.093450,-0.994673,0.043498,0.011500,0.001891,-0.001903,-0.929557,-42.650002,23.741507,,,,,,,
1558974951.642657,2.016902,1.465032,2.342060,0.055883,-0.095318,-0.040854,0.095236,-0.994412,0.045548,0.007730,0.001569,0.005920,-0.777322,-42.602154,23.832703,,,,,,,
1558974951.662621,2.014902,1.462410,2.342844,0.012417,-0.039059,-0.033949,0.097680,-0.994132,0.046477,0.011634,0.007331,0.003587,-0.662759,-42.570293,23.893036,,,,,,,
1558974951.682636,2.009524,1.460539,2.347947,-0.001325,-0.000904,-0.013315,0.099614,-0.993928,0.046741,0.009456,0.009385,-0.000507,-0.544816,-42.554741,23.923683,,,,,,,
1558974951.702629,2.008189,1.459707,2.349603,-0.023577,0.028806,-0.015186,0.100425,-0.993836,0.046958,0.001901,0.008362,0.004235,-0.487528,-42.553818,23.926561,,,,,,,
1558974951.722599,2.002694,1.459637,2.355717,-0.042755,0.020441,-0.021687,0.100744,-0.993828,0.046435,-0.002127,0.017632,0.002866,-0.482706,-42.559734,23.916138,,,,,,,
1558974951.742607,1.992776,1.459264,2.365661,-0.035348,-0.006067,-0.050761,0.101538,-0.993787,0.045585,-0.002356,0.021329,-0.000923,-0.475914,-42.570194,23.897646,,,,,,,
1558974951.762600,1.981394,1.457896,2.377226,-0.004378,0.021242,-0.057951,0.103296,-0.993634,0.044969,0.005346,0.030911,-0.003816,-0.401727,-42.597771,23.849821,,,,,,,
1558974951.782590,1.971847,1.455637,2.387215,0.017947,0.022212,-0.036577,0.105788,-0.993376,0.044857,0.015108,0.029753,-0.005291,-0.322906,-42.605213,23.837708,,,,,,,
1558974951.802578,1.973426,1.454322,2.386271,0.041374,0.036927,-0.009729,0.106918,-0.993225,0.045536,0.014756,0.026718,-0.002659,-0.271114,-42.602978,23.842363,,,,,,,
1558974951.822572,1.981375,1.452577,2.378931,0.031750,0.032782,0.012640,0.108142,-0.993020,0.047077,0.012265,0.023263,0.008298,-0.220576,-42.569500,23.902603,,,,,,,
1558974951.842543,1.991780,1.451343,2.369167,0.020016,0.026509,0.017906,0.108764,-0.992874,0.048700,0.008087,0.025009,0.014365,-0.200261,-42.536175,23.962032,,,,,,,
1558974951.862549,1.995727,1.451108,2.365836,-0.019348,0.033060,0.019004,0.108784,-0.992846,0.049224,0.008343,0.025439,0.012955,-0.204465,-42.517586,23.994976,,,,,,,
1558974951.882543,1.990410,1.450899,2.371677,-0.008729,0.028786,0.026441,0.109233,-0.992821,0.048730,0.009907,0.019982,-0.008950,-0.190426,-42.507793,24.012428,,,,,,,
1558974951.902526,1.992581,1.451422,2.370244,0.054124,0.051734,0.042725,0.108654,-0.992883,0.048755,-0.007641,0.007120,0.003095,-0.210676,-42.532326,23.968781,,,,,,,
1558974951.922509,2.011538,1.451931,2.352539,0.054182,0.067585,0.039675,0.107253,-0.992944,0.050590,-0.014418,0.003320,0.013802,-0.252783,-42.515240,23.998669,,,,,,,
1558974951.942487,2.038568,1.452706,2.326832,-0.008596,0.059413,0.008593,0.105160,-0.993035,0.053123,-0.016232,0.007272,0.014855,-0.418294,-42.433472,24.140659,,,,,,,
1558974951.962504,2.036209,1.452952,2.329709,-0.028992,-0.000756,-0.009081,0.105067,-0.993064,0.052765,0.001699,0.009223,0.000640,-0.469175,-42.430290,24.145317,,,,,,,
1558974951.982478,2.034312,1.452669,2.331059,0.022000,-0.031676,-0.008269,0.105418,-0.993031,0.052692,0.002904,0.009572,-0.001804,-0.459366,-42.435524,24.136297,,,,,,,
1558974952.002485,2.040064,1.451727,2.324862,0.029502,-0.013737,-0.001687,0.105947,-0.992920,0.053720,0.000605,0.011429,0.006598,-0.423849,-42.429943,24.146742,,,,,,,
1558974952.022475,2.040980,1.451453,2.324096,-0.009752,0.022396,-0.009914,0.106141,-0.992887,0.053940,0.002441,0.003995,0.003448,-0.402811,-42.404018,24.192608,,,,,,,
1558974952.042445,2.046558,1.450903,2.318839,0.056144,-0.005422,-0.002654,0.106323,-0.992821,0.054781,0.002701,0.006737,0.004880,-0.402811,-42.404018,24.192608,,,,,,,
1558974952.062457,2.063857,1.449704,2.300827,0.042240,-0.033911,-0.017884,0.106408,-0.992677,0.057176,-0.005212,0.008379,0.017714,-0.386089,-42.339733,24.305210,,,,,,,
