timestamp(unix),attitude_roll(radians),attitude_pitch(radians),attitude_yaw(radians),rotation_rate_x(radians/s),rotation_rate_y(radians/s),rotation_rate_z(radians/s),gravity_x(G),gravity_y(G),gravity_z(G),user_acc_x(G),user_acc_y(G),user_acc_z(G),magnetic_field_x(microteslas),magnetic_field_y(microteslas),magnetic_field_z(microteslas),latitude(degree),longitude(degree),altitude(meter),speed(m/s),course(degree),timestamp(unix),User Mark
1558971708.958142,-2.612186,1.546785,1.544872,-0.026952,0.095837,-0.067741,-0.012126,-0.999712,0.020724,-0.005422,0.009065,0.031720,-17.162577,-40.545784,-1.492967,,,,,,,
1558971708.978139,-2.636075,1.547946,1.569375,-0.027347,-0.012997,-0.043160,-0.011066,-0.999739,0.019993,0.005969,0.014555,0.024105,-17.120604,-40.562054,-1.532467,,,,,,,
1558971708.998128,-2.674481,1.548224,1.607289,0.002403,-0.022642,-0.026148,-0.010165,-0.999745,0.020155,0.009723,-0.000041,-0.003431,-17.059593,-40.587276,-1.544927,,,,,,,
1558971709.018086,-2.690649,1.548220,1.622928,0.000222,-0.032123,-0.012361,-0.009839,-0.999745,0.020320,0.014585,0.005910,-0.001368,-17.047020,-40.592972,-1.534097,,,,,,,
1558971709.038098,-2.717806,1.548575,1.649442,0.007675,-0.036406,-0.023074,-0.009136,-0.999753,0.020252,0.010906,0.005399,-0.003391,-17.039577,-40.596432,-1.525194,,,,,,,
1558971709.058071,-2.733396,1.548528,1.664238,0.012997,-0.030072,-0.009129,-0.008840,-0.999752,0.020439,0.002156,0.009777,-0.003242,-17.011726,-40.608532,-1.513937,,,,,,,
1558971709.078053,-2.726630,1.549115,1.658134,-0.039946,0.061127,0.002377,-0.008740,-0.999765,0.019839,0.002118,0.009576,-0.008425,-17.002405,-40.612911,-1.501228,,,,,,,
1558971709.098034,-2.692932,1.549840,1.625652,-0.024094,0.035705,0.022432,-0.009089,-0.999780,0.018879,0.002680,0.014597,-0.005680,-17.000261,-40.612015,-1.548796,,,,,,,
1558971709.118040,-2.674573,1.549411,1.606893,0.029923,-0.051268,0.013102,-0.009628,-0.999771,0.019095,0.000320,-0.011749,0.008692,-17.025555,-40.599777,-1.591274,,,,,,,
1558971709.138032,-2.699969,1.548658,1.630729,0.009693,-0.072365,-0.028754,-0.009461,-0.999755,0.020012,-0.004485,-0.008012,0.013099,-17.034826,-40.597546,-1.548366,,,,,,,
1558971709.158010,-2.724135,1.549224,1.654375,-0.018769,0.002800,-0.050477,-0.008746,-0.999767,0.019719,-0.014051,-0.003544,-0.006291,-17.022848,-40.604012,-1.510182,,,,,,,
1558971709.177977,-2.731639,1.549516,1.663289,-0.035487,0.098020,-0.049575,-0.008480,-0.999774,0.019514,0.004971,0.021777,0.020602,-16.985292,-40.618294,-1.548439,,,,,,,
1558971709.197990,-2.751673,1.550577,1.684153,-0.044401,-0.005463,-0.011072,-0.007686,-0.999796,0.018703,0.014659,0.015741,0.005361,-16.975418,-40.621178,-1.580717,,,,,,,
1558971709.217976,-2.782715,1.551160,1.715160,0.016333,0.005823,-0.025864,-0.006896,-0.999807,0.018384,0.016433,0.001837,-0.010434,-16.933823,-40.637333,-1.611330,,,,,,,
1558971709.237964,-2.834375,1.551090,1.766022,0.004340,-0.061702,0.015113,-0.005959,-0.999806,0.018783,0.012627,0.000065,0.010270,-16.902399,-40.651245,-1.590271,,,,,,,
1558971709.257950,-2.830871,1.551946,1.761619,-0.047653,-0.025540,-0.017680,-0.005764,-0.999822,0.017949,0.005520,-0.002695,-0.005940,-16.890802,-40.656540,-1.578079,,,,,,,
1558971709.277935,-2.845754,1.553261,1.776785,-0.020822,0.033486,-0.035244,-0.005112,-0.999846,0.016772,-0.001114,0.006621,-0.023761,-16.867941,-40.663795,-1.634592,,,,,,,
1558971709.297922,-2.875887,1.553904,1.807155,0.012989,-0.026892,-0.001631,-0.004436,-0.999857,0.016299,0.014934,0.021387,-0.011050,-16.835152,-40.675892,-1.671225,,,,,,,
1558971709.317908,-2.828537,1.555628,1.758718,-0.015809,-0.038357,0.005709,-0.004672,-0.999885,0.014432,-0.006910,-0.009164,-0.037396,-16.825308,-40.679893,-1.672999,,,,,,,
1558971709.337894,-2.879224,1.555167,1.809557,0.043977,0.009936,-0.004459,-0.004054,-0.999878,0.015095,0.009776,0.014755,0.017468,-16.826111,-40.676788,-1.739006,,,,,,,
1558971709.357866,-2.868015,1.553266,1.796786,0.047779,-0.115823,0.026371,-0.004736,-0.999846,0.016877,-0.012949,-0.007463,0.009109,-16.824257,-40.681816,-1.636371,,,,,,,
1558971709.377858,-2.807238,1.552871,1.734799,0.008807,-0.012106,-0.023908,-0.005882,-0.999839,0.016932,-0.026131,-0.001275,-0.012934,-16.843300,-40.675068,-1.607962,,,,,,,
1558971709.397763,-2.812616,1.552988,1.740370,0.037610,0.001465,-0.036564,-0.005754,-0.999841,0.016854,-0.005645,0.007883,-0.005258,-16.897577,-40.652905,-1.599007,,,,,,,
1558971709.417761,-2.820509,1.551430,1.747833,0.034245,-0.038642,-0.008121,-0.006113,-0.999812,0.018379,-0.019659,0.003963,0.019982,-16.885542,-40.659725,-1.551962,,,,,,,
1558971709.437729,-2.831116,1.550684,1.757789,-0.002960,-0.028852,-0.036885,-0.006144,-0.999798,0.019150,-0.006093,0.003460,0.021636,-16.912634,-40.651062,-1.482476,,,,,,,
1558971709.457731,-2.881081,1.551368,1.806885,-0.020049,-0.059459,-0.066018,-0.005004,-0.999811,0.018771,0.002791,0.005839,0.009335,-16.896338,-40.657883,-1.481186,,,,,,,
1558971709.477729,-2.955541,1.551765,1.880117,-0.000922,-0.061647,-0.047875,-0.003520,-0.999819,0.018701,0.009639,0.006197,0.003607,-16.822479,-40.688812,-1.472420,,,,,,,
1558971709.497715,-3.000367,1.551089,1.923874,0.018273,-0.041631,-0.025248,-0.002774,-0.999806,0.019510,-0.005939,0.003254,0.032187,-16.780180,-40.708141,-1.419959,,,,,,,
1558971709.517672,-3.008300,1.550697,1.931929,-0.043193,0.043260,-0.020213,-0.002671,-0.999798,0.019919,-0.012161,-0.004993,0.029169,-16.771313,-40.712223,-1.407725,,,,,,,
1558971709.537688,-3.018900,1.552140,1.943630,-0.069754,0.052893,-0.032953,-0.002283,-0.999826,0.018516,-0.001180,0.002649,-0.016227,-16.758717,-40.716339,-1.438245,,,,,,,
1558971709.557675,-3.053530,1.552669,1.978437,0.028933,-0.033219,-0.016617,-0.001594,-0.999836,0.018058,0.009880,0.008899,-0.001396,-16.727362,-40.726864,-1.503666,,,,,,,
1558971709.577660,-3.078017,1.551792,2.001441,0.026653,-0.077596,-0.012773,-0.001207,-0.999819,0.018963,0.002046,0.017398,0.009052,-16.721670,-40.729984,-1.482498,,,,,,,
1558971709.597633,-3.091423,1.550897,2.013614,0.032091,-0.039479,-0.011316,-0.000998,-0.999802,0.019873,-0.004404,0.002335,0.003702,-16.703571,-40.740692,-1.389462,,,,,,,
1558971709.617633,-3.107233,1.550108,2.029384,-0.016636,0.020989,-0.036399,-0.000711,-0.999786,0.020677,-0.008323,0.007034,0.025497,-16.701876,-40.743134,-1.337107,,,,,,,
1558971709.637606,-3.139472,1.550895,2.062297,-0.097491,0.026675,-0.052422,-0.000042,-0.999802,0.019900,-0.004505,0.022354,0.013471,-16.686930,-40.749119,-1.341480,,,,,,,
1558971709.657582,3.071404,1.552629,2.134203,-0.010484,-0.057284,-0.051022,0.001274,-0.999835,0.018122,0.020500,0.043612,-0.030772,-16.633577,-40.768044,-1.426314,,,,,,,
1558971709.677592,3.032587,1.551213,2.170830,0.096785,-0.122296,-0.031273,0.002130,-0.999808,0.019463,0.026907,0.043616,-0.028908,-16.588240,-40.787792,-1.389173,,,,,,,
1558971709.697573,3.018055,1.549606,2.183693,0.048044,-0.048031,-0.018858,0.002611,-0.999775,0.021028,0.025007,0.040684,0.004789,-16.578417,-40.793766,-1.329814,,,,,,,
1558971709.717549,2.961884,1.549755,2.239350,-0.013588,-0.012819,-0.014303,0.003760,-0.999779,0.020700,0.027627,0.031837,-0.009683,-16.556211,-40.805073,-1.257681,,,,,,,
1558971709.737550,2.952387,1.550105,2.249143,-0.008211,0.015730,0.011598,0.003891,-0.999786,0.020319,0.031296,0.010757,-0.016733,-16.513674,-40.821476,-1.284133,,,,,,,
1558971709.757538,2.989237,1.550465,2.213212,-0.028307,0.075130,0.051700,0.003085,-0.999793,0.020090,0.012449,0.010597,-0.001566,-16.526974,-40.815662,-1.297765,,,,,,,
1558971709.777525,3.041492,1.551407,2.162296,-0.018839,0.047618,0.065323,0.001937,-0.999812,0.019290,-0.005600,-0.004232,-0.000614,-16.576778,-40.793274,-1.364756,,,,,,,
1558971709.797492,3.089048,1.551222,2.114627,0.029940,-0.028806,0.022993,0.001028,-0.999808,0.019544,-0.010381,-0.015298,0.001284,-16.613914,-40.777840,-1.374462,,,,,,,
1558971709.817496,3.076114,1.550886,2.127079,-0.003983,-0.009679,-0.029166,0.001303,-0.999802,0.019866,-0.024282,-0.012131,0.013810,-16.626654,-40.773674,-1.343608,,,,,,,
1558971709.837485,3.070680,1.551285,2.133344,-0.045226,0.064502,-0.046636,0.001382,-0.999810,0.019463,-0.006906,0.003273,-0.014153,-16.621822,-40.775269,-1.354936,,,,,,,
1558971709.857458,3.025781,1.551466,2.179431,0.006845,0.042045,-0.037201,0.002233,-0.999813,0.019199,0.004450,0.005962,-0.008167,-16.611885,-40.778835,-1.369503,,,,,,,
1558971709.877456,2.994273,1.551441,2.211083,0.013032,-0.009753,-0.018475,0.002841,-0.999813,0.019144,0.004956,0.000850,-0.016397,-16.557625,-40.799515,-1.410063,,,,,,,
1558971709.897443,2.959618,1.551326,2.245081,0.038430,-0.046858,-0.001729,0.003524,-0.999810,0.019149,0.008821,0.007882,-0.011245,-16.534336,-40.809605,-1.391183,,,,,,,
1558971709.917409,2.965883,1.550460,2.237659,0.053301,-0.053145,0.006827,0.003555,-0.999793,0.020023,0.000168,-0.002999,-0.000324,-16.523098,-40.814091,-1.393179,,,,,,,
1558971709.937414,2.961476,1.549896,2.241807,0.002451,0.010507,-0.017160,0.003744,-0.999782,0.020560,-0.001531,-0.010732,0.000192,-16.521521,-40.817314,-1.315221,,,,,,,
1558971709.957396,2.939256,1.550071,2.264990,-0.031457,0.060373,-0.011372,0.004165,-0.999785,0.020303,-0.000472,0.006118,-0.011330,-16.517168,-40.819180,-1.312035,,,,,,,
1558971709.977382,2.945086,1.550828,2.260173,-0.002813,0.044410,0.017325,0.003898,-0.999801,0.019583,-0.004371,0.011321,-0.011984,-16.496426,-40.826023,-1.359099,,,,,,,
1558971709.997344,2.972274,1.550736,2.233270,0.024676,-0.009634,0.023236,0.003381,-0.999799,0.019774,-0.001488,0.002667,-0.010421,-16.517347,-40.816414,-1.393244,,,,,,,
1558971710.017359,3.028982,1.550395,2.176294,0.038600,-0.000250,-0.014027,0.002292,-0.999792,0.020268,-0.023960,0.005514,0.000606,-16.544699,-40.805759,-1.380721,,,,,,,
1558971710.037333,3.022004,1.548661,2.183044,0.048112,-0.029922,-0.031385,0.002641,-0.999755,0.021977,-0.001695,0.014007,0.013714,-16.569500,-40.797527,-1.325369,,,,,,,
1558971710.057333,2.987290,1.547805,2.217190,-0.001878,-0.019094,-0.034525,0.003534,-0.999736,0.022718,0.004035,0.008967,-0.003202,-16.542097,-40.811134,-1.246530,,,,,,,
1558971710.077320,2.932512,1.547756,2.271345,0.015053,-0.041213,-0.014357,0.004782,-0.999735,0.022536,0.021036,0.009042,-0.004714,-16.523159,-40.818890,-1.243968,,,,,,,
1558971710.097301,2.912269,1.547363,2.290619,0.015023,-0.044365,-0.001577,0.005327,-0.999725,0.022819,0.003218,0.005905,-0.004600,-16.457132,-40.846169,-1.223444,,,,,,,
1558971710.117292,2.891662,1.547805,2.311465,-0.031470,0.055220,-0.013474,0.005686,-0.999736,0.022276,0.003911,-0.003423,-0.008833,-16.447662,-40.850296,-1.212973,,,,,,,
1558971710.137279,2.878866,1.548289,2.325787,0.006838,0.067755,0.021908,0.005845,-0.999747,0.021732,0.006027,0.001990,0.003353,-16.430361,-40.855022,-1.285990,,,,,,,
1558971710.157265,2.942753,1.547445,2.261854,0.005389,-0.037898,0.048655,0.004612,-0.999727,0.022890,-0.020527,0.002321,0.013655,-16.448191,-40.848770,-1.256454,,,,,,,
1558971710.177248,2.969938,1.548018,2.233971,-0.041306,-0.026129,-0.020664,0.003890,-0.999741,0.022440,-0.024963,0.003586,0.001898,-16.489830,-40.832561,-1.237211,,,,,,,
1558971710.197224,2.957675,1.549095,2.245705,-0.008286,-0.032689,-0.050592,0.003968,-0.999765,0.021332,-0.003632,0.007089,-0.020096,-16.506819,-40.824799,-1.266625,,,,,,,
1558971710.217224,2.884986,1.548523,2.317660,0.053449,-0.035133,-0.053771,0.005652,-0.999752,0.021541,0.017694,0.012966,-0.001247,-16.468939,-40.839855,-1.274343,,,,,,,
1558971710.237200,2.845370,1.547316,2.357036,0.009870,0.003373,-0.008489,0.006854,-0.999724,0.022457,0.025113,0.013289,0.011631,-16.430492,-40.856133,-1.248547,,,,,,,
1558971710.257188,2.822161,1.547378,2.380425,-0.018879,0.012016,0.016123,0.007353,-0.999726,0.022231,0.004701,0.009064,-0.001098,-16.372421,-40.880127,-1.225839,,,,,,,
1558971710.277183,2.822905,1.547636,2.379958,0.000293,0.009782,0.003305,0.007256,-0.999732,0.021991,0.002449,-0.001413,0.001263,-16.376245,-40.877972,-1.246431,,,,,,,
1558971710.297157,2.824572,1.547510,2.378603,-0.019887,0.016206,-0.012664,0.007258,-0.999729,0.022123,-0.004847,0.005100,0.011278,-16.374622,-40.878635,-1.245945,,,,,,,
1558971710.317128,2.799925,1.547477,2.403209,-0.032733,-0.014406,-0.030050,0.007813,-0.999728,0.021970,0.002059,0.011905,-0.002668,-16.359413,-40.884804,-1.243448,,,,,,,
1558971710.337142,2.746390,1.547805,2.456397,-0.015721,-0.015538,-0.020441,0.008851,-0.999736,0.021218,0.009276,0.023616,-0.010980,-16.322292,-40.898983,-1.264652,,,,,,,
1558971710.357119,2.731383,1.548341,2.470905,-0.006271,-0.029246,0.034952,0.008955,-0.999748,0.020591,0.004656,0.021995,-0.010642,-16.298180,-40.907909,-1.286814,,,,,,,
1558971710.377115,2.774787,1.549034,2.427303,0.007703,0.009780,0.028932,0.007804,-0.999763,0.020314,-0.008522,0.003395,-0.001835,-16.340614,-40.890537,-1.300740,,,,,,,
1558971710.397102,2.778190,1.548577,2.424424,0.006771,0.027851,-0.015614,0.007897,-0.999753,0.020767,0.004478,0.007123,0.006013,-16.356291,-40.884415,-1.296162,,,,,,,
1558971710.417086,2.733909,1.548426,2.468744,-0.013587,-0.011148,-0.012803,0.008869,-0.999750,0.020535,0.016354,0.011102,0.000034,-16.329330,-40.895153,-1.297268,,,,,,,
1558971710.437074,2.727257,1.548857,2.474960,-0.003052,-0.027003,0.024420,0.008831,-0.999759,0.020079,0.003498,0.003788,-0.006804,-16.309347,-40.902756,-1.309013,,,,,,,
1558971710.457031,2.760570,1.548919,2.441638,0.014111,0.012013,0.022673,0.008135,-0.999761,0.020306,-0.004824,0.005803,0.004596,-16.331503,-40.893894,-1.309572,,,,,,,
1558971710.477046,2.780527,1.548385,2.421832,0.013056,0.000346,-0.008401,0.007917,-0.999749,0.020965,-0.000943,0.005471,0.009400,-16.349291,-40.887337,-1.292365,,,,,,,
1558971710.497033,2.767434,1.547620,2.434736,-0.011450,-0.013286,-0.021364,0.008470,-0.999731,0.021571,0.004347,0.010260,0.015767,-16.334530,-40.894142,-1.263263,,,,,,,
1558971710.517009,2.752340,1.548039,2.449051,-0.026535,-0.052263,0.014550,0.008636,-0.999741,0.021054,0.002488,0.001725,-0.006634,-16.323292,-40.898773,-1.258596,,,,,,,
1558971710.537005,2.768220,1.548943,2.432727,-0.016804,0.001618,0.031089,0.007970,-0.999761,0.020344,-0.005834,0.005071,-0.012806,-16.326180,-40.897549,-1.260928,,,,,,,
1558971710.556991,2.811767,1.549647,2.389483,-0.014578,0.021832,0.013275,0.006849,-0.999776,0.020008,-0.016859,-0.004008,0.005535,-16.377726,-40.875721,-1.299797,,,,,,,
1558971710.576976,2.808489,1.550482,2.393426,-0.043211,0.037783,-0.023961,0.006641,-0.999794,0.019194,-0.014652,0.003227,-0.005491,-16.406958,-40.862934,-1.332625,,,,,,,
1558971710.596964,2.775981,1.550670,2.426453,-0.006056,0.010116,-0.016723,0.007196,-0.999797,0.018797,0.005957,0.000331,0.002459,-16.391644,-40.868027,-1.364612,,,,,,,
1558971710.616952,2.766815,1.550461,2.434988,-0.005206,-0.048002,-0.001265,0.007443,-0.999793,0.018922,0.004092,-0.005029,0.001220,-16.372675,-40.875866,-1.357444,,,,,,,
1558971710.636936,2.737623,1.551159,2.463683,-0.046517,0.000794,-0.030725,0.007717,-0.999807,0.018053,-0.006771,0.006048,-0.018557,-16.365406,-40.878315,-1.371198,,,,,,,
1558971710.656923,2.695455,1.551930,2.506355,0.001428,0.021705,-0.015539,0.008139,-0.999822,0.017017,-0.004019,0.013204,-0.023578,-16.352320,-40.882843,-1.392219,,,,,,,
1558971710.676911,2.681839,1.551840,2.519983,0.012984,-0.016382,0.002255,0.008410,-0.999820,0.016985,0.008665,0.011051,-0.003893,-16.337614,-40.887051,-1.440465,,,,,,,
1558971710.696876,2.642684,1.552363,2.558637,0.016116,-0.031190,0.007452,0.008819,-0.999830,0.016186,0.005432,0.004835,-0.023845,-16.316967,-40.895210,-1.442753,,,,,,,
1558971710.716882,2.666783,1.551941,2.533672,0.070329,-0.050393,0.013873,0.008618,-0.999822,0.016766,0.001743,0.004415,-0.011425,-16.319176,-40.894394,-1.441037,,,,,,,
1558971710.736867,2.748527,1.549196,2.450692,0.118214,-0.061229,0.004200,0.008273,-0.999767,0.019951,-0.005129,-0.005589,0.033119,-16.332003,-40.891197,-1.385291,,,,,,,
1558971710.756846,2.788586,1.547259,2.410096,0.010924,-0.002556,-0.013474,0.008137,-0.999723,0.022086,-0.023732,-0.022601,0.034966,-16.350172,-40.890530,-1.174653,,,,,,,
1558971710.776815,2.738382,1.548195,2.461612,-0.098325,0.099433,-0.052088,0.008869,-0.999745,0.020790,-0.023792,-0.017895,0.019646,-16.342844,-40.893341,-1.178791,,,,,,,
1558971710.796803,2.689538,1.549040,2.511215,-0.046674,-0.042435,-0.023510,0.009503,-0.999763,0.019570,0.000400,0.020912,0.000069,-16.291822,-40.909920,-1.303237,,,,,,,
1558971710.816814,2.660290,1.550125,2.538585,-0.023366,-0.080628,-0.035600,0.009569,-0.999786,0.018321,-0.018754,0.004608,-0.031108,-16.278421,-40.915279,-1.302396,,,,,,,
1558971710.836789,2.612475,1.549739,2.586169,-0.001731,0.015417,-0.054948,0.010628,-0.999778,0.018176,-0.005577,0.018226,-0.030566,-16.279272,-40.914120,-1.328064,,,,,,,
1558971710.856770,2.571031,1.548809,2.627213,0.028931,-0.047106,-0.053388,0.011875,-0.999758,0.018504,0.008251,0.030413,-0.001933,-16.214668,-40.940048,-1.319239,,,,,,,
1558971710.876774,2.546844,1.547749,2.650211,0.027810,-0.057490,-0.043732,0.012912,-0.999734,0.019087,0.009976,0.024332,0.003496,-16.173923,-40.957146,-1.288401,,,,,,,
1558971710.896744,2.534571,1.547120,2.661874,0.009855,-0.003452,-0.019741,0.013504,-0.999720,0.019445,0.003402,0.015055,0.008525,-16.141911,-40.970966,-1.249743,,,,,,,
1558971710.916747,2.521920,1.547210,2.674832,-0.017788,0.013627,-0.004653,0.013698,-0.999722,0.019200,0.020146,0.015667,-0.010869,-16.124928,-40.977581,-1.252277,,,,,,,
1558971710.936733,2.492660,1.547479,2.703719,-0.020080,-0.031800,0.003450,0.014091,-0.999728,0.018577,0.004952,0.019961,-0.006706,-16.123955,-40.977604,-1.263948,,,,,,,
1558971710.956717,2.492591,1.547449,2.703466,0.006571,-0.016072,0.012162,0.014111,-0.999727,0.018601,0.006137,0.010912,0.003448,-16.111116,-40.982224,-1.277765,,,,,,,
1558971710.976706,2.519083,1.547851,2.676595,0.014018,-0.010806,0.026099,0.013379,-0.999737,0.018641,-0.006665,-0.001225,-0.008571,-16.126446,-40.976852,-1.256579,,,,,,,
1558971710.996690,2.550808,1.547893,2.645295,0.033367,0.039806,0.010585,0.012756,-0.999738,0.019020,-0.002777,0.010236,0.001747,-16.139137,-40.971691,-1.261952,,,,,,,
1558971711.016676,2.591679,1.546837,2.605101,0.001356,0.016724,0.013542,0.012520,-0.999713,0.020425,-0.001137,0.019824,0.021201,-16.166180,-40.962044,-1.228486,,,,,,,
1558971711.036637,2.611092,1.546369,2.585213,-0.017947,-0.033783,-0.004962,0.012358,-0.999702,0.021068,-0.003569,0.007651,0.013097,-16.177008,-40.959030,-1.185643,,,,,,,
1558971711.056626,2.576370,1.546929,2.618988,-0.023293,-0.047520,-0.021113,0.012782,-0.999715,0.020153,0.001454,0.000173,-0.016827,-16.173416,-40.960667,-1.178116,,,,,,,
1558971711.076627,2.539783,1.547812,2.655149,-0.013602,-0.005265,-0.003618,0.013010,-0.999736,0.018944,-0.002772,0.010402,-0.026588,-16.160332,-40.965214,-1.199291,,,,,,,
1558971711.096619,2.546417,1.548030,2.648696,0.019389,0.010474,0.034993,0.012763,-0.999741,0.018851,0.004601,0.027268,0.004389,-16.163181,-40.962505,-1.252225,,,,,,,
1558971711.116588,2.572927,1.548430,2.622632,-0.019884,0.040261,0.024570,0.012042,-0.999750,0.018843,-0.008304,-0.002066,-0.012969,-16.181847,-40.955429,-1.242773,,,,,,,
1558971711.136568,2.561556,1.549225,2.635259,-0.010199,0.056012,-0.011571,0.011821,-0.999767,0.018041,-0.009075,0.004665,-0.017126,-16.196838,-40.948910,-1.261980,,,,,,,
1558971711.156583,2.562626,1.549049,2.633914,0.035199,-0.052025,0.000243,0.011899,-0.999764,0.018203,0.001208,0.010780,0.004639,-16.198936,-40.946545,-1.310872,,,,,,,
1558971711.176569,2.575617,1.548410,2.620165,0.021500,-0.017095,-0.015448,0.012003,-0.999749,0.018893,-0.006342,-0.003485,-0.000033,-16.198332,-40.948399,-1.259466,,,,,,,
1558971711.196554,2.569692,1.548289,2.626406,0.009905,0.029662,0.006487,0.012181,-0.999747,0.018925,0.004314,-0.006158,-0.008640,-16.192816,-40.950867,-1.250185,,,,,,,
1558971711.216542,2.590926,1.548045,2.605701,0.044990,0.025276,0.024623,0.011904,-0.999741,0.019387,-0.001192,-0.000228,0.008506,-16.191408,-40.951015,-1.263373,,,,,,,
1558971711.236528,2.636562,1.547328,2.560135,-0.006218,-0.009335,0.025318,0.011353,-0.999725,0.020535,-0.006196,0.001052,0.043811,-16.214762,-40.943642,-1.201417,,,,,,,
1558971711.256514,2.640796,1.547365,2.555720,-0.067840,0.001481,-0.026942,0.011249,-0.999725,0.020552,-0.009052,-0.001953,0.039034,-16.223499,-40.940060,-1.205380,,,,,,,
1558971711.276500,2.582175,1.547952,2.614525,-0.047571,0.006632,-0.045026,0.012122,-0.999739,0.019359,0.005640,0.009276,-0.015346,-16.203831,-40.947296,-1.224169,,,,,,,
1558971711.296488,2.553604,1.547685,2.642903,0.034256,-0.018054,-0.007830,0.012819,-0.999733,0.019228,0.007781,0.024406,-0.011553,-16.161890,-40.962769,-1.260378,,,,,,,
1558971711.316446,2.557285,1.547454,2.638955,0.001238,-0.013619,0.014605,0.012874,-0.999728,0.019467,0.009465,0.023608,-0.003171,-16.161081,-40.963581,-1.244137,,,,,,,
1558971711.336446,2.521686,1.548212,2.674556,-0.019948,0.015019,0.006320,0.013119,-0.999745,0.018380,0.006626,0.011662,-0.017067,-16.154337,-40.965771,-1.259657,,,,,,,
1558971711.356446,2.551626,1.548226,2.644488,0.058652,-0.022189,0.037132,0.012555,-0.999745,0.018753,-0.005109,0.008336,-0.007537,-16.164257,-40.961269,-1.278662,,,,,,,
1558971711.376406,2.615565,1.547568,2.580276,0.045977,0.003230,0.026690,0.011662,-0.999730,0.020087,-0.018346,-0.004832,0.010354,-16.180624,-40.955730,-1.248642,,,,,,,
1558971711.396413,2.667789,1.547562,2.528753,-0.024051,0.050036,-0.020959,0.010601,-0.999730,0.020674,-0.023128,0.001149,0.003084,-16.232399,-40.936897,-1.193107,,,,,,,
1558971711.416405,2.641982,1.547142,2.555120,0.023695,-0.005206,-0.038532,0.011332,-0.999720,0.020762,-0.013178,0.006663,0.013036,-16.227880,-40.938347,-1.204654,,,,,,,
1558971711.436372,2.624503,1.546511,2.571430,0.008548,-0.075935,-0.030680,0.012003,-0.999705,0.021106,0.002447,-0.001149,0.020626,-16.206825,-40.947338,-1.182353,,,,,,,
1558971711.456349,2.584120,1.546219,2.610997,-0.023175,-0.010230,-0.027942,0.013001,-0.999698,0.020854,0.009521,0.012042,-0.014873,-16.171284,-40.962250,-1.151959,,,,,,,
1558971711.476351,2.570343,1.546211,2.624496,0.056546,-0.029626,0.005033,0.013291,-0.999698,0.020679,0.003891,0.017917,-0.018268,-16.148489,-40.970829,-1.166671,,,,,,,
1558971711.496349,2.615222,1.544881,2.579218,0.052377,-0.003180,0.004215,0.013018,-0.999664,0.022404,-0.003191,0.001434,0.023525,-16.150558,-40.970791,-1.139005,,,,,,,
1558971711.516327,2.608877,1.544139,2.585653,-0.050816,0.004883,-0.018065,0.013538,-0.999645,0.022963,0.004421,0.003200,0.008806,-16.143280,-40.975670,-1.064199,,,,,,,
1558971711.536304,2.550177,1.545160,2.644163,-0.044521,-0.020513,-0.014034,0.014292,-0.999671,0.021281,0.006429,0.019538,-0.015162,-16.134871,-40.978935,-1.066122,,,,,,,
1558971711.556308,2.538701,1.545925,2.655146,0.004411,-0.015437,0.018083,0.014101,-0.999691,0.020484,-0.002931,0.009441,-0.010626,-16.103571,-40.988976,-1.149802,,,,,,,
1558971711.576297,2.546410,1.546740,2.648107,-0.013395,0.063901,-0.002523,0.013486,-0.999711,0.019917,-0.011746,0.003098,-0.013295,-16.126661,-40.979336,-1.169678,,,,,,,
1558971711.596268,2.523585,1.547075,2.672458,0.004743,0.069064,-0.020609,0.013744,-0.999719,0.019333,0.002461,0.017205,-0.008545,-16.135746,-40.974293,-1.220026,,,,,,,
1558971711.616268,2.534574,1.546335,2.661128,0.058551,-0.065421,0.004837,0.013951,-0.999701,0.020088,0.006557,0.019003,-0.000374,-16.119822,-40.980152,-1.233595,,,,,,,
1558971711.636255,2.566621,1.544721,2.627709,0.042673,-0.051638,-0.022802,0.014178,-0.999660,0.021879,-0.002962,0.004604,0.016909,-16.110811,-40.986507,-1.136337,,,,,,,
1558971711.656228,2.567046,1.543895,2.626829,0.016195,-0.006031,-0.011711,0.014618,-0.999638,0.022580,0.014175,0.014760,0.059894,-16.100182,-40.991909,-1.091482,,,,,,,
1558971711.676227,2.547616,1.544192,2.646206,-0.074479,-0.060415,-0.002560,0.014889,-0.999646,0.022047,0.044651,-0.008807,0.052065,-16.084562,-40.998524,-1.073019,,,,,,,
1558971711.696215,2.510654,1.545671,2.682897,-0.091258,0.018956,0.002457,0.014820,-0.999684,0.020286,-0.003803,0.011205,-0.023613,-16.082926,-40.998344,-1.103974,,,,,,,
1558971711.716197,2.496646,1.547572,2.697599,-0.044425,0.036739,0.043236,0.013961,-0.999730,0.018558,-0.017272,0.040914,-0.018451,-16.100523,-40.988266,-1.216131,,,,,,,
1558971711.736186,2.500339,1.548129,2.694077,0.012970,-0.008016,0.003350,0.013557,-0.999743,0.018161,-0.017845,0.013644,-0.040897,-16.125116,-40.977493,-1.252572,,,,,,,
1558971711.756174,2.502379,1.547184,2.691386,0.106557,-0.050845,-0.034352,0.014084,-0.999721,0.018947,-0.001618,0.008526,-0.026882,-16.131880,-40.974892,-1.250790,,,,,,,
1558971711.776159,2.532941,1.545110,2.659763,0.085334,-0.027470,-0.027740,0.014685,-0.999670,0.021071,-0.007696,0.004400,0.006913,-16.102266,-40.989239,-1.158873,,,,,,,
1558971711.796144,2.524905,1.544376,2.668464,-0.003804,0.058621,-0.024852,0.015278,-0.999651,0.021552,-0.000019,0.001421,0.014764,-16.078215,-41.000389,-1.096576,,,,,,,
1558971711.816132,2.522026,1.544084,2.672112,-0.001867,0.013203,0.004608,0.015510,-0.999643,0.021746,0.010399,-0.001837,0.011396,-16.054605,-41.009624,-1.097282,,,,,,,
1558971711.836112,2.516902,1.544186,2.676968,-0.017961,-0.032041,-0.011719,0.015560,-0.999646,0.021580,0.008274,0.006741,0.017345,-16.056532,-41.008545,-1.109336,,,,,,,
1558971711.856089,2.490415,1.543690,2.702417,0.010760,-0.054442,-0.047143,0.016428,-0.999633,0.021557,0.003836,0.007125,-0.000805,-16.037233,-41.016224,-1.104627,,,,,,,
1558971711.876088,2.477955,1.542545,2.713424,0.040443,-0.088412,-0.039971,0.017399,-0.999601,0.022251,0.011135,-0.009814,0.008206,-15.990541,-41.035694,-1.057353,,,,,,,
1558971711.896077,2.474689,1.541041,2.714908,0.031976,-0.070387,-0.032333,0.018402,-0.999557,0.023376,-0.002121,0.001205,0.010697,-15.951365,-41.052898,-0.978176,,,,,,,
1558971711.916056,2.462946,1.540967,2.726628,-0.018850,0.025055,-0.002634,0.018722,-0.999555,0.023216,-0.004089,0.006269,0.022088,-15.939787,-41.057827,-0.960202,,,,,,,
1558971711.936042,2.503789,1.540944,2.686062,-0.042429,-0.006470,0.038685,0.017772,-0.999554,0.023980,-0.006634,-0.008456,0.006888,-15.954515,-41.052464,-0.944728,,,,,,,
1558971711.956036,2.509944,1.542322,2.679498,-0.027503,-0.019300,-0.006265,0.016811,-0.999595,0.022977,-0.010982,-0.000466,-0.006985,-15.999662,-41.034344,-0.967959,,,,,,,
1558971711.976007,2.484557,1.542747,2.704758,-0.042313,-0.001286,-0.028524,0.017129,-0.999607,0.022206,-0.006844,0.007175,-0.005482,-16.007303,-41.030987,-0.984010,,,,,,,
1558971711.995987,2.385039,1.545169,2.804547,-0.036919,0.023138,-0.030290,0.017590,-0.999672,0.018636,0.002154,0.022117,-0.045628,-15.987731,-41.035614,-1.101934,,,,,,,
1558971712.015996,2.393380,1.544574,2.796321,0.072560,-0.012273,0.000420,0.017838,-0.999656,0.019217,-0.007340,0.016685,-0.027716,-15.967943,-41.041893,-1.153841,,,,,,,
1558971712.035977,2.470614,1.542622,2.719040,0.116282,0.011812,0.002822,0.017515,-0.999603,0.022063,-0.009733,0.004440,0.022416,-15.969937,-41.042770,-1.093566,,,,,,,
1558971712.055968,2.495941,1.541389,2.693822,0.041752,-0.001567,-0.016584,0.017692,-0.999568,0.023484,0.008324,0.001948,0.041121,-15.977289,-41.042942,-0.973164,,,,,,,
1558971712.075955,2.483202,1.540943,2.706255,0.000181,-0.024622,-0.029650,0.018263,-0.999554,0.023611,0.013521,-0.002170,0.027339,-15.957009,-41.051228,-0.956070,,,,,,,
1558971712.095941,2.471699,1.539881,2.717018,0.001171,-0.044700,-0.022369,0.019192,-0.999522,0.024230,0.018298,0.003444,0.020783,-15.923965,-41.064781,-0.924399,,,,,,,
1558971712.115926,2.460131,1.540281,2.727822,-0.040355,-0.033866,0.008663,0.019220,-0.999534,0.023696,0.006919,0.002617,0.006852,-15.912718,-41.069248,-0.919693,,,,,,,
1558971712.135913,2.440110,1.540944,2.747846,-0.046562,0.022192,0.011329,0.019261,-0.999554,0.022799,0.007625,0.005277,-0.006579,-15.910730,-41.069313,-0.950740,,,,,,,
1558971712.155866,2.431913,1.541865,2.756605,-0.040180,0.025485,0.018969,0.018849,-0.999582,0.021944,-0.006886,0.004846,-0.016100,-15.920439,-41.064739,-0.985060,,,,,,,
1558971712.175887,2.415075,1.542554,2.773758,-0.007227,0.000965,-0.004727,0.018759,-0.999601,0.021109,-0.002035,0.015730,-0.010489,-15.930749,-41.059597,-1.031538,,,,,,,
1558971712.195842,2.426901,1.542121,2.760986,0.043624,-0.071172,-0.000039,0.018791,-0.999589,0.021656,-0.011589,0.010362,0.004467,-15.931517,-41.059227,-1.034399,,,,,,,
1558971712.215858,2.443657,1.541450,2.743342,0.019345,-0.022466,-0.029485,0.018856,-0.999569,0.022480,-0.011638,0.005536,0.003337,-15.931216,-41.060379,-0.992514,,,,,,,
1558971712.235845,2.425369,1.541463,2.761373,-0.018955,-0.007440,-0.011222,0.019257,-0.999570,0.022124,0.004120,0.006238,-0.004896,-15.923080,-41.064304,-0.960148,,,,,,,
1558971712.255809,2.400331,1.541739,2.786783,-0.020968,0.030632,-0.005522,0.019617,-0.999578,0.021430,0.006399,0.008565,-0.003638,-15.911707,-41.068161,-0.983318,,,,,,,
1558971712.275817,2.411062,1.541530,2.776324,-0.001970,-0.003241,0.029401,0.019526,-0.999572,0.021796,0.008931,0.006988,0.012643,-15.900227,-41.072018,-1.007917,,,,,,,
1558971712.295805,2.437563,1.541663,2.749559,0.008693,-0.009677,0.003725,0.018855,-0.999576,0.022203,-0.009425,-0.003308,-0.001635,-15.919039,-41.065567,-0.973042,,,,,,,
1558971712.315776,2.445947,1.540916,2.740998,0.010836,-0.014873,-0.021820,0.019147,-0.999554,0.022934,0.005938,0.014416,0.015182,-15.927131,-41.062595,-0.966143,,,,,,,
1558971712.335777,2.440781,1.540719,2.745508,-0.023326,-0.038985,-0.008199,0.019393,-0.999548,0.022986,-0.000396,0.003515,0.011011,-15.913653,-41.068501,-0.936628,,,,,,,
1558971712.355764,2.403509,1.541321,2.782930,-0.074145,0.034180,-0.032096,0.019830,-0.999566,0.021801,0.001289,0.003182,-0.009609,-15.900954,-41.073151,-0.948415,,,,,,,
1558971712.375743,2.332428,1.541850,2.854765,0.003533,0.030614,-0.023528,0.020945,-0.999581,0.019973,0.012166,0.018243,-0.020385,-15.871194,-41.082600,-1.033754,,,,,,,
1558971712.395735,2.334109,1.540607,2.852959,0.066079,-0.030967,0.013297,0.021809,-0.999544,0.020867,0.013042,0.015215,0.008018,-15.820300,-41.101448,-1.064247,,,,,,,
1558971712.415723,2.382026,1.539165,2.804626,-0.001931,0.000034,0.007132,0.021777,-0.999500,0.022933,0.000271,0.002613,0.030061,-15.810894,-41.107513,-0.965184,,,,,,,
1558971712.435709,2.373313,1.538997,2.813547,-0.063642,-0.001787,-0.014288,0.022094,-0.999494,0.022864,0.010041,0.010008,0.013711,-15.814198,-41.107113,-0.927299,,,,,,,
1558971712.455688,2.336991,1.539519,2.849363,-0.027542,-0.027338,-0.009166,0.022533,-0.999511,0.021684,-0.000271,0.014175,-0.022035,-15.784818,-41.117409,-0.970341,,,,,,,
1558971712.475666,2.314897,1.539915,2.871639,0.003487,0.032825,0.006490,0.022716,-0.999523,0.020913,0.007146,0.030697,0.001380,-15.776143,-41.119972,-1.002302,,,,,,,
1558971712.495668,2.322306,1.540328,2.864825,-0.006188,0.017064,0.035158,0.022259,-0.999536,0.020800,0.003421,0.012033,0.001326,-15.783050,-41.116814,-1.023083,,,,,,,
1558971712.515627,2.341502,1.540584,2.845369,0.017095,-0.031706,0.018695,0.021671,-0.999544,0.021043,-0.001438,0.005037,0.004057,-15.798326,-41.110764,-1.030182,,,,,,,
1558971712.535634,2.387792,1.539796,2.798104,0.037304,-0.048761,-0.006007,0.021213,-0.999520,0.022598,-0.002750,0.005837,0.020645,-15.835172,-41.098129,-0.966911,,,,,,,
1558971712.555627,2.400000,1.539464,2.785324,-0.021123,-0.008273,0.003943,0.021160,-0.999509,0.023100,-0.004115,0.008375,0.016497,-15.835238,-41.099194,-0.919185,,,,,,,
1558971712.575610,2.386842,1.540240,2.799360,-0.076214,0.072354,0.006806,0.020930,-0.999533,0.022254,-0.004451,-0.001260,0.005318,-15.841799,-41.096783,-0.914128,,,,,,,
1558971712.595601,2.366500,1.541549,2.821143,-0.056004,0.060596,-0.009303,0.020463,-0.999572,0.020889,-0.001649,-0.001191,0.005921,-15.864926,-41.085274,-1.023708,,,,,,,
1558971712.615585,2.341142,1.541897,2.846580,-0.026538,-0.041027,-0.005982,0.020737,-0.999582,0.020122,0.000686,0.001505,-0.000377,-15.864231,-41.085262,-1.034806,,,,,,,
1558971712.635547,2.327943,1.542889,2.858531,-0.007440,-0.052604,-0.002747,0.020281,-0.999611,0.019167,-0.013461,-0.011589,-0.015978,-15.861630,-41.085194,-1.076738,,,,,,,
1558971712.655540,2.335233,1.543258,2.850957,0.008672,-0.009354,-0.004454,0.019872,-0.999621,0.019056,-0.009649,0.000048,0.002092,-15.883496,-41.076389,-1.090004,,,,,,,
1558971712.675545,2.350363,1.542952,2.835369,-0.012646,-0.020877,-0.009919,0.019802,-0.999612,0.019572,-0.002895,-0.008719,0.010564,-15.894294,-41.072876,-1.064922,,,,,,,
1558971712.695508,2.314855,1.542839,2.870699,-0.045530,0.003572,-0.033200,0.020567,-0.999609,0.018933,0.008639,0.007498,-0.002865,-15.885503,-41.076382,-1.060837,,,,,,,
1558971712.715505,2.249620,1.543112,2.936407,-0.030574,0.026769,-0.019088,0.021547,-0.999617,0.017382,0.006499,0.010985,-0.016085,-15.832857,-41.094891,-1.128838,,,,,,,
1558971712.735484,2.257070,1.543176,2.928915,0.030934,-0.022108,0.027469,0.021365,-0.999619,0.017500,-0.001544,-0.003738,-0.001097,-15.818821,-41.099476,-1.158118,,,,,,,
1558971712.755464,2.279298,1.543189,2.906208,0.008664,-0.013591,-0.009834,0.020959,-0.999619,0.017961,-0.011636,-0.009429,0.003066,-15.835469,-41.093658,-1.137046,,,,,,,
1558971712.775477,2.269850,1.542808,2.915601,-0.010442,-0.010362,-0.038644,0.021421,-0.999608,0.018008,-0.003812,0.010671,0.002241,-15.833933,-41.094807,-1.116692,,,,,,,
1558971712.795452,2.254326,1.542310,2.930922,-0.009384,-0.004932,-0.037396,0.022083,-0.999594,0.017987,-0.002521,0.007178,-0.002896,-15.814635,-41.102287,-1.114667,,,,,,,
1558971712.815449,2.212711,1.542211,2.973031,-0.056035,0.046031,-0.049757,0.022892,-0.999591,0.017113,-0.003987,0.007221,-0.001533,-15.793861,-41.110188,-1.118119,,,,,,,
1558971712.835436,2.166014,1.541999,3.020418,-0.011460,0.017293,-0.025442,0.023843,-0.999585,0.016145,0.009986,0.016202,-0.009812,-15.742601,-41.127655,-1.195898,,,,,,,
1558971712.855419,2.145349,1.541290,3.041224,0.005527,0.007703,-0.016981,0.024767,-0.999565,0.016034,0.011442,0.012092,-0.001630,-15.707480,-41.140522,-1.214919,,,,,,,
1558971712.875408,2.127076,1.541084,3.059785,-0.027455,0.016343,-0.009452,0.025229,-0.999559,0.015687,0.009378,0.011766,0.000274,-15.685841,-41.148724,-1.216693,,,,,,,
1558971712.895396,2.101219,1.541468,3.086241,-0.010337,0.037375,-0.022048,0.025294,-0.999570,0.014835,-0.004252,0.006162,-0.015552,-15.667189,-41.154530,-1.259948,,,,,,,
1558971712.915382,2.088728,1.540859,3.098996,0.020391,-0.010369,-0.033157,0.026007,-0.999552,0.014819,0.017160,0.015040,-0.000919,-15.642958,-41.162853,-1.288856,,,,,,,
1558971712.935344,2.073087,1.539181,3.113810,0.006407,-0.047266,-0.016444,0.027706,-0.999500,0.015218,0.022297,0.013645,0.000407,-15.595566,-41.181564,-1.265163,,,,,,,
1558971712.955353,2.059914,1.538504,3.126766,0.003362,0.019517,0.016335,0.028501,-0.999479,0.015170,0.018405,0.005048,-0.001208,-15.548806,-41.199703,-1.250027,,,,,,,
1558971712.975341,2.068040,1.538760,3.119259,0.011886,0.031128,0.035670,0.028153,-0.999487,0.015279,0.001388,-0.009531,0.002131,-15.541470,-41.202240,-1.257657,,,,,,,
1558971712.995326,2.108571,1.538943,3.078767,0.068165,-0.017812,0.021368,0.027352,-0.999493,0.016313,-0.009957,-0.006824,0.005568,-15.555578,-41.196991,-1.255274,,,,,,,
1558971713.015292,2.206245,1.537889,2.980444,0.036241,-0.038856,-0.026900,0.026479,-0.999459,0.019528,-0.015798,0.010063,0.058551,-15.601462,-41.183147,-1.134163,,,,,,,
1558971713.035281,2.176736,1.537464,3.009103,-0.066996,-0.042572,-0.047304,0.027392,-0.999445,0.018980,0.003003,0.017801,0.054049,-15.601585,-41.184895,-1.066885,,,,,,,
1558971713.055269,2.108198,1.537662,3.077006,-0.109534,-0.032845,-0.053650,0.028460,-0.999451,0.016959,0.013120,0.014664,0.012841,-15.572397,-41.195160,-1.096732,,,,,,,
1558971713.075246,2.024878,1.537772,-3.123026,-0.065826,-0.002388,-0.030905,0.029673,-0.999455,0.014483,0.026113,0.043125,-0.022509,-15.496547,-41.219723,-1.238927,,,,,,,
1558971713.095256,2.009676,1.537799,-3.108127,-0.003165,-0.031210,0.000899,0.029865,-0.999456,0.014019,0.027310,0.031728,-0.024410,-15.482485,-41.224121,-1.268030,,,,,,,
1558971713.115236,1.997253,1.537234,-3.096398,0.011722,-0.032334,0.008371,0.030551,-0.999437,0.013880,0.027997,0.031679,-0.017939,-15.482485,-41.224121,-1.268030,,,,,,,
1558971713.135228,2.008798,1.537980,-3.109118,-0.004459,-0.064770,0.064769,0.029714,-0.999462,0.013917,0.004480,0.008632,-0.017746,-15.460503,-41.232754,-1.255569,,,,,,,
1558971713.155218,2.003994,1.539751,-3.104696,-0.008462,0.016651,0.071952,0.028173,-0.999518,0.013030,-0.006291,-0.001657,-0.014571,-15.542045,-41.201759,-1.266336,,,,,,,
1558971713.175173,2.032386,1.540846,-3.132612,0.016052,0.019673,0.058121,0.026812,-0.999552,0.013337,-0.009356,-0.001959,0.004683,-15.542045,-41.201759,-1.266336,,,,,,,
1558971713.195191,2.058804,1.541497,3.124493,0.003378,0.018580,-0.010227,0.025874,-0.999571,0.013735,-0.015696,-0.006929,0.006483,-15.621348,-41.171864,-1.262693,,,,,,,
1558971713.215177,2.050318,1.541049,3.133154,0.005447,-0.006823,-0.026484,0.026387,-0.999558,0.013721,0.000407,-0.008057,0.010311,-15.633883,-41.167210,-1.259440,,,,,,,
1558971713.235162,2.059838,1.540267,3.122988,0.003178,-0.048029,-0.022610,0.026947,-0.999534,0.014340,0.002015,0.001472,0.017353,-15.623343,-41.171375,-1.254001,,,,,,,
1558971713.255151,2.047953,1.540075,3.133918,-0.014901,-0.038407,-0.012923,0.027284,-0.999528,0.014106,0.011885,0.003267,0.006722,-15.596852,-41.182590,-1.215110,,,,,,,
1558971713.275136,2.032452,1.539849,-3.133769,-0.022197,0.013477,-0.009121,0.027703,-0.999521,0.013783,0.009300,0.007059,0.002941,-15.579146,-41.189060,-1.222710,,,,,,,
1558971713.295122,2.012017,1.539973,-3.112693,-0.047682,0.031578,-0.011103,0.027868,-0.999525,0.013161,0.010203,0.007612,0.006263,-15.575189,-41.190220,-1.234015,,,,,,,
1558971713.315109,1.970908,1.539685,-3.071414,-0.030837,-0.017109,0.005524,0.028649,-0.999516,0.012116,0.014488,0.002873,-0.009827,-15.552126,-41.197098,-1.293868,,,,,,,
1558971713.335088,1.961766,1.539875,-3.063224,0.004187,-0.044763,0.013828,0.028581,-0.999522,0.011781,-0.001116,0.012202,-0.004258,-15.538152,-41.201786,-1.312250,,,,,,,
1558971713.355080,1.952533,1.540536,-3.054361,-0.054213,-0.001122,0.012064,0.028078,-0.999542,0.011271,-0.008592,0.014481,0.001302,-15.544600,-41.199551,-1.306147,,,,,,,
1558971713.375050,1.866498,1.541703,-2.967767,-0.069993,0.043310,-0.018484,0.027826,-0.999577,0.008477,-0.005609,0.004566,-0.038598,-15.570170,-41.187302,-1.385398,,,,,,,
1558971713.395030,1.820880,1.541425,-2.921381,0.032177,0.031121,-0.034534,0.028454,-0.999569,0.007268,0.006260,0.008053,-0.032353,-15.552291,-41.189568,-1.513010,,,,,,,
1558971713.415027,1.832696,1.540984,-2.933349,0.030846,-0.024813,0.019379,0.028792,-0.999556,0.007718,0.000963,0.007399,-0.004437,-15.526299,-41.199814,-1.500974,,,,,,,
1558971713.435027,1.863805,1.541178,-2.964029,0.019429,0.055689,0.003167,0.028352,-0.999561,0.008553,-0.006852,0.009983,0.012137,-15.541283,-41.195152,-1.473598,,,,,,,
1558971713.455014,1.891365,1.540741,-2.991222,0.015975,-0.025689,-0.000819,0.028521,-0.999548,0.009470,0.003461,0.019904,0.013708,-15.540920,-41.196663,-1.434627,,,,,,,
1558971713.474999,1.895467,1.540261,-2.996146,-0.000973,-0.020380,-0.044555,0.028936,-0.999534,0.009739,-0.002722,0.013602,0.004894,-15.540626,-41.197182,-1.423009,,,,,,,
1558971713.494987,1.868678,1.539161,-2.969082,0.016174,0.018651,-0.036695,0.030236,-0.999500,0.009283,0.013877,0.020954,-0.008123,-15.494897,-41.214466,-1.421257,,,,,,,
1558971713.514971,1.903926,1.538240,-3.004564,0.055255,-0.043819,0.029997,0.030760,-0.999470,0.010644,0.016054,0.013707,0.025718,-15.443533,-41.235043,-1.382747,,,,,,,
1558971713.534959,1.942348,1.538108,-3.043876,-0.001048,-0.021364,0.004544,0.030453,-0.999466,0.011866,0.001057,0.002991,0.025793,-15.456350,-41.231228,-1.353020,,,,,,,
1558971713.554931,1.945409,1.538334,-3.046319,-0.051880,0.053938,-0.004384,0.030206,-0.999473,0.011876,-0.006509,0.009819,0.006999,-15.467972,-41.228405,-1.305374,,,,,,,
1558971713.574932,1.915923,1.538692,-3.015954,-0.049849,0.025392,-0.001453,0.030206,-0.999485,0.010860,-0.001611,0.006214,0.001454,-15.472231,-41.225136,-1.357105,,,,,,,
1558971713.594912,1.907780,1.538625,-3.007927,0.002188,-0.020227,-0.012401,0.030357,-0.999483,0.010635,0.001213,0.001008,0.001099,-15.471378,-41.224735,-1.378949,,,,,,,
1558971713.614888,1.923521,1.538018,-3.023997,0.007502,-0.018123,-0.000633,0.030755,-0.999463,0.011321,0.013038,-0.000552,0.008011,-15.453442,-41.232090,-1.359961,,,,,,,
1558971713.634891,1.921970,1.538124,-3.023002,-0.014904,-0.028558,0.010993,0.030672,-0.999466,0.011237,0.002470,0.000977,-0.001075,-15.454348,-41.232563,-1.335120,,,,,,,
1558971713.654848,1.897086,1.538462,-2.998211,-0.036062,0.003235,-0.007937,0.030624,-0.999477,0.010363,-0.003433,0.000011,-0.012179,-15.455437,-41.232014,-1.339358,,,,,,,
1558971713.674839,1.838973,1.539031,-2.940240,-0.002056,-0.006439,0.004809,0.030625,-0.999496,0.008416,-0.010590,-0.011552,-0.029030,-15.445302,-41.233067,-1.421469,,,,,,,
1558971713.694849,1.829310,1.539919,-2.930372,0.024691,0.032519,-0.002268,0.029844,-0.999523,0.007892,-0.016035,-0.013904,-0.012912,-15.473944,-41.220821,-1.464419,,,,,,,
1558971713.714835,1.842049,1.540507,-2.942211,0.024688,0.032522,-0.000130,0.029176,-0.999541,0.008114,-0.013445,-0.003114,0.004261,-15.503169,-41.209129,-1.484217,,,,,,,
1558971713.734822,1.890718,1.540653,-2.990908,0.045822,-0.013033,0.004791,0.028611,-0.999546,0.009479,-0.021546,-0.011532,0.029996,-15.518178,-41.204666,-1.450996,,,,,,,
1558971713.754794,1.913304,1.540835,-3.013449,-0.051923,0.018211,-0.034362,0.028216,-0.999551,0.010061,-0.014819,-0.010138,0.008433,-15.547107,-41.195667,-1.395737,,,,,,,
1558971713.774795,1.783725,1.540812,-2.882976,-0.128412,0.051329,-0.068271,0.029302,-0.999551,0.006335,0.006892,0.001763,-0.041766,-15.542310,-41.194992,-1.467227,,,,,,,
1558971713.794780,1.716861,1.539537,-2.815434,-0.058238,0.016045,-0.090973,0.030921,-0.999511,0.004549,0.021386,0.002853,-0.067476,-15.492412,-41.209003,-1.595926,,,,,,,
1558971713.814739,1.642775,1.537553,-2.740817,-0.016669,0.042278,-0.073609,0.033152,-0.999447,0.002390,0.021856,0.009549,-0.073496,-15.439789,-41.226524,-1.652337,,,,,,,
1558971713.834754,1.609170,1.536284,-2.705546,-0.082439,0.113449,-0.069777,0.034479,-0.999404,0.001324,0.023230,0.006927,-0.107586,-15.318761,-41.266541,-1.775257,,,,,,,
1558971713.854741,1.542891,1.534752,-2.636346,-0.140843,0.156033,-0.071552,0.036021,-0.999350,-0.001005,0.029332,0.009101,-0.116365,-15.288988,-41.275578,-1.821187,,,,,,,
1558971713.874706,1.473952,1.533806,-2.564187,-0.127019,0.175063,-0.020112,0.036807,-0.999316,-0.003576,0.009031,0.030001,-0.136531,-15.195189,-41.299675,-2.046094,,,,,,,
1558971713.894713,1.405226,1.533262,-2.490705,-0.157540,0.286225,-0.009463,0.037012,-0.999296,-0.006185,0.005239,0.030698,-0.144816,-15.176751,-41.300373,-2.165384,,,,,,,
1558971713.914701,1.317395,1.531985,-2.395232,-0.211330,0.411265,-0.047704,0.037562,-0.999247,-0.009727,0.012960,0.044489,-0.186211,-15.139484,-41.294594,-2.509142,,,,,,,
1558971713.934673,1.227416,1.528537,-2.296557,-0.271718,0.449474,-0.155219,0.039781,-0.999107,-0.014223,0.014998,0.078163,-0.215162,-15.082170,-41.300953,-2.739168,,,,,,,
1558971713.954673,1.160723,1.523082,-2.219592,-0.229955,0.511575,-0.184486,0.043742,-0.998862,-0.019015,0.017095,0.100028,-0.242627,-14.969664,-41.323177,-3.007924,,,,,,,
1558971713.974658,1.148359,1.520951,-2.198787,-0.003956,0.363710,-0.018099,0.045445,-0.998758,-0.020427,0.021663,0.110391,-0.181752,-14.787221,-41.362225,-3.353837,,,,,,,
1558971713.994640,1.170720,1.521366,-2.213300,0.028202,0.437550,-0.005623,0.045508,-0.998779,-0.019245,-0.019293,0.118179,-0.144971,-14.723055,-41.371681,-3.515545,,,,,,,
1558971714.014630,1.146308,1.519963,-2.177444,-0.206304,0.653320,-0.029369,0.046302,-0.998708,-0.020927,-0.019492,0.180257,-0.128304,-14.679613,-41.374916,-3.656323,,,,,,,
1558971714.034618,1.056299,1.517302,-2.071975,-0.346425,0.800015,0.031711,0.046546,-0.998569,-0.026311,0.004449,0.216145,-0.142054,-14.596461,-41.356117,-4.166387,,,,,,,
1558971714.054604,0.949539,1.514744,-1.948491,-0.335793,0.828603,0.102458,0.045555,-0.998429,-0.032609,0.026024,0.210954,-0.188537,-14.572630,-41.322319,-4.565933,,,,,,,
1558971714.074589,0.854314,1.512867,-1.836853,-0.285758,0.827449,0.127154,0.043661,-0.998323,-0.038022,0.016139,0.216096,-0.211184,-14.575436,-41.276409,-4.955636,,,,,,,
1558971714.094578,0.799173,1.512831,-1.763004,-0.041714,0.931932,0.171056,0.041525,-0.998320,-0.040397,-0.011725,0.268905,-0.161080,-14.593015,-41.209496,-5.437366,,,,,,,
1558971714.114563,0.787635,1.518144,-1.736143,0.204135,0.645415,0.283816,0.037297,-0.998614,-0.037130,-0.005955,0.269458,-0.029093,-14.645690,-41.139690,-5.811480,,,,,,,
1558971714.134530,0.765570,1.524125,-1.701970,0.070044,0.638664,0.246276,0.032330,-0.998911,-0.033638,-0.001492,0.233652,-0.012337,-14.759858,-41.095520,-5.835111,,,,,,,
1558971714.154526,0.674823,1.525424,-1.595093,-0.205849,0.896944,0.230377,0.028337,-0.998971,-0.035416,-0.010576,0.220559,-0.038315,-14.938515,-40.990746,-6.110927,,,,,,,
1558971714.174523,0.571499,1.526040,-1.472151,-0.049132,0.981780,0.258006,0.024201,-0.998999,-0.037632,0.019348,0.244619,0.043308,-15.011060,-40.897858,-6.540414,,,,,,,
1558971714.194494,0.498648,1.531678,-1.384532,0.240033,0.574465,0.323736,0.018703,-0.999235,-0.034346,0.013051,0.250837,0.085463,-15.057564,-40.857357,-6.685027,,,,,,,
1558971714.214467,0.403483,1.537788,-1.279485,0.101428,0.488458,0.283298,0.012958,-0.999455,-0.030353,-0.035022,0.296773,0.031376,-15.319840,-40.757099,-6.701140,,,,,,,
1558971714.234482,0.241731,1.535934,-1.103251,-0.312511,0.845754,0.259696,0.008344,-0.999392,-0.033843,0.025103,0.281482,-0.045960,-15.445428,-40.666359,-6.959145,,,,,,,
1558971714.254460,0.025135,1.532637,-0.870121,-0.082419,0.683185,0.503883,0.000959,-0.999272,-0.038138,0.059024,0.308812,-0.079080,-15.495914,-40.600960,-7.223724,,,,,,,
1558971714.274434,-0.318739,1.535010,-0.516260,0.361508,0.448563,0.673883,-0.011212,-0.999360,-0.033978,-0.097156,0.377167,-0.055347,-15.986522,-40.352108,-7.542005,,,,,,,
1558971714.294441,-0.755923,1.535147,-0.065741,0.394747,0.852190,0.689517,-0.024449,-0.999365,-0.025935,-0.156276,0.406973,0.030497,-16.449944,-40.192905,-7.394159,,,,,,,
1558971714.314425,-1.061788,1.528930,0.263428,0.279025,1.224721,0.592632,-0.036548,-0.999124,-0.020396,-0.062054,0.338159,0.161097,-16.741802,-40.065571,-7.430047,,,,,,,
1558971714.334414,-1.247487,1.519798,0.468452,0.270980,0.735414,0.624242,-0.048335,-0.998700,-0.016195,-0.027531,0.255994,0.142798,-17.135265,-39.859737,-7.637245,,,,,,,
1558971714.354390,-1.447557,1.510332,0.678027,0.577540,0.378550,0.559148,-0.059969,-0.998173,-0.007428,-0.060011,0.263630,0.131070,-17.231432,-39.816498,-7.646442,,,,,,,
1558971714.374361,-1.652015,1.500153,0.891365,0.749422,0.505463,0.503915,-0.070352,-0.997506,0.005726,-0.076789,0.291848,0.136394,-17.723675,-39.656437,-7.347206,,,,,,,
1558971714.394374,-1.823518,1.489157,1.076647,0.804320,0.630763,0.372770,-0.078959,-0.996669,0.020391,-0.045584,0.228710,0.424739,-18.172777,-39.556896,-6.763556,,,,,,,
1558971714.414283,-1.970350,1.474988,1.227617,0.846338,-0.119716,0.520429,-0.088127,-0.995414,0.037213,-0.057702,0.144233,0.468662,-18.456051,-39.513958,-6.226140,,,,,,,
1558971714.434263,-2.027555,1.458537,1.282461,0.401655,0.044609,0.698875,-0.100540,-0.993706,0.049407,-0.082856,0.125999,0.397263,-18.806829,-39.424934,-5.720282,,,,,,,
1558971714.454267,-1.963324,1.442560,1.227237,-0.115049,0.676621,0.951137,-0.118159,-0.991789,0.048919,-0.011419,0.061049,0.385331,-19.531776,-39.088699,-5.597049,,,,,,,
1558971714.474249,-1.913894,1.423871,1.190469,0.306731,0.430245,0.957657,-0.137865,-0.989226,0.049249,-0.011671,0.046050,0.521918,-20.030888,-38.798229,-5.848454,,,,,,,
1558971714.494239,-1.958217,1.401411,1.229246,0.835422,-0.672960,0.905883,-0.156083,-0.985689,0.063688,-0.073227,0.022584,0.591615,-20.551023,-38.534081,-5.789943,,,,,,,
1558971714.514227,-1.998136,1.381651,1.257286,0.407294,-0.469008,0.780442,-0.171111,-0.982165,0.077925,-0.141221,-0.065717,0.668489,-21.643776,-38.093094,-4.605084,,,,,,,
1558971714.534187,-1.962217,1.363773,1.214679,-0.297247,-0.233198,1.198517,-0.190002,-0.978647,0.078417,0.028030,-0.090704,0.600141,-22.344141,-37.718128,-4.338848,,,,,,,
1558971714.554198,-1.862945,1.338526,1.109394,-0.846973,-0.105776,1.777961,-0.220434,-0.973146,0.066296,0.014028,-0.128843,0.568591,-22.834263,-37.412930,-4.428648,,,,,,,
1558971714.574174,-1.746188,1.305615,0.987328,-1.190023,-0.110046,1.959146,-0.258064,-0.965045,0.045732,-0.265541,-0.157254,0.492888,-24.107712,-36.539543,-4.942037,,,,,,,
1558971714.594141,-1.653996,1.273651,0.884167,-1.152685,-0.554663,1.639964,-0.291779,-0.956176,0.024332,-0.259887,-0.226960,0.277945,-26.161850,-34.920883,-6.069016,,,,,,,
1558971714.614158,-1.618031,1.246371,0.826259,-0.558011,-1.156595,1.278085,-0.318409,-0.947834,0.015051,-0.244610,-0.285549,0.219369,-27.035442,-34.206173,-6.306032,,,,,,,
1558971714.634145,-1.627699,1.223699,0.809356,-0.086739,-1.321038,1.114606,-0.339620,-0.940364,0.019346,-0.281123,-0.313512,0.234438,-27.794863,-33.626640,-6.118673,,,,,,,
1558971714.654128,-1.638473,1.200662,0.794259,-0.350224,-1.128210,1.198449,-0.360913,-0.932279,0.024463,-0.348789,-0.311953,0.317822,-29.148626,-32.625465,-5.165280,,,,,,,
1558971714.674116,-1.619260,1.178591,0.753765,-0.861184,-0.854027,1.094967,-0.381778,-0.924068,0.018517,-0.287396,-0.306767,0.325233,-29.801100,-32.064457,-4.950610,,,,,,,
1558971714.694077,-1.601614,1.159484,0.711322,-0.652504,-1.257088,0.893761,-0.399623,-0.916597,0.012319,-0.146550,-0.343840,0.218470,-30.388664,-31.507504,-4.954759,,,,,,,
1558971714.714089,-1.614893,1.144218,0.695469,-0.112041,-1.419775,0.733557,-0.413356,-0.910387,0.018239,-0.118093,-0.413908,0.234248,-31.380466,-30.617199,-4.312418,,,,,,,
1558971714.734068,-1.643277,1.128559,0.694896,0.040992,-1.450024,0.835884,-0.426839,-0.903796,0.030992,-0.136256,-0.405545,0.279052,-31.662615,-30.383247,-3.883386,,,,,,,
1558971714.754044,-1.658514,1.111999,0.682404,-0.399978,-1.218364,0.816396,-0.441167,-0.896586,0.038798,-0.263377,-0.337713,0.366476,-32.542980,-29.581966,-2.570073,,,,,,,
1558971714.774049,-1.649421,1.100228,0.647860,-0.884560,-1.090433,0.548185,-0.451992,-0.891311,0.035611,-0.235447,-0.337159,0.316821,-33.017288,-29.082914,-2.187738,,,,,,,
1558971714.794005,-1.639998,1.094121,0.606462,-0.865435,-1.556046,0.260817,-0.457730,-0.888525,0.031727,-0.227787,-0.335260,0.262966,-33.190887,-28.892933,-2.075406,,,,,,,
1558971714.814011,-1.648405,1.093486,0.577552,-0.528162,-1.727332,-0.002126,-0.458009,-0.888234,0.035617,-0.150359,-0.257717,0.086972,-33.461487,-28.628958,-1.206297,,,,,,,
1558971714.834009,-1.670707,1.094578,0.563526,-0.229047,-1.737389,-0.021201,-0.456136,-0.888735,0.045725,-0.085917,-0.228712,0.069433,-33.475182,-28.637062,-0.273476,,,,,,,
1558971714.853971,-1.695431,1.095037,0.553542,-0.276735,-1.654633,0.017988,-0.454461,-0.888945,0.056937,-0.091590,-0.248094,0.081262,-33.470337,-28.643000,0.242749,,,,,,,
1558971714.873982,-1.720191,1.094626,0.539610,-0.312217,-2.048591,0.099601,-0.453273,-0.888757,0.068225,-0.103108,-0.355323,0.127591,-33.444550,-28.621130,1.742599,,,,,,,
1558971714.893968,-1.747310,1.093734,0.522496,-0.462338,-2.062618,0.087602,-0.452037,-0.888348,0.080630,-0.181020,-0.424290,0.063672,-33.408718,-28.562984,2.959222,,,,,,,
1558971714.913953,-1.763042,1.095941,0.496575,-0.671271,-1.896850,-0.062585,-0.448787,-0.889359,0.087356,-0.198125,-0.429214,0.002335,-33.363941,-28.554653,3.496070,,,,,,,
1558971714.933941,-1.774235,1.101437,0.467414,-0.719781,-1.827889,-0.173921,-0.442988,-0.891858,0.091385,-0.222601,-0.435397,-0.149139,-33.064789,-28.710615,4.812884,,,,,,,
1558971714.953927,-1.784368,1.109043,0.439049,-0.664122,-1.781827,-0.276997,-0.435397,-0.895273,0.094428,-0.239408,-0.432425,-0.227943,-32.755486,-28.926321,5.575778,,,,,,,
1558971714.973912,-1.803735,1.118115,0.418732,-0.472781,-1.914069,-0.389145,-0.425566,-0.899278,0.100964,-0.271914,-0.444488,-0.265453,-32.567558,-29.057930,5.977808,,,,,,,
1558971714.993888,-1.822444,1.130497,0.399485,-0.657007,-1.695631,-0.572972,-0.412786,-0.904624,0.106127,-0.369868,-0.445153,-0.294283,-31.827168,-29.563501,7.333098,,,,,,,
1558971715.013862,-1.822614,1.148438,0.367454,-0.961061,-1.350821,-0.785580,-0.396984,-0.912125,0.102136,-0.340153,-0.413772,-0.384560,-31.369778,-29.943163,7.751624,,,,,,,
1558971715.033851,-1.816882,1.169790,0.333320,-0.843567,-1.280787,-0.899054,-0.378585,-0.920669,0.095092,-0.310105,-0.371247,-0.420806,-30.856800,-30.419880,7.951875,,,,,,,
1558971715.053847,-1.825355,1.191017,0.314432,-0.479422,-1.282798,-0.963908,-0.358769,-0.928747,0.093353,-0.270900,-0.325679,-0.465621,-29.701473,-31.433380,8.396939,,,,,,,
1558971715.073829,-1.848398,1.211893,0.312760,-0.221429,-1.194405,-1.029050,-0.337800,-0.936283,0.096259,-0.339079,-0.304715,-0.429587,-29.075161,-31.915770,8.761405,,,,,,,
1558971715.093807,-1.871724,1.236210,0.316493,-0.403071,-0.878868,-1.302696,-0.313622,-0.944546,0.097333,-0.383308,-0.277271,-0.361463,-28.417370,-32.393059,9.158964,,,,,,,
1558971715.113818,-1.878719,1.267755,0.306756,-0.730303,-0.785509,-1.517729,-0.284388,-0.954433,0.090446,-0.279074,-0.180286,-0.308632,-26.852901,-33.620888,9.449926,,,,,,,
1558971715.133804,-1.868503,1.301327,0.282456,-0.855271,-0.562790,-1.456977,-0.254510,-0.963912,0.078090,-0.171958,-0.114701,-0.346965,-25.686684,-34.566196,9.279860,,,,,,,
1558971715.153790,-1.853298,1.331733,0.255995,-0.627642,-0.546852,-1.308239,-0.227407,-0.971560,0.066008,-0.154749,-0.076932,-0.357726,-25.136692,-35.009548,9.122614,,,,,,,
1558971715.173777,-1.867615,1.356903,0.257997,-0.181047,-0.628257,-1.161326,-0.202984,-0.977212,0.062084,-0.138126,-0.021995,-0.360668,-23.611351,-36.100815,8.943102,,,,,,,
1558971715.193763,-1.895139,1.380313,0.276243,-0.287627,-0.363505,-1.202651,-0.179462,-0.981913,0.060338,-0.200085,-0.003698,-0.233083,-22.668289,-36.665932,9.083039,,,,,,,
1558971715.213749,-1.881735,1.407111,0.259563,-0.720802,-0.029363,-1.226491,-0.155141,-0.986633,0.049857,-0.226252,0.021927,-0.203604,-22.193447,-36.968533,9.028948,,,,,,,
1558971715.233736,-1.802571,1.434919,0.182211,-1.010700,0.219612,-1.151740,-0.131837,-0.990783,0.031116,-0.143340,0.057128,-0.241214,-20.830572,-37.946247,8.180048,,,,,,,
1558971715.253722,-1.699875,1.459612,0.081342,-0.618761,-0.005362,-1.074573,-0.110032,-0.993825,0.014282,-0.131682,0.082143,-0.324936,-20.001919,-38.548874,7.392673,,,,,,,
1558971715.273682,-1.687451,1.480801,0.064695,-0.002330,-0.274886,-1.019007,-0.089263,-0.995953,0.010460,-0.151520,0.091916,-0.327401,-19.373562,-38.911385,7.163290,,,,,,,
1558971715.293687,-1.734194,1.501520,0.109465,-0.058510,0.083614,-1.101032,-0.068299,-0.997601,0.011260,-0.213867,0.039304,-0.189651,-18.327457,-39.395046,7.271759,,,,,,,
1558971715.313682,-1.623751,1.526370,0.009193,-0.641498,0.767165,-1.254036,-0.044349,-0.999013,0.002351,-0.159905,0.055654,-0.173035,-17.453465,-39.850384,6.933054,,,,,,,
1558971715.333647,-0.917052,1.546558,-0.680004,-0.829754,0.818902,-1.246218,-0.019239,-0.999706,-0.014740,-0.147555,0.094875,-0.188492,-17.453465,-39.850384,6.933054,,,,,,,
1558971715.353654,0.279700,1.545296,-1.867922,-0.231017,0.273347,-1.354522,0.007039,-0.999675,-0.024507,-0.176595,0.116420,-0.271773,-16.097935,-40.626961,5.572256,,,,,,,
1558971715.373626,1.005680,1.528620,-2.590781,0.226513,0.169327,-1.450172,0.035609,-0.999111,-0.022580,-0.192149,0.127437,-0.164005,-14.460700,-41.283653,5.224140,,,,,,,
1558971715.393612,1.283470,1.503253,-2.862728,0.020862,0.430433,-1.449973,0.064725,-0.997720,-0.019126,-0.198163,0.136056,-0.123940,-14.460700,-41.283653,5.224140,,,,,,,
1558971715.413590,1.311717,1.474440,-2.876921,-0.534573,0.863688,-1.360859,0.092997,-0.995361,-0.024647,-0.122522,0.197998,-0.112407,-12.151062,-42.046978,5.014720,,,,,,,
1558971715.433574,1.273442,1.447391,-2.818274,-0.673892,1.007459,-1.131118,0.117691,-0.992395,-0.036065,-0.127975,0.232889,-0.136847,-11.395464,-42.320686,4.454931,,,,,,,
1558971715.453585,1.290088,1.425415,-2.818526,-0.071500,0.696850,-1.032182,0.139199,-0.989451,-0.040134,-0.146752,0.244273,-0.174038,-10.737096,-42.549145,3.876726,,,,,,,
1558971715.473573,1.357424,1.406375,-2.875649,0.291887,0.497289,-1.025261,0.159970,-0.986513,-0.034661,-0.161114,0.247728,-0.090156,-9.905685,-42.775375,3.590041,,,,,,,
1558971715.493559,1.408081,1.387306,-2.914657,-0.002238,0.734591,-0.996534,0.180052,-0.983213,-0.029559,-0.135512,0.261396,-0.026670,-8.658130,-43.033844,3.724079,,,,,,,
1558971715.513544,1.414775,1.368742,-2.901483,-0.394030,1.125912,-0.807331,0.198245,-0.979656,-0.031184,-0.107241,0.287258,-0.010946,-8.658130,-43.033844,3.724079,,,,,,,
1558971715.533533,1.402852,1.354952,-2.864793,-0.505973,1.209389,-0.509816,0.211159,-0.976796,-0.035800,-0.066093,0.352727,-0.025418,-7.381574,-43.337406,2.850507,,,,,,,
1558971715.553504,1.397842,1.346377,-2.837254,-0.281186,1.030923,-0.312762,0.219220,-0.974924,-0.038298,-0.083584,0.360147,-0.044253,-7.075381,-43.420197,2.317166,,,,,,,
1558971715.573504,1.402327,1.339646,-2.821050,-0.256749,1.013873,-0.319312,0.225854,-0.973403,-0.038414,-0.105706,0.355560,-0.036400,-6.966124,-43.447365,2.131464,,,,,,,
1558971715.593492,1.399924,1.330203,-2.796455,-0.404081,1.138096,-0.467711,0.234809,-0.971197,-0.040517,-0.088599,0.370245,-0.041636,-6.565315,-43.534691,1.539661,,,,,,,
1558971715.613471,1.405307,1.320713,-2.777704,-0.217808,1.181665,-0.364651,0.244104,-0.968892,-0.040769,-0.010385,0.394932,0.028257,-6.283664,-43.587383,1.182972,,,,,,,
1558971715.633463,1.419168,1.315891,-2.767943,-0.176683,1.166989,-0.137350,0.249260,-0.967687,-0.038087,0.012443,0.376211,0.056810,-6.016638,-43.632545,0.862716,,,,,,,
1558971715.653452,1.418949,1.314983,-2.743467,-0.404800,1.173809,0.088874,0.250120,-0.967458,-0.038275,0.022615,0.366918,0.028936,-5.947195,-43.648453,0.432734,,,,,,,
1558971715.673437,1.409703,1.317112,-2.708921,-0.370685,1.241448,0.202719,0.247723,-0.967994,-0.040255,-0.013882,0.338188,0.003573,-6.077717,-43.632542,-0.078844,,,,,,,
1558971715.693422,1.414651,1.320459,-2.687814,-0.172513,1.294310,0.200181,0.244717,-0.968829,-0.038525,-0.044079,0.350848,0.046322,-6.077717,-43.632542,-0.078844,,,,,,,
1558971715.713409,1.423777,1.324325,-2.668242,-0.262497,1.469267,0.251963,0.241351,-0.969779,-0.035741,-0.017795,0.300834,0.120977,-6.420844,-43.575813,-0.815388,,,,,,,
1558971715.733375,1.420720,1.328932,-2.635140,-0.371439,1.386426,0.313006,0.236821,-0.970893,-0.035811,0.055553,0.259559,0.082502,-6.571002,-43.545464,-1.165524,,,,,,,
1558971715.753357,1.428149,1.335040,-2.618545,0.017097,1.071538,0.332724,0.231206,-0.972338,-0.033207,0.039744,0.247149,0.069675,-6.746220,-43.507145,-1.536313,,,,,,,
1558971715.773356,1.464091,1.340940,-2.634675,0.284217,1.005506,0.231946,0.226542,-0.973699,-0.024265,-0.063197,0.197118,0.278141,-7.094060,-43.445980,-1.692605,,,,,,,
1558971715.793342,1.497619,1.344720,-2.649027,0.067020,0.937763,0.111548,0.223556,-0.974553,-0.016388,0.038971,0.057714,0.288300,-7.210588,-43.429108,-1.632102,,,,,,,
1558971715.813313,1.511336,1.344130,-2.645111,-0.034185,0.816420,-0.102157,0.224334,-0.974421,-0.013355,0.065538,0.039210,0.240405,-7.259025,-43.418858,-1.689065,,,,,,,
1558971715.833298,1.546772,1.343121,-2.671493,0.530178,0.264993,-0.016233,0.225648,-0.974194,-0.005422,0.112685,0.024502,0.260595,-7.135336,-43.437420,-1.738110,,,,,,,
1558971715.853314,1.607647,1.343788,-2.730249,0.622549,0.222325,0.049627,0.224911,-0.974344,0.008292,0.011387,-0.013739,0.412195,-7.147793,-43.453278,-1.210507,,,,,,,
1558971715.873299,1.634931,1.344382,-2.750033,-0.070529,0.503921,0.022940,0.224024,-0.974478,0.014387,0.015661,-0.031473,0.442461,-7.166903,-43.455814,-0.985713,,,,,,,
1558971715.893287,1.614492,1.344272,-2.715772,-0.460440,0.698230,-0.054518,0.224377,-0.974453,0.009811,0.086811,-0.057102,0.197129,-7.163302,-43.449593,-1.250412,,,,,,,
1558971715.913273,1.608027,1.343526,-2.698845,0.050269,0.308707,-0.036485,0.225163,-0.974285,0.008387,0.073009,-0.008274,0.137640,-7.103217,-43.447594,-1.610671,,,,,,,
1558971715.933244,1.640599,1.341964,-2.731005,0.476032,-0.040283,-0.071514,0.226288,-0.973932,0.015821,0.029297,0.004587,0.151583,-7.081803,-43.452560,-1.570622,,,,,,,
