timestamp(unix),attitude_roll(radians),attitude_pitch(radians),attitude_yaw(radians),rotation_rate_x(radians/s),rotation_rate_y(radians/s),rotation_rate_z(radians/s),gravity_x(G),gravity_y(G),gravity_z(G),user_acc_x(G),user_acc_y(G),user_acc_z(G),magnetic_field_x(microteslas),magnetic_field_y(microteslas),magnetic_field_z(microteslas),latitude(degree),longitude(degree),altitude(meter),speed(m/s),course(degree),timestamp(unix),User Mark
1558974886.282802,0.069414,1.217310,-1.327307,-0.423654,-0.102457,-0.276456,0.024010,-0.938172,-0.345337,-0.032570,-0.016769,0.055313,-11.277263,-42.735771,-1.532937,,,,,,,
1558974886.302791,0.079076,1.210920,-1.341455,-0.178318,-0.277111,-0.286472,0.027818,-0.935941,-0.351058,0.012343,0.024106,-0.002305,-11.052975,-42.783428,-1.811751,,,,,,,
1558974886.322765,0.083138,1.210822,-1.359861,0.224905,-0.976817,-0.260822,0.029252,-0.935906,-0.351033,0.021774,0.019753,-0.029063,-10.874729,-42.829956,-1.790967,,,,,,,
1558974886.342758,0.057600,1.219086,-1.360670,0.499088,-1.463488,0.387088,0.019832,-0.938785,-0.343932,-0.054485,0.055377,-0.033417,-10.697525,-42.894566,-1.221322,,,,,,,
1558974886.362764,0.045350,1.233960,-1.361201,0.768592,-0.361141,-0.159457,0.014983,-0.943805,-0.330163,0.128419,0.176349,0.122095,-10.877124,-42.861996,-0.640476,,,,,,,
1558974886.382739,0.041155,1.240971,-1.371755,0.126869,-0.950725,-0.141058,0.013326,-0.946099,-0.323604,0.056071,-0.031883,-0.024586,-10.786504,-42.889549,-0.103630,,,,,,,
1558974886.402746,0.008700,1.241782,-1.366580,0.101505,-1.456622,0.046256,0.002811,-0.946361,-0.323098,0.064236,0.156383,0.061379,-10.743800,-42.898266,0.426985,,,,,,,
1558974886.422737,-0.034780,1.246193,-1.353373,0.291562,-1.497439,0.279832,-0.011090,-0.947777,-0.318740,0.049436,0.082665,-0.022600,-10.852496,-42.863361,0.910003,,,,,,,
1558974886.442701,-0.084152,1.253073,-1.334818,0.332518,-1.957345,0.353401,-0.026259,-0.949949,-0.311299,0.040846,0.044309,-0.076426,-10.954893,-42.830013,1.205410,,,,,,,
1558974886.462712,-0.158175,1.259898,-1.304424,0.553534,-2.381248,0.396497,-0.048186,-0.952059,-0.302096,-0.108353,0.014528,-0.118833,-11.305369,-42.693714,2.303954,,,,,,,
1558974886.482711,-0.234303,1.274817,-1.273747,0.985255,-1.977965,0.167956,-0.067717,-0.956517,-0.283707,0.194823,0.107289,0.315552,-11.471590,-42.570450,3.468649,,,,,,,
1558974886.502673,-0.266339,1.289312,-1.267171,0.444501,-1.387614,0.040785,-0.073113,-0.960644,-0.267988,-0.045952,0.005322,-0.003924,-11.361123,-42.521229,4.329252,,,,,,,
1558974886.522680,-0.299996,1.295868,-1.253530,0.379907,-0.597558,0.127301,-0.080226,-0.962445,-0.259353,0.001460,-0.029834,-0.016114,-11.247934,-42.462158,5.130446,,,,,,,
1558974886.542684,-0.312047,1.300242,-1.241273,0.150294,0.402307,-0.019189,-0.082053,-0.963623,-0.254358,-0.007379,-0.012802,0.002787,-11.328854,-42.399826,5.457515,,,,,,,
1558974886.562674,-0.285273,1.299905,-1.256261,-0.195788,0.578173,-0.260139,-0.075305,-0.963533,-0.256776,-0.040448,-0.005675,0.054307,-11.312792,-42.411316,5.401295,,,,,,,
1558974886.582668,-0.254759,1.298485,-1.282282,-0.063304,0.041448,-0.343108,-0.067781,-0.963152,-0.260277,-0.020797,0.010988,0.019875,-11.073835,-42.513775,5.081520,,,,,,,
1558974886.602628,-0.242547,1.304317,-1.300766,0.391673,-0.447089,-0.289767,-0.063247,-0.964704,-0.255629,0.013580,0.001935,-0.042756,-10.782292,-42.573326,5.208323,,,,,,,
1558974886.622642,-0.256090,1.315295,-1.304370,0.549506,-0.925424,-0.112719,-0.064017,-0.967537,-0.244489,-0.003854,-0.006798,0.004682,-10.560785,-42.578438,5.605253,,,,,,,
1558974886.642642,-0.267444,1.322889,-1.300460,0.298605,-0.109973,0.044356,-0.064845,-0.969428,-0.236653,-0.067388,-0.009988,0.044392,-10.363411,-42.534008,6.271401,,,,,,,
1558974886.662624,-0.273636,1.322582,-1.296885,-0.197852,-0.191788,0.136060,-0.066389,-0.969353,-0.236533,-0.048204,-0.032539,0.016226,-10.360779,-42.513912,6.410465,,,,,,,
1558974886.682620,-0.290308,1.315386,-1.279687,-0.277320,0.309868,0.280660,-0.072318,-0.967560,-0.242071,0.142509,0.052368,0.070059,-10.512520,-42.498650,6.262949,,,,,,,
1558974886.702615,-0.301841,1.308295,-1.265902,-0.320643,-0.273485,0.206712,-0.077143,-0.965744,-0.247765,0.047815,-0.006012,-0.054511,-10.857613,-42.462013,5.912887,,,,,,,
1558974886.722592,-0.336699,1.298310,-1.244419,-0.327761,-0.687367,0.495280,-0.088913,-0.963105,-0.254016,0.035995,0.023026,0.071078,-11.003343,-42.445301,5.761554,,,,,,,
1558974886.742592,-0.352576,1.296853,-1.238477,0.125374,-0.448692,-0.175758,-0.093419,-0.962711,-0.253889,0.053441,0.009678,0.048674,-11.240011,-42.395065,5.673892,,,,,,,
1558974886.762589,-0.356849,1.300310,-1.244939,0.243040,-0.555937,-0.088076,-0.093339,-0.963641,-0.250367,-0.040236,0.031283,-0.089492,-11.154888,-42.404301,5.772030,,,,,,,
1558974886.782558,-0.374629,1.304435,-1.240564,0.147237,-0.799344,0.086747,-0.096320,-0.964735,-0.244967,0.034110,0.029509,0.024370,-10.949376,-42.401947,6.169166,,,,,,,
1558974886.802566,-0.391339,1.307991,-1.235430,0.201835,-0.480736,-0.130095,-0.099091,-0.965665,-0.240150,0.094452,0.020307,0.039405,-10.921232,-42.375164,6.398824,,,,,,,
1558974886.822562,-0.398411,1.312508,-1.236955,0.309575,-0.406242,-0.121822,-0.099094,-0.966829,-0.235420,0.019397,0.029298,-0.045952,-10.731773,-42.362766,6.789541,,,,,,,
1558974886.842530,-0.415556,1.321087,-1.226477,0.523628,-0.324746,-0.004497,-0.099763,-0.968984,-0.226090,0.009629,0.029592,-0.046783,-10.632835,-42.339771,7.082333,,,,,,,
1558974886.862540,-0.437431,1.330238,-1.209585,0.430334,-0.220707,-0.030267,-0.100924,-0.971205,-0.215812,-0.010297,0.021513,-0.007347,-15.533306,-44.488640,8.322877,,,,,,,
1558974886.882534,-0.446450,1.336365,-1.203467,0.257182,-0.128950,-0.067963,-0.100295,-0.972647,-0.209522,-0.006746,0.026815,0.039249,-15.429550,-44.400558,8.961706,,,,,,,
1558974886.902523,-0.463627,1.339396,-1.188178,0.163009,-0.156592,0.202879,-0.102560,-0.973346,-0.205131,-0.034891,0.011432,0.022773,-15.402626,-44.371498,9.149958,,,,,,,
1558974886.922513,-0.481797,1.338766,-1.172187,0.058048,-0.064198,0.123606,-0.106554,-0.973201,-0.203777,-0.000959,0.029720,0.031520,-15.546838,-44.287743,9.310447,,,,,,,
1558974886.942507,-0.494744,1.339955,-1.157196,0.142882,0.175345,0.155861,-0.108634,-0.973474,-0.201362,-0.014108,0.043176,-0.037621,-15.684879,-44.216331,9.417707,,,,,,,
1558974886.962497,-0.500286,1.341452,-1.144389,0.179835,0.613429,-0.100422,-0.109049,-0.973816,-0.199478,-0.091817,0.295593,0.135849,-15.826054,-44.158882,9.451040,,,,,,,
1558974886.982485,-0.457127,1.347292,-1.170768,0.139699,0.927229,-0.331266,-0.097830,-0.975127,-0.198891,-0.156122,-0.079775,-0.050545,-15.846832,-44.158203,9.419333,,,,,,,
1558974887.002459,-0.438212,1.347403,-1.168426,-0.035401,0.946701,0.060607,-0.094004,-0.975151,-0.200607,0.089426,-0.024147,0.030441,-15.842913,-44.238556,9.041269,,,,,,,
1558974887.022457,-0.444275,1.346567,-1.148578,0.090842,0.642107,0.388763,-0.095569,-0.974966,-0.200770,0.051441,-0.046198,0.056498,-16.004967,-44.217361,8.857674,,,,,,,
1558974887.042437,-0.466833,1.343790,-1.112386,0.010882,0.621444,0.426936,-0.101291,-0.974344,-0.200980,0.014347,-0.006246,0.032110,-16.332272,-44.117401,8.758097,,,,,,,
1558974887.062444,-0.480810,1.339897,-1.086322,-0.049836,0.541209,0.278784,-0.105844,-0.973461,-0.202905,-0.042167,0.006023,0.029977,-17.016453,-43.915878,8.463357,,,,,,,
1558974887.082443,-0.479004,1.338006,-1.075125,-0.077526,0.714225,-0.040937,-0.106326,-0.973026,-0.204730,-0.028532,-0.016277,0.013934,-17.323792,-43.837215,8.244850,,,,,,,
1558974887.102404,-0.450645,1.338977,-1.090755,0.005401,0.596178,-0.230974,-0.100066,-0.973250,-0.206812,-0.031877,0.001265,0.033106,-17.348415,-43.856785,8.087493,,,,,,,
1558974887.122411,-0.426184,1.342993,-1.108560,0.060066,0.098160,-0.150291,-0.093361,-0.974165,-0.205637,0.040612,-0.004687,0.015864,-17.138561,-43.980049,7.862425,,,,,,,
1558974887.142417,-0.432818,1.345137,-1.110979,0.073278,-0.689220,-0.040376,-0.093847,-0.974647,-0.203117,-0.004129,-0.021905,-0.000146,-17.013224,-43.999954,8.021637,,,,,,,
1558974887.162397,-0.446093,1.344776,-1.111117,-0.000810,-0.562001,-0.047756,-0.096687,-0.974566,-0.202171,-0.018974,0.015658,-0.037881,-16.937849,-43.994949,8.206450,,,,,,,
1558974887.182401,-0.447317,1.346684,-1.116197,0.118699,-0.173723,-0.097326,-0.096130,-0.974992,-0.200375,0.001159,0.007142,-0.028080,-16.767788,-44.018669,8.425592,,,,,,,
1558974887.202390,-0.448093,1.349977,-1.116570,0.177345,-0.089293,0.020966,-0.094894,-0.975718,-0.197406,0.026687,0.008738,0.013446,-16.662516,-44.031166,8.567938,,,,,,,
1558974887.222379,-0.472580,1.352423,-1.099980,0.175472,-0.600688,0.147390,-0.098612,-0.976251,-0.192897,-0.008795,-0.003958,0.022670,-16.672989,-43.991863,8.747558,,,,,,,
1558974887.242362,-0.505440,1.353440,-1.082064,0.099345,-0.801232,0.073880,-0.104416,-0.976471,-0.188685,-0.012985,-0.004044,-0.018209,-16.695208,-43.889610,9.206798,,,,,,,
1558974887.262348,-0.518711,1.354680,-1.082835,0.027868,-0.605572,-0.102601,-0.106310,-0.976738,-0.186231,-0.009291,-0.003365,-0.024844,-16.560438,-43.874752,9.515779,,,,,,,
1558974887.282353,-0.511509,1.355457,-1.098013,-0.017814,-0.283041,-0.168949,-0.104595,-0.976904,-0.186330,0.002727,-0.007837,0.002492,-16.398460,-43.914921,9.610546,,,,,,,
1558974887.302347,-0.500558,1.356310,-1.113301,-0.060989,-0.130572,-0.147239,-0.102148,-0.977086,-0.186733,0.022344,0.003682,0.003673,-16.151381,-43.989597,9.687142,,,,,,,
1558974887.322323,-0.487316,1.355103,-1.126540,0.008467,-0.023041,-0.093841,-0.100218,-0.976828,-0.189111,-0.010149,-0.000634,-0.010154,-16.064371,-44.028030,9.657194,,,,,,,
1558974887.342327,-0.481558,1.358571,-1.136769,0.115369,-0.262664,-0.212423,-0.097558,-0.977565,-0.186681,-0.012427,-0.000127,-0.006846,-15.997680,-44.065491,9.596813,,,,,,,
1558974887.362320,-0.470386,1.360760,-1.149901,-0.006248,0.010807,-0.151168,-0.094496,-0.978023,-0.185851,0.017806,-0.000630,-0.006959,-15.698841,-44.130329,9.790461,,,,,,,
1558974887.382291,-0.450042,1.362820,-1.170322,0.016961,-0.032581,-0.105665,-0.089819,-0.978451,-0.185920,0.025199,0.020992,0.008430,-15.569414,-44.181786,9.765036,,,,,,,
1558974887.402300,-0.445591,1.364297,-1.176999,-0.003841,-0.166572,-0.011948,-0.088368,-0.978755,-0.185014,0.019139,0.006770,0.013063,-15.439995,-44.221802,9.789345,,,,,,,
1558974887.422293,-0.451342,1.364951,-1.176012,0.002266,-0.255403,-0.018130,-0.089152,-0.978889,-0.183927,-0.004782,0.007484,0.003309,-15.311913,-44.236366,9.923819,,,,,,,
1558974887.442283,-0.450130,1.364760,-1.180642,0.116754,-0.107075,-0.091355,-0.089010,-0.978850,-0.184203,0.002752,0.029448,-0.019151,-15.286751,-44.237122,9.959181,,,,,,,
1558974887.462272,-0.447600,1.368704,-1.184614,0.231701,-0.087515,-0.038766,-0.086872,-0.979649,-0.180946,0.022846,0.029942,-0.018562,-15.212027,-44.249886,10.016724,,,,,,,
1558974887.482268,-0.451689,1.372042,-1.183138,0.096120,-0.165943,0.050049,-0.086183,-0.980313,-0.177646,0.011766,0.022321,0.038868,-15.035536,-44.249603,10.280965,,,,,,,
1558974887.502239,-0.449871,1.370387,-1.186929,-0.178007,-0.050474,-0.036613,-0.086566,-0.979985,-0.179263,-0.015424,0.012471,0.011615,-15.036729,-44.239632,10.322016,,,,,,,
1558974887.522246,-0.437783,1.367169,-1.199625,-0.107532,-0.003347,-0.082012,-0.085729,-0.979339,-0.183152,-0.013346,0.022873,-0.009597,-15.004921,-44.273724,10.221675,,,,,,,
1558974887.542211,-0.436079,1.369261,-1.202784,0.207085,-0.139218,-0.065979,-0.084551,-0.979761,-0.181440,-0.008879,0.011911,-0.058413,-14.957628,-44.321323,10.083754,,,,,,,
1558974887.562222,-0.457244,1.377880,-1.190246,0.578776,-0.692809,0.015496,-0.084641,-0.981449,-0.172027,0.019455,-0.013073,0.028396,-14.771338,-44.280647,10.527332,,,,,,,
1558974887.582205,-0.530099,1.386504,-1.139943,0.561099,-1.410016,0.291544,-0.092655,-0.983066,-0.158101,0.032398,0.017170,0.052296,-14.713221,-44.207024,10.911138,,,,,,,
1558974887.602209,-0.620190,1.390757,-1.081068,0.412272,-1.650160,0.340373,-0.104073,-0.983837,-0.145720,-0.012535,-0.002278,-0.005586,-14.641989,-43.998932,11.810957,,,,,,,
1558974887.622203,-0.699916,1.392301,-1.029941,0.320869,-1.309408,0.282706,-0.114369,-0.984112,-0.135807,-0.050457,0.006649,-0.067303,-14.487938,-43.705986,13.026073,,,,,,,
1558974887.642169,-0.763253,1.395778,-0.987170,0.427727,-0.948758,0.090864,-0.120369,-0.984723,-0.125822,-0.098305,0.007093,-0.105990,-14.487938,-43.705986,13.026073,,,,,,,
1558974887.662174,-0.818810,1.404669,-0.948753,0.586674,-0.949933,-0.137497,-0.120771,-0.986233,-0.112959,0.014860,-0.002232,-0.030932,-14.262426,-43.479870,13.995598,,,,,,,
1558974887.682177,-0.900766,1.413722,-0.891056,0.695444,-1.472453,0.007059,-0.122610,-0.987689,-0.097144,0.022665,0.017490,-0.049569,-13.694551,-43.255291,15.206291,,,,,,,
1558974887.702144,-1.019391,1.421700,-0.804822,0.802258,-1.671690,0.036200,-0.126529,-0.988906,-0.077820,0.015506,0.019423,-0.082779,-13.694551,-43.255291,15.206291,,,,,,,
1558974887.722160,-1.138658,1.430819,-0.711660,0.782001,-1.123285,-0.159285,-0.126694,-0.990219,-0.058433,-0.006729,0.023132,0.002830,-12.688932,-42.746979,17.363161,,,,,,,
1558974887.742150,-1.223848,1.439707,-0.640175,0.508438,-0.520564,-0.263703,-0.122925,-0.991420,-0.044447,0.012909,0.008724,0.041669,-12.318069,-42.591679,18.000191,,,,,,,
1558974887.762139,-1.271021,1.446854,-0.600782,0.298056,-0.400005,-0.256312,-0.118112,-0.992329,-0.036507,0.006098,0.031468,-0.000083,-11.915552,-42.482624,18.521305,,,,,,,
1558974887.782133,-1.328265,1.453573,-0.554524,0.388773,-0.631902,-0.212550,-0.113531,-0.993137,-0.028088,0.022589,0.016697,-0.009098,-11.414874,-42.402763,19.013126,,,,,,,
1558974887.802122,-1.406243,1.457923,-0.489205,0.422627,-0.647780,-0.108045,-0.111112,-0.993637,-0.018451,-0.003908,0.018432,0.005313,-11.309649,-42.377781,19.131327,,,,,,,
1558974887.822112,-1.477072,1.460251,-0.427289,0.291617,-0.328869,-0.066663,-0.109835,-0.993896,-0.010325,-0.004178,0.010269,0.018198,-10.797899,-42.178902,19.852913,,,,,,,
1558974887.842108,-1.506555,1.462147,-0.398335,0.095088,0.105503,-0.090421,-0.108213,-0.994103,-0.006961,-0.008349,0.018579,0.014438,-10.695754,-42.122704,20.026756,,,,,,,
1558974887.862087,-1.504794,1.463536,-0.397109,-0.032566,0.148510,-0.052744,-0.106822,-0.994253,-0.007061,0.006465,0.020315,0.025799,-10.608143,-42.073662,20.175894,,,,,,,
1558974887.882085,-1.498084,1.464025,-0.403629,-0.022774,-0.091420,-0.010192,-0.106287,-0.994305,-0.007742,0.005213,0.023053,0.029593,-10.614845,-42.095867,20.125984,,,,,,,
1558974887.902074,-1.502927,1.463914,-0.403014,0.023506,-0.254423,0.003232,-0.106434,-0.994293,-0.007235,-0.011334,0.011032,0.005480,-10.541309,-42.103001,20.149708,,,,,,,
1558974887.922050,-1.509845,1.464553,-0.399822,-0.007905,-0.121159,-0.053171,-0.105846,-0.994362,-0.006459,-0.010975,0.012306,0.010686,-10.463522,-42.095573,20.205687,,,,,,,
1558974887.942033,-1.497245,1.465515,-0.412258,-0.145505,0.096185,-0.097105,-0.104803,-0.994463,-0.007722,-0.011194,0.015169,0.014238,-10.393812,-42.106976,20.217918,,,,,,,
1558974887.962041,-1.465186,1.466481,-0.441699,-0.185790,0.152438,-0.082716,-0.103547,-0.994564,-0.010976,0.000489,0.019588,0.002142,-10.378998,-42.186638,20.058832,,,,,,,
1558974887.982021,-1.432583,1.467351,-0.472363,-0.096847,0.026242,-0.045419,-0.102276,-0.994654,-0.014227,0.003643,0.015757,-0.000208,-10.380424,-42.253216,19.917463,,,,,,,
1558974888.002002,-1.423869,1.467982,-0.483601,-0.031548,-0.187623,-0.048480,-0.101528,-0.994719,-0.015025,-0.002614,0.015746,0.002818,-10.354109,-42.292118,19.848465,,,,,,,
1558974888.022027,-1.426390,1.468566,-0.484456,0.037844,-0.131986,-0.061769,-0.100991,-0.994779,-0.014686,-0.003837,0.006025,-0.005166,-10.212486,-42.315216,19.872601,,,,,,,
1558974888.042016,-1.433492,1.469627,-0.478405,0.026541,-0.001894,-0.047721,-0.100046,-0.994887,-0.013824,0.001291,0.012999,0.015319,-10.141857,-42.311943,19.915699,,,,,,,
1558974888.062005,-1.431314,1.470334,-0.478535,-0.061293,0.159248,-0.037707,-0.099320,-0.994958,-0.013944,-0.002182,0.006371,0.017896,-10.126820,-42.313408,19.920227,,,,,,,
1558974888.081974,-1.418718,1.470539,-0.487165,-0.095189,0.208044,-0.039398,-0.098934,-0.994978,-0.015163,-0.004795,0.005782,0.011974,-10.188784,-42.335938,19.840599,,,,,,,
1558974888.101989,-1.410560,1.471269,-0.493990,-0.055563,-0.019341,0.015041,-0.098090,-0.995051,-0.015854,0.010261,0.005778,0.010406,-10.214514,-42.355297,19.785988,,,,,,,
1558974888.121963,-1.415329,1.470579,-0.491460,0.017498,-0.132810,0.025758,-0.098843,-0.994982,-0.015492,-0.012271,0.000430,0.007939,-10.199478,-42.351944,19.800915,,,,,,,
1558974888.141972,-1.421724,1.469699,-0.486763,-0.015144,-0.049217,-0.028980,-0.099806,-0.994894,-0.014990,-0.012163,0.002783,-0.003290,-10.181311,-42.334156,19.848246,,,,,,,
1558974888.161962,-1.419821,1.470267,-0.489619,-0.015136,-0.056649,-0.050402,-0.099219,-0.994951,-0.015094,-0.008981,0.002993,0.006107,-10.164219,-42.336113,19.852833,,,,,,,
1558974888.181933,-1.418625,1.471260,-0.492753,-0.048364,-0.131538,-0.060753,-0.098224,-0.995050,-0.015063,-0.002866,-0.003729,0.026141,-10.129330,-42.345028,19.851641,,,,,,,
1558974888.201921,-1.416073,1.472244,-0.499818,-0.117953,-0.255907,-0.064132,-0.097217,-0.995148,-0.015163,-0.003308,-0.020966,-0.005146,-9.968948,-42.357487,19.906187,,,,,,,
1558974888.221915,-1.392579,1.473197,-0.528759,-0.082842,-0.265622,-0.075942,-0.095901,-0.995241,-0.017274,-0.005646,-0.031111,-0.020689,-9.847715,-42.405251,19.864788,,,,,,,
1558974888.241879,-1.372251,1.474228,-0.553873,-0.095430,-0.213780,-0.088267,-0.094524,-0.995341,-0.019018,-0.019779,-0.046834,-0.014399,-9.724471,-42.452702,19.824110,,,,,,,
1558974888.261899,-1.332308,1.475380,-0.596108,-0.243841,-0.036513,-0.111245,-0.092575,-0.995451,-0.022506,-0.031281,-0.077745,-0.037506,-9.512203,-42.562099,19.692087,,,,,,,
1558974888.281871,-1.263057,1.476097,-0.665843,-0.328902,-0.016013,-0.131403,-0.090115,-0.995519,-0.028642,-0.027026,-0.113306,-0.098723,-9.484954,-42.591339,19.641951,,,,,,,
1558974888.301877,-1.194520,1.477369,-0.736220,-0.255683,-0.117976,-0.201717,-0.086764,-0.995639,-0.034281,-0.036161,-0.143964,-0.136999,-9.302230,-42.809574,19.251022,,,,,,,
1558974888.321872,-1.140077,1.480568,-0.793664,-0.133219,-0.135637,-0.272253,-0.081875,-0.995932,-0.037621,-0.035739,-0.164453,-0.144065,-9.004066,-42.967686,19.039364,,,,,,,
1558974888.341861,-1.091534,1.484601,-0.845263,-0.126862,-0.150488,-0.285202,-0.076390,-0.996287,-0.039698,-0.044719,-0.179707,-0.152273,-8.932712,-42.992546,19.016832,,,,,,,
1558974888.361851,-1.021904,1.488545,-0.917005,-0.187014,-0.022375,-0.353421,-0.070090,-0.996619,-0.042865,-0.064676,-0.179147,-0.203366,-8.482061,-43.140018,18.888767,,,,,,,
1558974888.381845,-0.919361,1.493495,-1.017157,-0.177511,0.223702,-0.480230,-0.061409,-0.997014,-0.046823,-0.065742,-0.170970,-0.224295,-8.325548,-43.202641,18.815136,,,,,,,
1558974888.401832,-0.798336,1.500514,-1.133894,-0.042250,0.199587,-0.580711,-0.050295,-0.997531,-0.049010,-0.042555,-0.119824,-0.259797,-7.824174,-43.409908,18.551407,,,,,,,
1558974888.421824,-0.667259,1.509767,-1.262995,0.133072,0.072783,-0.646911,-0.037744,-0.998138,-0.047910,-0.044028,-0.101761,-0.275256,-7.500824,-43.488220,18.501482,,,,,,,
1558974888.441818,-0.509952,1.521589,-1.418484,0.322884,0.148864,-0.702616,-0.024010,-0.998790,-0.042929,-0.026756,-0.035161,-0.315149,-6.697789,-43.540691,18.685305,,,,,,,
1558974888.461797,-0.298376,1.535349,-1.625404,0.540399,0.286280,-0.641339,-0.010418,-0.999372,-0.033874,0.002697,0.002256,-0.304490,-6.298515,-43.502480,18.911789,,,,,,,
1558974888.481798,0.089335,1.548993,-2.006161,0.619506,0.405363,-0.603836,0.001945,-0.999762,-0.021715,-0.007942,0.019828,-0.280623,-5.861868,-43.366730,19.358673,,,,,,,
1558974888.501791,0.977321,1.552979,-2.883938,0.562718,0.595856,-0.649034,0.014767,-0.999841,-0.009962,-0.006146,0.076166,-0.271868,-5.587455,-43.238415,19.723387,,,,,,,
1558974888.521758,1.637335,1.542843,2.753007,0.610027,0.739361,-0.648691,0.027888,-0.999609,0.001858,0.012502,0.110586,-0.286313,-5.186413,-43.040997,20.257513,,,,,,,
1558974888.541745,1.962322,1.527466,2.443385,0.772982,0.794618,-0.587175,0.040039,-0.999061,0.016530,0.020935,0.158012,-0.270024,-4.941657,-42.847885,20.722736,,,,,,,
1558974888.561765,2.181832,1.510441,2.239904,0.909088,0.822681,-0.426651,0.049404,-0.998179,0.034606,0.037479,0.188594,-0.239394,-4.782795,-42.485054,21.492729,,,,,,,
1558974888.581754,2.339112,1.493137,2.100509,0.904168,0.987739,-0.333257,0.055788,-0.996986,0.053914,0.009337,0.202461,-0.216801,-4.807979,-42.213345,22.016106,,,,,,,
1558974888.601730,2.438057,1.477086,2.023764,0.755768,1.195748,-0.296153,0.060534,-0.995612,0.071355,0.001493,0.215064,-0.230092,-4.927042,-41.937767,22.510895,,,,,,,
1558974888.621738,2.521635,1.462244,1.965707,0.827389,1.345659,-0.167611,0.062945,-0.994114,0.088177,-0.020953,0.229649,-0.283627,-5.212161,-41.614285,23.040768,,,,,,,
1558974888.641728,2.632048,1.443773,1.882935,1.152239,1.456175,-0.046716,0.061793,-0.991943,0.110590,-0.080485,0.232574,-0.231882,-5.820703,-41.140831,23.734871,,,,,,,
1558974888.661690,2.735260,1.422221,1.807956,1.162681,1.410720,-0.011911,0.058508,-0.988983,0.135977,-0.107580,0.251129,-0.153265,-6.315129,-40.732349,24.306126,,,,,,,
1558974888.681706,2.801581,1.403068,1.769132,0.928658,1.416033,-0.109203,0.055675,-0.985967,0.157386,-0.120754,0.253957,-0.247428,-7.334080,-39.911037,25.359667,,,,,,,
1558974888.701701,2.857963,1.381411,1.742855,1.312427,1.602221,-0.070814,0.052682,-0.982120,0.180734,-0.162545,0.247669,-0.151513,-7.998503,-39.413231,25.930948,,,,,,,
1558974888.721671,2.927563,1.350046,1.705226,1.701041,1.652059,-0.012373,0.046507,-0.975733,0.213966,-0.167723,0.250788,-0.061134,-8.613575,-38.841583,26.588161,,,,,,,
1558974888.741663,2.978331,1.320018,1.687362,1.325570,1.690864,-0.122270,0.040335,-0.968719,0.244859,-0.156516,0.308182,0.050552,-9.701532,-37.748631,27.761740,,,,,,,
1558974888.761674,3.010250,1.300825,1.690137,0.754362,1.780416,-0.206214,0.034929,-0.963779,0.264406,-0.115450,0.300159,-0.109514,-10.541597,-37.171494,28.230253,,,,,,,
1558974888.781648,3.043581,1.282724,1.694342,1.091962,1.868618,-0.118620,0.027801,-0.958793,0.282741,-0.106384,0.301277,-0.159206,-10.978703,-36.982430,28.311840,,,,,,,
1558974888.801651,3.087789,1.254565,1.687029,1.543072,1.888739,0.079448,0.016724,-0.950414,0.310537,-0.135422,0.345708,0.063197,-12.482740,-36.019894,28.923018,,,,,,,
1558974888.821647,3.139081,1.225583,1.675208,1.304086,2.088847,0.169787,0.000850,-0.941003,0.338396,-0.132305,0.414209,0.158811,-13.716010,-35.101955,29.487549,,,,,,,
1558974888.841612,-3.092638,1.207363,1.666854,0.689199,2.209417,0.176854,-0.017396,-0.934682,0.355060,-0.088806,0.408467,0.108090,-14.747933,-34.560768,29.628445,,,,,,,
1558974888.861632,-3.039665,1.195444,1.656400,0.610021,2.132824,0.279619,-0.037302,-0.930379,0.364698,-0.085714,0.417409,0.085025,-16.529522,-34.008160,29.325985,,,,,,,
1558974888.881620,-2.982947,1.180461,1.641480,0.698264,2.165341,0.423066,-0.060112,-0.924782,0.375720,-0.060906,0.446022,0.151913,-18.004276,-33.491875,29.050522,,,,,,,
1558974888.901611,-2.914772,1.170746,1.618191,0.134729,2.442336,0.602495,-0.087583,-0.921041,0.379489,-0.027621,0.448034,0.112454,-19.201502,-33.101799,28.729181,,,,,,,
1558974888.921603,-2.826673,1.170806,1.578626,-0.314173,2.636338,0.820725,-0.120616,-0.921065,0.370259,-0.019200,0.384184,-0.045277,-21.505405,-32.773254,27.444920,,,,,,,
1558974888.941567,-2.734557,1.166127,1.533229,0.119136,2.405987,0.982217,-0.155867,-0.919233,0.361547,-0.078874,0.408460,-0.051229,-22.976128,-32.591942,26.451002,,,,,,,
1558974888.961584,-2.657744,1.148629,1.495584,0.602893,1.955436,1.092530,-0.190606,-0.912203,0.362705,-0.105476,0.464205,0.068768,-24.834953,-32.013252,25.459175,,,,,,,
1558974888.981578,-2.590612,1.127525,1.461926,0.509566,1.779543,1.184725,-0.224537,-0.903353,0.365425,-0.056484,0.385836,0.172706,-26.900629,-30.934372,24.682243,,,,,,,
1558974889.001563,-2.520423,1.106923,1.421318,0.261800,1.637426,1.409507,-0.260390,-0.894326,0.363837,-0.075349,0.373116,0.264962,-28.101524,-30.259499,24.175602,,,,,,,
1558974889.021558,-2.441886,1.085968,1.368688,-0.036857,1.578091,1.679882,-0.300137,-0.884755,0.356547,-0.078723,0.369603,0.298512,-29.321220,-29.556734,23.589371,,,,,,,
1558974889.041550,-2.350674,1.067456,1.303894,-0.586573,1.815793,1.785279,-0.342954,-0.875976,0.339188,-0.146152,0.388107,0.303558,-31.891283,-28.086792,21.997068,,,,,,,
1558974889.061529,-2.246732,1.051644,1.228128,-0.936782,1.840963,1.836486,-0.387053,-0.868240,0.310402,-0.176469,0.285491,0.283623,-33.244064,-27.437517,20.779980,,,,,,,
1558974889.081528,-2.158946,1.030117,1.160432,-0.597328,1.197701,1.922419,-0.428230,-0.857359,0.285578,-0.178231,0.239546,0.341147,-34.541870,-26.780474,19.479677,,,,,,,
1558974889.101523,-2.095371,1.002868,1.101957,-0.676546,0.441383,1.980243,-0.465561,-0.843017,0.269398,-0.250458,0.170745,0.525783,-36.648354,-25.068863,17.839361,,,,,,,
1558974889.121496,-2.030892,0.978535,1.033758,-1.359820,0.455465,1.927516,-0.500188,-0.829680,0.247877,-0.330684,0.209670,0.529040,-33.645966,-29.059507,22.352543,,,,,,,
1558974889.141503,-1.944494,0.957916,0.948646,-1.994580,1.014826,1.952646,-0.535526,-0.817994,0.209993,-0.308285,0.203264,0.531905,-34.632248,-28.519194,21.526836,,,,,,,
1558974889.161498,-1.849624,0.932519,0.857003,-2.186822,0.894516,2.111488,-0.572802,-0.803123,0.163985,-0.295347,0.081383,0.520540,-36.116203,-27.937473,19.780283,,,,,,,
1558974889.181463,-1.774094,0.902138,0.769718,-2.242231,-0.106226,2.082647,-0.607167,-0.784654,0.125164,-0.396587,0.002458,0.421955,-38.247314,-26.798876,17.178621,,,,,,,
1558974889.201476,-1.723903,0.870534,0.689174,-2.209178,-0.794702,1.956507,-0.636880,-0.764673,0.098280,-0.436850,0.004206,0.407168,-38.975544,-26.175488,16.489164,,,,,,,
1558974889.221450,-1.676776,0.838754,0.610569,-2.496247,-0.397972,1.888542,-0.664640,-0.743811,0.070704,-0.466067,0.085058,0.441351,-39.933647,-25.177357,15.733616,,,,,,,
1558974889.241460,-1.618401,0.806589,0.525191,-2.914953,-0.226787,1.796960,-0.691181,-0.721931,0.032928,-0.401287,-0.001870,0.362793,-40.774120,-24.496246,14.613248,,,,,,,
1558974889.261441,-1.575655,0.774300,0.442917,-2.741382,-1.265968,1.606720,-0.714902,-0.699216,0.003474,-0.388079,-0.126087,0.311300,-41.164463,-24.186077,14.023640,,,,,,,
1558974889.281418,-1.570420,0.745034,0.376289,-2.220960,-2.370436,1.387306,-0.735065,-0.677997,-0.000276,-0.516187,-0.215298,0.265077,-41.699955,-23.320152,13.907763,,,,,,,
1558974889.301433,-1.575487,0.718482,0.317127,-2.294166,-2.005488,1.316005,-0.752797,-0.658243,0.003531,-0.561229,-0.186087,0.349343,-41.656456,-22.819752,14.837132,,,,,,,
1558974889.321409,-1.563982,0.694180,0.248288,-2.797959,-1.527448,1.139745,-0.768561,-0.639755,-0.005237,-0.536096,-0.182586,0.344379,-41.664204,-22.631668,15.101109,,,,,,,
1558974889.341409,-1.552898,0.673457,0.175642,-2.780030,-2.006711,0.909898,-0.781545,-0.623692,-0.013990,-0.542078,-0.334286,0.236173,-41.673676,-22.504320,15.264405,,,,,,,
1558974889.361407,-1.563524,0.658493,0.109858,-2.519323,-2.836226,0.571197,-0.790894,-0.611926,-0.005752,-0.621444,-0.436307,0.218078,-41.298264,-22.672432,16.017372,,,,,,,
1558974889.381376,-1.583303,0.652967,0.044679,-2.692566,-2.958594,0.124678,-0.794223,-0.607546,0.009934,-0.668912,-0.435331,0.171799,-40.944061,-22.871946,16.631292,,,,,,,
1558974889.401391,-1.587924,0.655727,-0.030833,-3.180387,-2.230351,-0.225324,-0.792489,-0.609735,0.013575,-0.682960,-0.373861,-0.019404,-39.538239,-24.215015,18.069378,,,,,,,
1558974889.421380,-1.576506,0.666094,-0.113148,-3.241547,-1.914585,-0.629125,-0.786228,-0.617920,0.004489,-0.631389,-0.343613,-0.120029,-39.309155,-24.546926,18.121277,,,,,,,
1558974889.441369,-1.573714,0.684497,-0.191504,-2.906784,-2.617836,-1.094676,-0.774734,-0.632284,0.002261,-0.610764,-0.317805,-0.267199,-37.771019,-26.965372,17.954401,,,,,,,
1558974889.461363,-1.589013,0.712817,-0.259321,-2.466744,-3.026723,-1.553055,-0.756397,-0.653967,0.013781,-0.532131,-0.293573,-0.381685,-35.660969,-29.344862,18.528790,,,,,,,
1558974889.481338,-1.604863,0.748274,-0.320204,-2.250076,-2.625461,-1.767909,-0.732439,-0.680375,0.024961,-0.450392,-0.278549,-0.441755,-35.149834,-29.848991,18.699434,,,,,,,
1558974889.501328,-1.609924,0.785956,-0.378035,-2.103455,-2.099961,-1.849241,-0.706172,-0.707501,0.027645,-0.438634,-0.212207,-0.511425,-31.986830,-32.893532,19.261368,,,,,,,
1558974889.521334,-1.608926,0.827413,-0.433571,-1.908671,-1.898420,-2.105527,-0.676291,-0.736183,0.025799,-0.433206,-0.153191,-0.638897,-29.378778,-35.348057,19.066830,,,,,,,
1558974889.541296,-1.611961,0.874076,-0.478398,-1.318206,-1.790921,-2.363463,-0.641162,-0.766951,0.026408,-0.382062,-0.136324,-0.663692,-27.666210,-36.789608,18.900978,,,,,,,
1558974889.561305,-1.625888,0.924062,-0.505409,-0.816368,-1.707070,-2.489309,-0.601669,-0.798056,0.033181,-0.365936,-0.099497,-0.605462,-25.831530,-38.110046,18.881159,,,,,,,
1558974889.581284,-1.639100,0.975290,-0.527052,-0.807851,-1.404882,-2.537657,-0.559620,-0.827865,0.038283,-0.283749,-0.032670,-0.524001,-21.947330,-40.374557,19.087999,,,,,,,
1558974889.601285,-1.642511,1.027056,-0.549566,-0.732950,-0.961323,-2.532284,-0.516011,-0.855779,0.037069,-0.212337,0.010809,-0.529882,-19.393042,-41.731560,18.934864,,,,,,,
1558974889.621289,-1.646742,1.077259,-0.564840,-0.481550,-0.862085,-2.436112,-0.472378,-0.880663,0.035944,-0.206272,0.036318,-0.494608,-18.157297,-42.336758,18.816315,,,,,,,
1558974889.641283,-1.647343,1.125416,-0.580184,-0.578576,-0.546455,-2.348825,-0.429539,-0.902447,0.032944,-0.198802,0.095562,-0.429657,-14.559088,-43.817043,18.553741,,,,,,,
1558974889.661273,-1.631466,1.172095,-0.601499,-0.531173,-0.020214,-2.282894,-0.387508,-0.921566,0.023539,-0.160283,0.122433,-0.445978,-12.403132,-44.665905,18.090347,,,,,,,
1558974889.681262,-1.620244,1.217010,-0.613130,-0.162917,-0.012559,-2.231280,-0.346029,-0.938067,0.017124,-0.158915,0.137363,-0.427769,-11.384581,-45.024139,17.870646,,,,,,,
1558974889.701256,-1.591408,1.256863,-0.641192,0.021989,-0.077951,-2.200806,-0.308736,-0.951126,0.006364,-0.089915,0.179230,-0.310396,-8.624205,-45.905571,17.159351,,,,,,,
1558974889.721246,-1.600073,1.300147,-0.632093,0.132051,0.080121,-2.134079,-0.267243,-0.963597,0.007826,-0.058700,0.221517,-0.280638,-6.604267,-46.223598,17.201876,,,,,,,
1558974889.741235,-1.616346,1.340709,-0.611301,0.162119,0.230288,-1.979944,-0.227825,-0.973647,0.010385,-0.065922,0.238783,-0.238732,-5.644834,-46.326870,17.265533,,,,,,,
1558974889.761215,-1.616519,1.379258,-0.603674,-0.119248,0.482385,-1.908359,-0.190170,-0.981713,0.008701,-0.045029,0.290352,-0.160313,-3.031304,-46.528484,17.379684,,,,,,,
1558974889.781219,-1.587727,1.416707,-0.619691,-0.195125,0.746080,-1.840770,-0.153458,-0.988152,0.002598,-0.009018,0.323097,-0.174305,-1.852940,-46.640793,17.243681,,,,,,,
1558974889.801206,-1.564337,1.451432,-0.626471,0.030660,0.861427,-1.664391,-0.119078,-0.992885,-0.000769,0.005019,0.368007,-0.130334,-0.758349,-46.724403,17.099611,,,,,,,
1558974889.821182,-1.550645,1.482545,-0.621110,0.016043,1.024532,-1.497356,-0.088119,-0.996108,-0.001776,0.058944,0.421920,-0.040811,1.091125,-46.707081,17.128923,,,,,,,
1558974889.841192,-1.493851,1.510337,-0.656175,-0.073511,1.058015,-1.332690,-0.060244,-0.998173,-0.004645,0.067842,0.434345,-0.035135,2.060504,-46.675537,17.125721,,,,,,,
1558974889.861172,-1.477631,1.534310,-0.656195,0.241946,0.627551,-1.103810,-0.036319,-0.999334,-0.003394,0.083927,0.455511,-0.009317,2.495738,-46.654293,17.125706,,,,,,,
1558974889.881150,-1.879818,1.553198,-0.246551,0.537469,0.264772,-0.921275,-0.016766,-0.999845,0.005352,0.067837,0.435438,0.084049,3.706719,-46.407818,17.570328,,,,,,,
1558974889.901160,3.108837,1.554763,1.053368,0.508654,0.279844,-0.838945,0.000525,-0.999871,0.016023,0.062051,0.417962,0.101409,4.262174,-46.208576,17.965040,,,,,,,
1558974889.921140,2.573841,1.541400,1.594198,0.403054,0.267889,-0.721703,0.015804,-0.999568,0.024779,0.096317,0.379085,0.138704,4.919509,-45.954327,18.442896,,,,,,,
1558974889.941149,2.428199,1.527634,1.742809,0.382968,0.056821,-0.567863,0.028237,-0.999069,0.032627,0.108955,0.334136,0.161556,5.601196,-45.677898,18.928774,,,,,,,
1558974889.961128,2.373694,1.516116,1.796598,0.300353,-0.083141,-0.442219,0.037963,-0.998505,0.039316,0.090913,0.277879,0.164816,5.725327,-45.625526,19.017723,,,,,,,
1558974889.981127,2.344616,1.507864,1.824549,0.198180,-0.009447,-0.292125,0.044982,-0.998020,0.043952,0.081193,0.185826,0.147286,6.375525,-45.364292,19.431301,,,,,,,
1558974890.001113,2.329497,1.502860,1.841969,0.084771,0.187910,-0.186765,0.049265,-0.997693,0.046703,0.066610,0.129026,0.156926,6.652813,-45.236969,19.634108,,,,,,,
1558974890.021094,2.304329,1.500982,1.872514,-0.080006,0.285064,-0.119773,0.051817,-0.997564,0.046702,0.050311,0.084356,0.138646,6.700069,-45.205105,19.691353,,,,,,,
1558974890.041100,2.247194,1.501713,1.935114,-0.248372,0.234165,-0.112922,0.053831,-0.997615,0.043211,0.028231,0.059352,0.097170,6.695024,-45.230545,19.634567,,,,,,,
1558974890.061095,2.152713,1.503432,2.032565,-0.343585,0.080309,-0.134756,0.056235,-0.997732,0.036997,0.015939,0.055929,0.076375,6.697043,-45.268002,19.547365,,,,,,,
1558974890.081062,2.095095,1.501165,2.089913,-0.234552,-0.097805,-0.107547,0.060230,-0.997577,0.034830,0.016995,0.038135,0.008566,6.913052,-45.370087,19.232956,,,,,,,
1558974890.101073,2.036380,1.501547,2.145593,-0.163525,-0.166819,-0.063310,0.061828,-0.997603,0.031064,0.005936,0.040862,0.006702,6.980428,-45.405220,19.125435,,,,,,,
1558974890.121068,1.964146,1.503920,2.216073,-0.208824,-0.030259,-0.086591,0.061723,-0.997765,0.025613,-0.020280,0.029442,-0.017618,7.155174,-45.489937,18.857641,,,,,,,
1558974890.141027,1.903894,1.503382,2.277440,-0.146754,0.065588,-0.096300,0.063661,-0.997729,0.022026,-0.017351,0.035692,-0.010643,7.143205,-45.579979,18.643541,,,,,,,
1558974890.161046,1.874745,1.502110,2.306459,-0.038633,-0.070268,-0.090040,0.065486,-0.997642,0.020541,-0.017208,0.036857,0.005597,7.212371,-45.614708,18.531647,,,,,,,
1558974890.181041,1.854061,1.500290,2.324883,-0.042965,-0.106227,-0.119215,0.067640,-0.997515,0.019689,-0.016172,0.029086,-0.003332,7.293555,-45.616322,18.495886,,,,,,,
1558974890.201025,1.836001,1.498163,2.342259,-0.012843,-0.005957,-0.110757,0.070033,-0.997363,0.019021,0.015829,0.031635,-0.020669,7.468249,-45.613068,18.434084,,,,,,,
1558974890.221020,1.834935,1.496871,2.343168,0.019983,-0.023987,-0.035101,0.071296,-0.997269,0.019283,0.033517,0.020172,-0.002315,7.561418,-45.600555,18.427042,,,,,,,
1558974890.241014,1.829431,1.496413,2.347740,-0.028011,-0.051214,-0.033264,0.071843,-0.997235,0.019007,0.022441,-0.010425,-0.023951,7.613511,-45.592014,18.426725,,,,,,,
1558974890.260993,1.815711,1.495532,2.361108,-0.038409,0.009042,-0.065793,0.072949,-0.997169,0.018232,0.027042,-0.051995,-0.076628,7.669036,-45.597660,18.389704,,,,,,,
1558974890.280993,1.726678,1.494134,2.450689,0.007497,0.058488,-0.063164,0.075658,-0.997063,0.011890,0.021525,-0.070991,-0.075000,7.709894,-45.597790,18.372284,,,,,,,
1558974890.300987,1.728275,1.492642,2.451510,-0.002768,0.164211,-0.084581,0.077109,-0.996947,0.012244,0.000085,-0.089829,-0.083289,7.821809,-45.682354,18.113089,,,,,,,
1558974890.320976,1.613800,1.492819,2.570265,-0.055679,0.253224,-0.124349,0.077826,-0.996961,0.003349,-0.012564,-0.105837,-0.121482,7.836619,-45.675663,18.123552,,,,,,,
1558974890.340961,1.605804,1.489645,2.584054,-0.025615,0.303711,-0.185765,0.081013,-0.996709,0.002837,-0.024082,-0.106273,-0.133407,7.808091,-45.838322,17.720732,,,,,,,
1558974890.360940,1.612724,1.485109,2.583037,0.025547,0.292770,-0.254159,0.085508,-0.996331,0.003587,-0.023755,-0.073692,-0.138429,7.906203,-45.802933,17.768667,,,,,,,
1558974890.380949,1.526603,1.479282,2.674817,0.040653,0.322147,-0.352100,0.091298,-0.995816,-0.004037,-0.006230,-0.046848,-0.158194,8.066701,-45.746067,17.842861,,,,,,,
1558974890.400938,1.552076,1.471382,2.656602,0.106976,0.390405,-0.418655,0.099234,-0.995062,-0.001858,0.005976,-0.039987,-0.171238,8.167209,-45.867664,17.481306,,,,,,,
1558974890.420922,1.597272,1.462727,2.619510,0.242365,0.447846,-0.428659,0.107822,-0.994166,0.002855,0.027005,-0.008443,-0.153933,8.537157,-45.693764,17.757792,,,,,,,
1558974890.440922,1.650296,1.454651,2.576687,0.251138,0.556772,-0.361415,0.115519,-0.993263,0.009203,0.024526,-0.011468,-0.134203,8.730860,-45.530834,18.079187,,,,,,,
1558974890.460905,1.688592,1.447624,2.550393,0.150270,0.647187,-0.335007,0.122010,-0.992424,0.014439,0.008209,-0.016960,-0.141240,8.788361,-45.456314,18.238146,,,,,,,
1558974890.480880,1.703130,1.440162,2.549962,0.125124,0.745537,-0.391740,0.129125,-0.991479,0.017188,0.010310,-0.014502,-0.188483,8.897546,-45.308762,18.549713,,,,,,,
1558974890.500896,1.732975,1.431842,2.535743,0.182835,0.814996,-0.392097,0.136690,-0.990361,0.022365,-0.007402,-0.001796,-0.196879,8.969249,-45.185040,18.815062,,,,,,,
1558974890.520879,1.757750,1.424300,2.528329,0.290718,0.944486,-0.363014,0.143430,-0.989289,0.027132,-0.027692,0.011032,-0.196443,8.987906,-45.126457,18.946306,,,,,,,
1558974890.540879,1.808125,1.415705,2.498115,0.306067,1.069096,-0.387433,0.150140,-0.987997,0.036317,-0.039255,0.043845,-0.213685,8.930698,-44.899979,19.503225,,,,,,,
1558974890.560869,1.851808,1.406218,2.477060,0.315061,1.194769,-0.431064,0.157410,-0.986488,0.045437,-0.039246,0.070808,-0.251873,2.411790,-42.685360,23.950619,,,,,,,
1558974890.580858,1.911230,1.395591,2.442459,0.525081,1.304696,-0.401017,0.164307,-0.984691,0.058202,-0.045563,0.102244,-0.228352,2.242750,-42.539970,24.224161,,,,,,,
1558974890.600853,1.986809,1.383786,2.393348,0.678669,1.405390,-0.381781,0.170064,-0.982565,0.075134,-0.052938,0.139120,-0.204452,1.845925,-42.171894,24.892031,,,,,,,
1558974890.620820,2.067146,1.370419,2.341354,0.785410,1.496797,-0.376550,0.175020,-0.979992,0.094786,-0.039873,0.193218,-0.208098,1.546673,-41.897011,25.371979,,,,,,,
1558974890.640831,2.150367,1.355399,2.286982,0.919459,1.492985,-0.333773,0.178833,-0.976891,0.117056,-0.023162,0.210351,-0.218878,1.207812,-41.587048,25.894936,,,,,,,
1558974890.660825,2.238634,1.338888,2.226838,1.087487,1.483774,-0.247247,0.180458,-0.973229,0.142335,-0.013100,0.270410,-0.178254,0.422237,-40.829384,27.097446,,,,,,,
1558974890.680793,2.333260,1.321250,2.161020,1.207844,1.576391,-0.091456,0.178589,-0.969024,0.170579,-0.056412,0.321197,-0.127718,-0.068262,-40.366112,27.785995,,,,,,,
1558974890.700804,2.430356,1.304188,2.095204,1.154875,1.735487,0.087254,0.171980,-0.964670,0.199586,-0.090864,0.331552,-0.117708,-0.679431,-39.858189,28.501795,,,,,,,
1558974890.720799,2.518951,1.290110,2.041481,0.915913,1.928146,0.144424,0.161551,-0.960865,0.225031,-0.144079,0.336079,-0.131342,-2.317960,-38.883720,29.735031,,,,,,,
1558974890.740760,2.601608,1.275990,1.997046,1.015267,2.036496,0.144473,0.149381,-0.956858,0.249214,-0.153730,0.334620,-0.153907,-3.281199,-38.472553,30.175907,,,,,,,
1558974890.760777,2.692199,1.255547,1.944760,1.416340,2.011287,0.247047,0.134694,-0.950719,0.279269,-0.165837,0.329274,-0.130740,-4.293934,-37.997753,30.646725,,,,,,,
1558974890.780772,2.779967,1.232047,1.893351,1.313783,1.932657,0.318812,0.117569,-0.943171,0.310815,-0.200348,0.340159,0.010840,-5.722148,-37.131142,31.464645,,,,,,,
1558974890.800741,2.852031,1.215083,1.858407,0.800992,1.994457,0.260272,0.099439,-0.937398,0.333761,-0.226499,0.283941,-0.083196,-7.922334,-35.896008,32.406826,,,,,,,
1558974890.820738,2.914191,1.201146,1.835856,0.873793,2.088042,0.188626,0.081451,-0.932454,0.351988,-0.226501,0.278279,-0.107008,-9.032612,-35.499931,32.552349,,,,,,,
1558974890.840745,2.979797,1.179737,1.811518,1.256120,2.185533,0.283819,0.061402,-0.924506,0.376190,-0.213609,0.288733,-0.013122,-10.157487,-35.041000,32.717617,,,,,,,
1558974890.860724,3.048221,1.157914,1.785072,0.993077,2.215667,0.426961,0.037411,-0.915968,0.399503,-0.194149,0.321898,0.049502,-12.628749,-33.756184,33.204266,,,,,,,
1558974890.880703,3.115416,1.145305,1.761006,0.528099,2.283667,0.441119,0.010803,-0.910836,0.412627,-0.206253,0.287438,-0.012892,-13.964340,-33.249123,33.181057,,,,,,,
1558974890.900712,-3.104790,1.132536,1.742152,0.773136,2.325649,0.395808,-0.015614,-0.905491,0.424077,-0.219539,0.313069,0.012324,-16.190666,-32.616394,32.795151,,,,,,,
1558974890.920707,-3.040554,1.111915,1.723042,1.056135,2.346580,0.544638,-0.044679,-0.896548,0.440687,-0.144607,0.344669,0.155032,-18.012785,-31.855730,32.592033,,,,,,,
1558974890.940671,-2.971037,1.095148,1.697842,0.483155,2.349886,0.742793,-0.077722,-0.888996,0.451271,-0.100425,0.351276,0.154656,-18.956951,-31.417847,32.481407,,,,,,,
1558974890.960679,-2.893734,1.087567,1.664783,0.200058,2.422374,0.863904,-0.113990,-0.885499,0.450442,-0.182290,0.332475,0.015867,-21.937281,-30.522800,31.442066,,,,,,,
1558974890.980680,-2.818276,1.072397,1.633168,0.726520,2.340518,0.989525,-0.151873,-0.878349,0.453252,-0.184247,0.378532,0.133433,-23.967510,-29.871233,30.573795,,,,,,,
1558974891.000667,-2.746914,1.049784,1.603448,0.744122,2.250777,1.122136,-0.191394,-0.867316,0.459491,-0.126584,0.370871,0.211759,-24.972128,-29.390833,30.233435,,,,,,,
1558974891.020646,-2.671545,1.031928,1.567820,0.233951,2.216631,1.235638,-0.232427,-0.858290,0.457511,-0.085886,0.374907,0.321649,-27.947330,-27.909443,29.008596,,,,,,,
1558974891.040654,-2.593953,1.019172,1.524415,-0.107929,1.877139,1.320730,-0.272870,-0.851674,0.447429,-0.106067,0.387654,0.329579,-29.846684,-27.120457,27.841433,,,,,,,
1558974891.060643,-2.517115,1.009725,1.474571,-0.491861,1.683689,1.374088,-0.311101,-0.846686,0.431671,-0.091899,0.381369,0.299561,-30.710789,-26.759144,27.244894,,,,,,,
1558974891.080637,-2.428062,1.003056,1.413522,-0.871168,1.998878,1.589263,-0.351947,-0.843118,0.406552,-0.066815,0.291910,0.227359,-33.210968,-25.836277,25.119858,,,,,,,
1558974891.100627,-2.331853,0.989855,1.345800,-0.668709,1.889435,1.920416,-0.397398,-0.835946,0.378508,-0.139269,0.191980,0.339418,-35.045170,-25.081291,23.329262,,,,,,,
1558974891.120600,-2.248080,0.964889,1.282517,-0.492032,1.358292,2.193062,-0.443805,-0.821985,0.356899,-0.177716,0.200678,0.434712,-35.951553,-24.526955,22.525616,,,,,,,
1558974891.140608,-2.171689,0.939210,1.215523,-1.087152,0.987153,2.136718,-0.487001,-0.807092,0.333814,-0.356077,0.233331,0.609652,-38.333305,-22.486530,20.649521,,,,,,,
1558974891.160573,-2.083540,0.923718,1.129955,-2.131243,0.951132,1.945496,-0.525331,-0.797849,0.295744,-0.287947,0.052808,0.476168,-39.628067,-21.482166,19.225555,,,,,,,
1558974891.180581,-1.990382,0.910060,1.033668,-2.287227,0.779664,1.949068,-0.560465,-0.789541,0.250010,-0.286230,0.022191,0.413473,-40.213173,-21.125401,18.387684,,,,,,,
1558974891.200577,-1.911101,0.887994,0.948632,-1.902766,0.546271,2.025080,-0.594785,-0.775807,0.210602,-0.400957,0.099553,0.364639,-41.804947,-19.851389,16.117001,,,,,,,
1558974891.220556,-1.847729,0.861241,0.875826,-1.814172,0.254992,1.934816,-0.626673,-0.758652,0.178124,-0.364187,0.175949,0.426903,-42.718212,-18.729422,15.028368,,,,,,,
1558974891.240562,-1.798234,0.834345,0.806781,-1.944994,-0.396621,1.851603,-0.654366,-0.740857,0.151448,-0.280266,0.152463,0.448985,-43.101265,-18.176521,14.607676,,,,,,,
1558974891.260556,-1.759869,0.805272,0.734887,-2.223217,-0.770172,2.003681,-0.680566,-0.721019,0.130232,-0.255957,0.098186,0.403871,-43.892151,-16.566586,14.160365,,,,,,,
1558974891.280524,-1.712954,0.772139,0.655704,-2.615520,-0.238356,2.132304,-0.709193,-0.697669,0.101502,-0.345158,0.075294,0.359436,-44.383884,-15.415411,13.925683,,,,,,,
1558974891.300518,-1.657041,0.735888,0.574814,-2.762391,0.086896,2.117150,-0.738480,-0.671245,0.063848,-0.366119,0.068844,0.390345,-44.684044,-14.827482,13.600394,,,,,,,
1558974891.320529,-1.612236,0.700086,0.498977,-2.720500,-0.573316,1.837546,-0.764130,-0.644284,0.031684,-0.455414,0.069973,0.432504,-45.536545,-13.093000,12.509399,,,,,,,
1558974891.340519,-1.590782,0.670110,0.427936,-2.703793,-1.497814,1.446493,-0.783596,-0.621073,0.015663,-0.403980,-0.037115,0.400566,-45.724228,-12.241705,12.685606,,,,,,,
1558974891.360508,-1.583626,0.642959,0.358522,-2.772848,-1.795581,1.411558,-0.800259,-0.599566,0.010267,-0.381259,-0.094984,0.372072,-45.693092,-11.937893,13.081162,,,,,,,
1558974891.380503,-1.572546,0.615912,0.285867,-3.046111,-1.414798,1.330640,-0.816246,-0.577703,0.001428,-0.528344,-0.117441,0.338278,-45.466370,-11.194805,14.455957,,,,,,,
1558974891.400491,-1.552102,0.592420,0.206126,-3.429331,-1.238854,1.010655,-0.829447,-0.558370,-0.015508,-0.587911,-0.080271,0.277211,-45.360458,-11.020770,14.915107,,,,,,,
1558974891.420480,-1.542524,0.576794,0.125835,-3.207956,-2.125480,0.511228,-0.837880,-0.545339,-0.023695,-0.600596,-0.100290,0.163557,-45.269661,-11.107347,15.125257,,,,,,,
1558974891.440461,-1.561687,0.569885,0.061436,-2.418267,-2.971476,0.178144,-0.841928,-0.539535,-0.007670,-0.596060,-0.228776,-0.031881,-44.358116,-11.925444,17.077183,,,,,,,
1558974891.460465,-1.594235,0.569181,0.009395,-2.181664,-2.975130,-0.021351,-0.842111,-0.538943,0.019742,-0.591071,-0.262480,0.041599,-43.284439,-12.651842,19.180117,,,,,,,
1558974891.480436,-1.616557,0.574384,-0.047454,-2.559554,-2.442902,-0.274930,-0.838648,-0.543318,0.038404,-0.592931,-0.254839,0.039447,-42.704044,-13.108309,20.150078,,,,,,,
1558974891.500443,-1.625071,0.585672,-0.110977,-2.697360,-2.052495,-0.512592,-0.832114,-0.552759,0.045207,-0.498666,-0.277136,-0.126933,-41.053753,-15.123164,22.076408,,,,,,,
1558974891.520425,-1.630028,0.601481,-0.172170,-2.499659,-1.924928,-0.747163,-0.823052,-0.565864,0.048808,-0.522635,-0.331749,-0.194300,-39.971718,-16.779264,22.851841,,,,,,,
1558974891.540414,-1.636547,0.623905,-0.229310,-2.363170,-2.025565,-1.123829,-0.809849,-0.584209,0.053325,-0.542644,-0.284184,-0.223094,-39.971718,-16.779264,22.851841,,,,,,,
1558974891.560410,-1.647239,0.654197,-0.282483,-2.145868,-2.153054,-1.501755,-0.791220,-0.608522,0.060601,-0.480280,-0.258116,-0.371362,-38.050331,-19.606880,23.858564,,,,,,,
1558974891.580401,-1.659471,0.690816,-0.328665,-1.818070,-1.969136,-1.765576,-0.767698,-0.637166,0.068254,-0.440432,-0.225642,-0.372102,-35.536537,-22.827271,24.850731,,,,,,,
1558974891.600400,-1.671261,0.731784,-0.367206,-1.590409,-1.787795,-1.984661,-0.740232,-0.668198,0.074618,-0.440310,-0.175430,-0.359912,-35.536537,-22.827271,24.850731,,,,,,,
1558974891.620392,-1.680501,0.777529,-0.404133,-1.572724,-1.698399,-2.224012,-0.708365,-0.701521,0.078024,-0.345147,-0.101214,-0.395712,-32.739021,-26.033726,25.532148,,,,,,,
1558974891.640356,-1.688484,0.827672,-0.438606,-1.377299,-1.597185,-2.418266,-0.671912,-0.736358,0.079443,-0.277368,-0.081040,-0.426596,-29.570627,-29.325253,25.828205,,,,,,,
1558974891.660374,-1.700069,0.879666,-0.463700,-1.017005,-1.488230,-2.510888,-0.632090,-0.770526,0.082170,-0.281957,-0.038755,-0.411882,-29.570627,-29.325253,25.828205,,,,,,,
1558974891.680368,-1.713462,0.932884,-0.482092,-0.902445,-1.324059,-2.591434,-0.589469,-0.803341,0.084672,-0.227501,0.034832,-0.373140,-26.091505,-32.287315,26.043262,,,,,,,
1558974891.700330,-1.722389,0.987585,-0.499633,-0.843062,-1.097204,-2.652206,-0.544391,-0.834699,0.083164,-0.161267,0.070630,-0.409274,-22.461283,-34.890316,26.070015,,,,,,,
1558974891.720346,-1.733209,1.041424,-0.510844,-0.597940,-0.983196,-2.597537,-0.498346,-0.863124,0.081657,-0.154303,0.100429,-0.414390,-22.461283,-34.890316,26.070015,,,,,,,
1558974891.740341,-1.744450,1.092145,-0.515794,-0.344013,-0.753938,-2.488377,-0.453656,-0.887617,0.079580,-0.103076,0.112974,-0.332800,-17.714073,-37.649410,25.888647,,,,,,,
1558974891.760322,-1.762057,1.140424,-0.509387,-0.268843,-0.502596,-2.375943,-0.409602,-0.908810,0.079310,-0.091207,0.160489,-0.302928,-16.092964,-38.418514,25.817108,,,,,,,
1558974891.780320,-1.778171,1.187198,-0.499196,-0.276557,-0.232933,-2.318918,-0.366241,-0.927324,0.077057,-0.107590,0.199861,-0.306579,-14.026910,-39.274006,25.734928,,,,,,,
1558974891.800314,-1.792580,1.232441,-0.484667,-0.168256,0.049918,-2.224307,-0.323806,-0.943302,0.073016,-0.027375,0.208255,-0.282244,-12.564517,-39.841339,25.618145,,,,,,,
1558974891.820275,-1.818239,1.274000,-0.455225,0.025531,0.136865,-2.067443,-0.283550,-0.956278,0.071630,-0.022831,0.239405,-0.207083,-10.356083,-40.580563,25.445198,,,,,,,
1558974891.840293,-1.854620,1.312506,-0.414299,0.023342,0.161326,-1.974325,-0.245209,-0.966828,0.071527,-0.039703,0.255448,-0.177576,-8.749195,-40.959984,25.440521,,,,,,,
1558974891.860287,-1.900134,1.348680,-0.363002,0.060741,0.258550,-1.855924,-0.208455,-0.975433,0.071247,-0.016108,0.272049,-0.139835,-6.861608,-41.322338,25.433674,,,,,,,
1558974891.880279,-1.961470,1.381244,-0.293953,0.085291,0.336829,-1.729172,-0.174222,-0.982089,0.071752,-0.023532,0.285708,-0.078634,-5.517377,-41.504356,25.464407,,,,,,,
1558974891.900266,-2.033631,1.411961,-0.212521,-0.057037,0.453919,-1.681189,-0.141527,-0.987412,0.070620,-0.038175,0.310670,-0.054263,-4.590150,-41.610794,25.474726,,,,,,,
1558974891.920245,-2.121565,1.442288,-0.112442,-0.093836,0.603183,-1.659505,-0.109204,-0.991754,0.067069,-0.019398,0.339960,-0.073172,-4.000525,-41.691662,25.441896,,,,,,,
1558974891.940251,-2.282457,1.467027,0.060369,0.213185,0.475981,-1.528088,-0.078441,-0.994621,0.067649,0.001445,0.336464,-0.044684,-2.352844,-41.906174,25.294786,,,,,,,
1558974891.960215,-2.545944,1.480843,0.332811,0.413732,0.347243,-1.383960,-0.050400,-0.995957,0.074362,0.049195,0.351349,0.048029,-1.319523,-41.837837,25.482212,,,,,,,
1558974891.980237,-2.843279,1.485681,0.636953,0.289745,0.256140,-1.246137,-0.024986,-0.996380,0.081259,0.120277,0.353909,0.112040,-0.116744,-41.612427,25.882053,,,,,,,
1558974892.000223,-3.109075,1.485276,0.908779,0.179834,0.254865,-1.070076,-0.002777,-0.996345,0.085371,0.122375,0.364784,0.119554,0.731957,-41.481834,26.080837,,,,,,,
1558974892.020199,2.966605,1.480952,1.122717,0.131749,0.290297,-0.870125,0.015620,-0.995967,0.088353,0.117543,0.358592,0.118877,1.098120,-41.427269,26.154617,,,,,,,
1558974892.040195,2.821568,1.475728,1.274793,0.043307,0.356600,-0.665641,0.029862,-0.995484,0.090105,0.130523,0.328141,0.115446,1.914418,-41.296337,26.314182,,,,,,,
1558974892.060196,2.728331,1.471595,1.376732,0.008130,0.434248,-0.463141,0.039774,-0.995084,0.090701,0.123877,0.303571,0.127042,2.191767,-41.259472,26.350357,,,,,,,
1558974892.080178,2.676043,1.468595,1.437843,-0.006096,0.402895,-0.273411,0.045800,-0.994782,0.091166,0.120658,0.289139,0.144536,2.257111,-41.247448,26.363655,,,,,,,
1558974892.100173,2.642377,1.468079,1.478616,-0.109861,0.296841,-0.166677,0.049088,-0.994729,0.090022,0.078872,0.217904,0.138798,2.272709,-41.252602,26.354248,,,,,,,
1558974892.120169,2.614075,1.468747,1.511328,-0.096510,0.175302,-0.108041,0.051281,-0.994798,0.088023,0.050098,0.162461,0.137029,2.263961,-41.306343,26.270702,,,,,,,
1558974892.140135,2.596178,1.468922,1.531606,-0.052181,0.075760,-0.073726,0.052758,-0.994815,0.086943,0.030127,0.134250,0.161669,2.264588,-41.333801,26.227417,,,,,,,
1558974892.160141,2.573244,1.470418,1.554765,-0.195198,-0.029159,-0.053492,0.053937,-0.994966,0.084456,0.025134,0.108873,0.143434,2.304964,-41.383488,26.145409,,,,,,,
1558974892.180142,2.531809,1.475164,1.596109,-0.365422,0.013003,-0.023331,0.054685,-0.995431,0.078278,0.023898,0.086938,0.084366,2.354375,-41.520523,25.922810,,,,,,,
1558974892.200131,2.490206,1.475480,1.638932,-0.392968,0.066062,0.021993,0.057702,-0.995461,0.075685,0.023093,0.056664,0.042372,2.351342,-41.668789,25.684086,,,,,,,
1558974892.220127,2.456396,1.481436,1.674119,-0.289833,0.056092,0.079633,0.056474,-0.996010,0.069099,0.020170,0.035164,0.036079,2.405135,-41.764709,25.522800,,,,,,,
1558974892.240115,2.454827,1.483325,1.676529,-0.219719,0.017697,0.098541,0.055389,-0.996177,0.067555,0.006638,0.019431,0.024776,2.304951,-41.897907,25.312881,,,,,,,
1558974892.260106,2.439709,1.487275,1.690799,-0.162543,-0.092588,0.061231,0.053864,-0.996514,0.063705,-0.001648,0.009103,0.001144,2.282362,-41.900566,25.310514,,,,,,,
1558974892.280100,2.426817,1.489278,1.700737,-0.061632,-0.175624,0.022081,0.053372,-0.996679,0.061498,0.005084,-0.001825,-0.004003,2.302423,-41.991146,25.158127,,,,,,,
1558974892.300086,2.422598,1.489891,1.701492,-0.024302,-0.155744,0.016963,0.053228,-0.996729,0.060812,0.002665,-0.007498,0.009470,2.357829,-42.006790,25.126873,,,,,,,
1558974892.320079,2.413132,1.490861,1.709088,-0.079321,-0.058223,0.008244,0.053158,-0.996807,0.059585,0.007099,-0.008457,0.006928,2.406089,-42.017406,25.104527,,,,,,,
1558974892.340071,2.400021,1.492426,1.721949,-0.079143,0.002045,0.021632,0.052881,-0.996931,0.057732,0.023337,-0.019473,-0.026634,2.431389,-42.078114,25.000187,,,,,,,
1558974892.360053,2.403887,1.493134,1.718009,0.021881,-0.020656,0.039646,0.052182,-0.996986,0.057413,0.016635,-0.026986,-0.002832,2.411762,-42.099472,24.966114,,,,,,,
1558974892.380052,2.412635,1.493186,1.707968,-0.001710,-0.081869,0.019823,0.051643,-0.996990,0.057829,0.007301,-0.029423,0.019335,2.395323,-42.093876,24.977121,,,,,,,
1558974892.400046,2.402207,1.495261,1.717310,-0.146182,-0.027322,-0.060906,0.050851,-0.997149,0.055759,-0.010369,-0.046232,0.001705,2.439592,-42.114304,24.938381,,,,,,,
1558974892.420007,2.353524,1.496443,1.766874,-0.157557,0.056183,-0.100687,0.052667,-0.997237,0.052386,0.014045,-0.051255,-0.045947,2.426922,-42.181278,24.826168,,,,,,,
1558974892.440025,2.323655,1.496239,1.798156,-0.030845,0.077746,-0.079026,0.054357,-0.997222,0.050930,0.009394,-0.054856,-0.036160,2.481491,-42.244724,24.712629,,,,,,,
1558974892.460019,2.282865,1.496833,1.840823,-0.020085,0.104102,-0.109717,0.055939,-0.997266,0.048283,-0.000397,-0.067034,-0.019276,2.514600,-42.316120,24.586813,,,,,,,
1558974892.479986,2.248958,1.495404,1.876630,-0.080776,0.077925,-0.156993,0.058654,-0.997159,0.047254,0.009049,-0.084292,-0.027936,2.555766,-42.323822,24.569315,,,,,,,
1558974892.499998,2.164797,1.495517,1.962216,-0.126508,0.065390,-0.219077,0.062325,-0.997168,0.042092,0.000526,-0.088419,-0.029290,2.627217,-42.347118,24.521578,,,,,,,
1558974892.519990,2.093175,1.493007,2.036079,-0.200706,0.134398,-0.278264,0.067347,-0.996976,0.038774,0.000173,-0.099826,-0.059937,2.769907,-42.470367,24.291647,,,,,,,
1558974892.539953,1.940187,1.492695,2.193456,-0.251318,0.272024,-0.314362,0.072759,-0.996952,0.028169,-0.002538,-0.106335,-0.119158,3.006056,-42.745449,23.775612,,,,,,,
1558974892.559956,1.861602,1.488039,2.279644,-0.240117,0.426240,-0.347041,0.079192,-0.996578,0.023701,-0.013579,-0.107884,-0.134343,3.073079,-42.796249,23.675430,,,,,,,
1558974892.579941,1.804813,1.481771,2.346293,-0.169557,0.494496,-0.399714,0.086485,-0.996040,0.020617,-0.022977,-0.091195,-0.149462,3.222045,-42.922985,23.424881,,,,,,,
1558974892.599953,1.761261,1.473769,2.400445,-0.173556,0.538799,-0.475096,0.095123,-0.995297,0.018340,-0.031464,-0.075565,-0.162734,3.350136,-42.970112,23.320272,,,,,,,
1558974892.619931,1.713286,1.464099,2.460807,-0.251805,0.661706,-0.554056,0.105416,-0.994313,0.015123,-0.031075,-0.070949,-0.176378,3.432056,-42.996212,23.260176,,,,,,,
1558974892.639908,1.674473,1.453059,2.515002,-0.201244,0.801953,-0.600717,0.116834,-0.993077,0.012157,-0.002943,-0.037792,-0.213893,3.682577,-43.102039,23.024801,,,,,,,
1558974892.659926,1.664839,1.441152,2.542081,-0.047662,0.887808,-0.609381,0.128710,-0.991608,0.012140,0.008970,-0.014404,-0.207468,3.819214,-43.123589,22.962107,,,,,,,
1558974892.679899,1.675812,1.429043,2.549385,0.037637,0.932818,-0.604612,0.140501,-0.989970,0.014809,-0.003248,-0.009893,-0.200234,3.877000,-43.107552,22.982529,,,,,,,
1558974892.699912,1.696130,1.417256,2.548776,0.080439,1.015087,-0.572828,0.151739,-0.988236,0.019118,-0.008214,0.023438,-0.174132,3.995131,-43.005783,23.152336,,,,,,,
1558974892.719899,1.711067,1.406026,2.555812,-0.036184,1.161579,-0.565114,0.162415,-0.986456,0.022933,-0.026688,0.046057,-0.182494,3.990472,-42.938206,23.278225,,,,,,,
1558974892.739877,1.714562,1.395056,2.579055,-0.151330,1.425365,-0.575493,0.173033,-0.984597,0.025049,-0.038191,0.055032,-0.197550,3.956244,-42.928833,23.301342,,,,,,,
1558974892.759885,1.720428,1.384064,2.604852,-0.104922,1.617493,-0.577888,0.183574,-0.982616,0.027675,-0.030193,0.097317,-0.247646,3.684356,-42.966038,23.277330,,,,,,,
1558974892.779875,1.745408,1.372975,2.611903,0.109905,1.573079,-0.542908,0.193545,-0.980497,0.034143,-0.060107,0.121855,-0.226449,3.422081,-42.940048,23.365150,,,,,,,
1558974892.799861,1.789805,1.361875,2.597876,0.319351,1.514965,-0.498456,0.202450,-0.978255,0.045061,-0.081387,0.132293,-0.213976,3.286299,-42.889580,23.477062,,,,,,,
1558974892.819847,1.840934,1.350764,2.577001,0.353581,1.571884,-0.485072,0.210346,-0.975890,0.058246,-0.101887,0.165328,-0.197315,2.839425,-42.621651,24.017105,,,,,,,
1558974892.839830,1.893455,1.339278,2.557453,0.411641,1.756585,-0.465108,0.217615,-0.973319,0.072758,-0.101755,0.189124,-0.195271,2.571083,-42.472340,24.310062,,,,,,,
1558974892.859817,1.959611,1.328214,2.527178,0.586420,1.866810,-0.359283,0.222280,-0.970721,0.091062,-0.111715,0.216799,-0.188336,2.221852,-42.302937,24.637634,,,,,,,
1558974892.879807,2.030600,1.317776,2.492625,0.569296,1.877596,-0.274850,0.224330,-0.968161,0.111089,-0.125758,0.287619,-0.134801,1.260480,-41.848507,25.467682,,,,,,,
1558974892.899817,2.091246,1.308898,2.469282,0.464073,1.944800,-0.234788,0.224633,-0.965900,0.128751,-0.149377,0.294636,-0.180035,0.703160,-41.645672,25.819229,,,,,,,
1558974892.919791,2.172697,1.298400,2.426032,0.976977,1.966663,-0.068683,0.221759,-0.963129,0.152333,-0.146030,0.281946,-0.170644,0.089058,-41.455109,26.133404,,,,,,,
1558974892.939773,2.275994,1.284148,2.357990,1.214921,1.857739,0.026554,0.215301,-0.959197,0.183267,-0.210418,0.323760,0.069587,-1.395755,-40.654385,27.326941,,,,,,,
1558974892.959785,2.360492,1.270472,2.307072,0.812389,1.786844,-0.024627,0.208283,-0.955240,0.210081,-0.211441,0.389551,0.089205,-2.406773,-40.040573,28.150461,,,,,,,
1558974892.979783,2.423842,1.261135,2.279853,0.620040,1.896765,0.000827,0.200423,-0.952437,0.229554,-0.191771,0.344923,0.043075,-2.904445,-39.830498,28.400440,,,,,,,
1558974892.999777,2.493771,1.249471,2.245031,0.894147,1.779195,0.096009,0.190584,-0.948818,0.251838,-0.170855,0.385204,0.051293,-4.531046,-39.243465,28.998428,,,,,,,
1558974893.019766,2.565939,1.235932,2.203786,0.905223,1.630240,0.191748,0.178907,-0.944455,0.275677,-0.175123,0.411893,0.087178,-5.624676,-38.683800,29.553608,,,,,,,
1558974893.039755,2.634800,1.225739,2.167115,0.653323,1.796620,0.300971,0.164179,-0.941056,0.295735,-0.166605,0.391297,0.073818,-6.191314,-38.411102,29.795033,,,,,,,
1558974893.059748,2.705867,1.219144,2.132850,0.512209,1.986728,0.409443,0.145381,-0.938805,0.312265,-0.197459,0.380410,0.122076,-8.201557,-37.760616,30.139000,,,,,,,
1558974893.079740,2.777048,1.216092,2.099883,0.248233,2.035824,0.505789,0.123825,-0.937749,0.324490,-0.173676,0.435415,0.125248,-9.738615,-37.423203,30.102364,,,,,,,
1558974893.099715,2.852166,1.219562,2.064571,-0.064701,2.140314,0.717933,0.098195,-0.938949,0.329747,-0.130253,0.341888,0.071590,-10.973825,-37.268837,29.868000,,,,,,,
1558974893.119698,2.937542,1.223320,2.019199,0.128768,2.119411,0.850276,0.069003,-0.940235,0.333461,-0.177722,0.324680,-0.001232,-13.245422,-37.069633,29.187151,,,,,,,
1558974893.139683,3.030361,1.217764,1.962544,0.581296,1.877236,0.947611,0.038378,-0.938329,0.343608,-0.187075,0.359395,0.022222,-15.087193,-36.634766,28.840240,,,,,,,
1558974893.159696,3.121975,1.205358,1.902863,0.717987,1.732915,1.048834,0.007010,-0.933967,0.357290,-0.165259,0.355980,0.066233,-15.970075,-36.309986,28.775511,,,,,,,
1558974893.179672,-3.072331,1.188829,1.841003,0.828462,1.415481,1.216707,-0.025796,-0.927933,0.371853,-0.174353,0.224839,0.386509,-17.719273,-35.551235,28.698883,,,,,,,
1558974893.199682,-2.990542,1.173368,1.778115,0.445285,1.127953,1.270234,-0.058242,-0.922060,0.382641,-0.240052,0.220338,0.377643,-20.171320,-34.202240,28.719570,,,,,,,
1558974893.219662,-2.909450,1.166580,1.717351,-0.057349,1.365164,1.212313,-0.090484,-0.919411,0.382748,-0.221131,0.254662,0.313175,-20.171320,-34.202240,28.719570,,,,,,,
1558974893.239658,-2.822788,1.160360,1.654457,0.093735,1.411100,1.361277,-0.125062,-0.916947,0.378904,-0.150725,0.206849,0.300891,-22.498165,-33.303696,28.039000,,,,,,,
