timestamp(unix),attitude_roll(radians),attitude_pitch(radians),attitude_yaw(radians),rotation_rate_x(radians/s),rotation_rate_y(radians/s),rotation_rate_z(radians/s),gravity_x(G),gravity_y(G),gravity_z(G),user_acc_x(G),user_acc_y(G),user_acc_z(G),magnetic_field_x(microteslas),magnetic_field_y(microteslas),magnetic_field_z(microteslas),latitude(degree),longitude(degree),altitude(meter),speed(m/s),course(degree),timestamp(unix),User Mark
1558973030.454374,0.760634,1.359112,-0.956105,0.055090,-0.139172,-0.059481,0.144843,-0.977679,-0.152201,-0.006767,0.010195,-0.013983,-11.966152,-44.145645,-7.588588,,,,,,,
1558973030.474339,0.765760,1.359076,-0.964352,0.067855,-0.145594,-0.068074,0.145646,-0.977671,-0.151482,-0.003663,0.013148,-0.006172,-11.947979,-44.158703,-7.541088,,,,,,,
1558973030.494346,0.772775,1.358920,-0.974048,0.038184,-0.110575,-0.080574,0.146812,-0.977638,-0.150566,-0.003791,0.014442,0.008781,-11.883415,-44.198040,-7.411525,,,,,,,
1558973030.514333,0.778244,1.358291,-0.981254,0.005350,-0.060723,-0.080123,0.148065,-0.977506,-0.150199,-0.004648,0.010587,0.006232,-11.827959,-44.222599,-7.353536,,,,,,,
1558973030.534300,0.782604,1.357167,-0.986340,-0.009433,-0.017285,-0.064773,0.149493,-0.977268,-0.150331,0.003095,0.008762,0.005113,-11.799412,-44.232224,-7.341481,,,,,,,
1558973030.554306,0.789051,1.356023,-0.992834,0.002293,0.007029,-0.021829,0.151253,-0.977025,-0.150152,0.015083,0.006306,0.005758,-11.691992,-44.261555,-7.336585,,,,,,,
1558973030.574292,0.790978,1.355723,-0.994575,-0.002046,0.003951,0.025112,0.151750,-0.976961,-0.150066,0.015151,0.001146,0.000743,-11.654052,-44.272324,-7.331965,,,,,,,
1558973030.594278,0.791743,1.356256,-0.994956,0.003307,0.021923,0.045571,0.151494,-0.977074,-0.149583,0.010173,0.003213,0.012239,-11.651358,-44.273800,-7.327291,,,,,,,
1558973030.614265,0.791655,1.356670,-0.994005,0.001257,0.045186,0.043655,0.151193,-0.977162,-0.149313,0.011893,0.006291,-0.001841,-11.676817,-44.268875,-7.316525,,,,,,,
1558973030.634248,0.788746,1.356683,-0.990351,-0.017981,0.021109,0.053019,0.150749,-0.977165,-0.149743,0.008309,0.003242,-0.008216,-11.678989,-44.265137,-7.335690,,,,,,,
1558973030.654237,0.784137,1.357095,-0.985555,0.002174,-0.002260,0.047473,0.149773,-0.977253,-0.150151,-0.001610,-0.001171,-0.006618,-11.712889,-44.250980,-7.366952,,,,,,,
1558973030.674195,0.780839,1.358044,-0.982211,0.036275,0.008126,0.044398,0.148624,-0.977454,-0.149985,-0.008609,-0.001566,-0.009896,-11.770896,-44.235882,-7.365177,,,,,,,
1558973030.694196,0.779672,1.359496,-0.980764,0.065038,0.018556,0.051995,0.147451,-0.977759,-0.149149,-0.014379,-0.001764,-0.004232,-11.830992,-44.223137,-7.345403,,,,,,,
1558973030.714196,0.778101,1.361716,-0.978888,0.085290,0.024782,0.046736,0.145692,-0.978222,-0.147834,-0.019761,-0.000995,-0.008538,-11.882372,-44.215733,-7.306929,,,,,,,
1558973030.734183,0.777499,1.363467,-0.977769,0.057630,0.024909,0.034973,0.144401,-0.978584,-0.146701,-0.012932,0.004600,-0.005368,-11.960768,-44.205246,-7.242198,,,,,,,
1558973030.754164,0.780821,1.364983,-0.980641,0.028864,0.020847,0.044520,0.143844,-0.978895,-0.145166,0.004792,0.008528,0.020884,-12.000768,-44.201683,-7.197621,,,,,,,
1558973030.774155,0.780539,1.366233,-0.979821,0.025681,0.027217,0.052051,0.142941,-0.979150,-0.144337,-0.000745,0.009591,0.015965,-12.000768,-44.201683,-7.197621,,,,,,,
1558973030.794142,0.780577,1.367746,-0.979434,0.026746,0.014487,0.025241,0.141904,-0.979456,-0.143279,-0.013517,0.008783,0.014739,-12.074667,-44.193291,-7.125216,,,,,,,
1558973030.814109,0.782063,1.369080,-0.981049,0.030923,-0.019387,0.006772,0.141196,-0.979724,-0.142141,-0.003181,0.012820,0.010763,-12.110048,-44.189583,-7.088064,,,,,,,
1558973030.834114,0.784106,1.369583,-0.983778,0.024490,-0.039456,-0.006237,0.141138,-0.979825,-0.141503,-0.003626,0.015805,0.008767,-12.124810,-44.193771,-7.036561,,,,,,,
1558973030.854101,0.786537,1.369523,-0.987117,0.006386,-0.046775,-0.016999,0.141524,-0.979813,-0.141202,0.003542,0.017624,0.006390,-12.116991,-44.202911,-6.992436,,,,,,,
1558973030.874068,0.787537,1.369042,-0.989474,0.017911,-0.095436,-0.001443,0.141999,-0.979716,-0.141393,0.015731,0.030269,0.004736,-12.103977,-44.208630,-6.978838,,,,,,,
1558973030.894048,0.789532,1.369018,-0.993484,0.038058,-0.111373,0.014432,0.142298,-0.979712,-0.141126,0.032065,0.013571,-0.012820,-12.095194,-44.217159,-6.939882,,,,,,,
1558973030.914054,0.792138,1.368976,-0.997917,0.033837,-0.092298,0.031688,0.142694,-0.979703,-0.140783,0.014380,0.006315,-0.001581,-12.062285,-44.234787,-6.884611,,,,,,,
1558973030.934035,0.791675,1.369630,-0.999472,0.065682,-0.110407,0.050755,0.142173,-0.979834,-0.140399,0.013146,0.017004,-0.007061,-12.082083,-44.237400,-6.832921,,,,,,,
1558973030.954015,0.787393,1.371152,-0.997471,0.036937,-0.103890,0.066810,0.140513,-0.980137,-0.139954,-0.006297,0.007679,-0.010086,-12.100051,-44.237740,-6.798842,,,,,,,
1558973030.973991,0.782425,1.372367,-0.993647,0.003132,-0.037160,0.040732,0.138976,-0.980377,-0.139805,-0.012176,0.001221,-0.004802,-12.208559,-44.218914,-6.726976,,,,,,,
1558973030.993982,0.775301,1.372821,-0.986968,-0.018083,-0.021218,0.024856,0.137666,-0.980467,-0.140474,-0.016511,-0.007097,-0.007643,-12.267385,-44.200691,-6.739652,,,,,,,
1558973031.013979,0.771327,1.373306,-0.983693,0.022258,-0.056319,0.020283,0.136774,-0.980562,-0.140679,-0.016917,-0.010008,-0.006263,-12.295116,-44.191486,-6.749502,,,,,,,
1558973031.033979,0.770566,1.374778,-0.984003,0.047872,-0.039553,0.012994,0.135662,-0.980850,-0.139747,-0.010906,-0.010636,0.005088,-12.365238,-44.179527,-6.699491,,,,,,,
1558973031.053964,0.770521,1.375942,-0.984820,0.053166,-0.049097,0.010773,0.134861,-0.981076,-0.138934,-0.011203,0.004391,-0.003171,-12.403058,-44.177814,-6.640650,,,,,,,
1558973031.073951,0.771402,1.376657,-0.986789,0.013838,-0.042586,-0.013750,0.134494,-0.981214,-0.138313,-0.017413,0.008222,0.000587,-12.419122,-44.177570,-6.612140,,,,,,,
1558973031.093937,0.768358,1.376573,-0.984386,-0.013747,-0.023445,-0.033871,0.134129,-0.981198,-0.138780,-0.011113,0.006451,-0.008391,-12.447826,-44.174210,-6.580564,,,,,,,
1558973031.113924,0.770120,1.375771,-0.986759,-0.004162,-0.030795,-0.042467,0.134922,-0.981043,-0.139109,0.001904,0.006830,0.004191,-12.449827,-44.172340,-6.589307,,,,,,,
1558973031.133910,0.772112,1.375401,-0.989465,0.007517,-0.036129,-0.033967,0.135452,-0.980971,-0.139100,-0.005081,0.011138,0.001771,-12.401075,-44.186211,-6.588268,,,,,,,
1558973031.153896,0.774799,1.375040,-0.993137,0.025575,-0.049973,-0.039424,0.136073,-0.980901,-0.138988,-0.001429,0.009374,-0.003224,-12.390663,-44.190216,-6.580978,,,,,,,
1558973031.173863,0.780668,1.374958,-1.000098,0.031991,-0.045793,-0.048988,0.136943,-0.980885,-0.138245,0.002293,0.008396,0.012924,-12.362974,-44.201233,-6.559040,,,,,,,
1558973031.193860,0.785058,1.374645,-1.005405,0.010683,-0.044602,-0.034047,0.137765,-0.980824,-0.137859,0.004935,0.010121,-0.001439,-12.306084,-44.227982,-6.485277,,,,,,,
1558973031.213847,0.787436,1.374020,-1.008814,-0.002138,-0.054032,-0.023473,0.138527,-0.980702,-0.137964,0.010337,0.009327,0.007257,-12.266415,-44.241341,-6.469307,,,,,,,
1558973031.233839,0.787761,1.373580,-1.010307,-0.007471,-0.055053,-0.018149,0.138878,-0.980616,-0.138223,0.004478,0.004389,0.000772,-12.246588,-44.248669,-6.456783,,,,,,,
1558973031.253819,0.788302,1.373547,-1.011519,-0.003118,-0.023356,-0.011436,0.138975,-0.980609,-0.138170,-0.004301,-0.006176,0.005327,-12.232726,-44.254265,-6.444653,,,,,,,
1558973031.273812,0.788410,1.373426,-1.011749,0.001229,0.001009,-0.012242,0.139075,-0.980586,-0.138240,0.000406,-0.010107,-0.000279,-12.230672,-44.255428,-6.440554,,,,,,,
1558973031.293775,0.789765,1.373533,-1.012914,0.009776,0.017901,0.003941,0.139187,-0.980607,-0.137977,0.003116,-0.003417,-0.002007,-12.223330,-44.258629,-6.432535,,,,,,,
1558973031.313787,0.789024,1.373819,-1.011673,-0.002990,0.032806,0.030765,0.138886,-0.980663,-0.137883,0.003601,0.003780,-0.001277,-12.225780,-44.258179,-6.430937,,,,,,,
1558973031.333763,0.785496,1.374018,-1.007151,-0.038070,0.054152,0.045888,0.138261,-0.980702,-0.138233,0.001128,0.007740,0.003193,-12.258606,-44.245083,-6.458502,,,,,,,
1558973031.353760,0.779541,1.374067,-0.999880,-0.052934,0.063736,0.040629,0.137402,-0.980711,-0.139021,-0.006435,0.012312,0.003996,-12.296686,-44.226929,-6.510265,,,,,,,
1558973031.373746,0.778704,1.374638,-0.996231,-0.065393,0.147272,0.017933,0.136892,-0.980823,-0.138737,-0.023717,-0.003461,0.059925,-12.307421,-44.218781,-6.545231,,,,,,,
1558973031.393734,0.775962,1.372925,-0.991704,-0.014682,0.037091,0.028658,0.137687,-0.980487,-0.140311,0.021004,0.023044,-0.029718,-12.306503,-44.206367,-6.630247,,,,,,,
1558973031.413710,0.773291,1.372320,-0.989756,0.026457,-0.070924,0.039397,0.137726,-0.980368,-0.141102,0.014633,0.027335,-0.015331,-12.283710,-44.203800,-6.689341,,,,,,,
1558973031.433705,0.769974,1.372795,-0.987681,-0.018183,-0.050608,0.038488,0.136933,-0.980462,-0.141224,0.007476,0.022591,0.005741,-12.299584,-44.201008,-6.678644,,,,,,,
1558973031.453673,0.766241,1.372487,-0.983950,-0.040241,0.024573,-0.000294,0.136615,-0.980401,-0.141952,-0.029681,0.000222,0.014404,-12.339294,-44.188137,-6.690557,,,,,,,
1558973031.473678,0.765422,1.372067,-0.982577,-0.012588,0.015966,-0.003557,0.136784,-0.980318,-0.142361,-0.002277,0.002306,-0.012501,-12.331953,-44.184906,-6.725343,,,,,,,
1558973031.493657,0.764099,1.371956,-0.981682,0.017016,-0.039136,0.008751,0.136670,-0.980296,-0.142620,-0.000516,0.002849,-0.017078,-12.330016,-44.184757,-6.729854,,,,,,,
1558973031.513633,0.762608,1.372296,-0.981308,0.005231,-0.058088,0.017101,0.136227,-0.980363,-0.142582,0.002597,-0.004042,0.003681,-12.350466,-44.181339,-6.714794,,,,,,,
1558973031.533625,0.761284,1.372691,-0.980960,0.014864,-0.043345,0.014047,0.135771,-0.980441,-0.142482,0.000108,-0.005261,0.005260,-12.367000,-44.179039,-6.699462,,,,,,,
1558973031.553594,0.761826,1.373132,-0.981803,-0.006261,0.000083,0.000566,0.135550,-0.980528,-0.142096,-0.003745,-0.003679,0.013861,-12.381052,-44.177753,-6.681948,,,,,,,
1558973031.573591,0.760022,1.373156,-0.979778,-0.023238,0.013904,-0.005719,0.135277,-0.980533,-0.142323,-0.003685,-0.003675,-0.002559,-12.393433,-44.177387,-6.661406,,,,,,,
1558973031.593580,0.757377,1.372771,-0.976839,-0.037149,0.009864,0.014523,0.135160,-0.980457,-0.142955,0.001178,-0.008252,0.000423,-12.401646,-44.168674,-6.703757,,,,,,,
1558973031.613582,0.754858,1.372773,-0.974115,-0.011633,0.007639,0.030536,0.134797,-0.980457,-0.143293,0.006255,-0.003719,0.003431,-12.401646,-44.168674,-6.703757,,,,,,,
1558973031.633570,0.753628,1.373161,-0.972531,-0.000973,0.014992,0.037020,0.134361,-0.980534,-0.143182,0.003136,0.000614,-0.003043,-12.422783,-44.159637,-6.724158,,,,,,,
1558973031.653555,0.751758,1.373631,-0.970192,-0.000948,0.020269,0.031732,0.133778,-0.980626,-0.143096,-0.001958,0.009770,0.004195,-12.453889,-44.149467,-6.733397,,,,,,,
1558973031.673541,0.750094,1.374046,-0.968119,-0.009498,0.016106,0.045564,0.133263,-0.980707,-0.143021,0.007683,0.011148,0.005554,-12.479884,-44.141827,-6.735336,,,,,,,
1558973031.693529,0.747885,1.374567,-0.965345,-0.008421,0.023513,0.054176,0.132598,-0.980809,-0.142940,0.004654,0.010853,0.004542,-12.513933,-44.131092,-6.742498,,,,,,,
1558973031.713514,0.744009,1.375162,-0.960913,-0.004183,0.018207,0.055195,0.131649,-0.980924,-0.143024,-0.002209,0.010237,0.003009,-12.519302,-44.129436,-6.743361,,,,,,,
1558973031.733500,0.739175,1.375596,-0.955506,-0.025455,0.022543,0.053085,0.130669,-0.981009,-0.143343,-0.002327,0.010916,-0.002790,-12.582621,-44.108513,-6.762386,,,,,,,
1558973031.753487,0.733411,1.375881,-0.949262,-0.026531,0.017257,0.048763,0.129653,-0.981064,-0.143887,-0.004104,0.010437,-0.001469,-12.605789,-44.099361,-6.778913,,,,,,,
1558973031.773451,0.728871,1.376356,-0.944172,-0.013801,0.022610,0.047752,0.128688,-0.981156,-0.144126,-0.002940,0.006211,0.001120,-12.684751,-44.069649,-6.824675,,,,,,,
1558973031.793459,0.724619,1.376825,-0.939563,-0.000018,0.007745,0.051892,0.127769,-0.981246,-0.144328,-0.000084,0.009277,-0.003667,-12.704202,-44.062653,-6.833687,,,,,,,
1558973031.813417,0.718182,1.377337,-0.932822,-0.031949,0.010030,0.054024,0.126507,-0.981345,-0.144769,-0.006482,0.006263,-0.002722,-12.774834,-44.038853,-6.855379,,,,,,,
1558973031.833418,0.711023,1.377506,-0.925363,-0.038328,0.010055,0.048681,0.125359,-0.981378,-0.145545,-0.006936,0.003579,-0.002023,-12.833323,-44.015656,-6.894982,,,,,,,
1558973031.853418,0.706607,1.377768,-0.920715,-0.012774,0.010974,0.046575,0.124548,-0.981428,-0.145902,0.002817,-0.000887,0.001340,-12.833323,-44.015656,-6.894982,,,,,,,
1558973031.873406,0.701301,1.378007,-0.915020,-0.021282,0.012071,0.043376,0.123621,-0.981474,-0.146381,-0.001810,-0.001162,-0.001812,-12.910124,-43.985722,-6.942489,,,,,,,
1558973031.893391,0.696489,1.378367,-0.910100,-0.020272,-0.003788,0.044293,0.122688,-0.981543,-0.146703,-0.003105,0.004537,-0.000102,-12.940529,-43.974640,-6.956063,,,,,,,
1558973031.913376,0.690180,1.378553,-0.903730,-0.028768,0.000478,0.040057,0.121644,-0.981578,-0.147333,-0.006654,0.005534,0.000086,-12.985796,-43.957760,-6.978381,,,,,,,
1558973031.933356,0.685418,1.378728,-0.898651,-0.039345,0.018494,0.034884,0.120832,-0.981612,-0.147778,-0.005506,0.005217,0.004025,-13.038341,-43.936775,-7.012440,,,,,,,
1558973031.953349,0.680690,1.378527,-0.893198,-0.041400,0.039641,0.031881,0.120257,-0.981573,-0.148501,0.000608,0.002157,0.004260,-13.066155,-43.922886,-7.047626,,,,,,,
1558973031.973316,0.677880,1.378597,-0.889424,-0.020095,0.041635,0.026579,0.119796,-0.981586,-0.148785,-0.001556,0.006519,0.004650,-13.082739,-43.913315,-7.076401,,,,,,,
1558973031.993309,0.675936,1.378905,-0.886663,-0.007373,0.032075,0.040377,0.119317,-0.981645,-0.148781,0.001624,0.004854,-0.000205,-13.106951,-43.902008,-7.101730,,,,,,,
1558973032.013308,0.672781,1.379396,-0.883056,-0.002106,0.014075,0.038074,0.118547,-0.981739,-0.148780,-0.002366,0.010181,0.002586,-13.139490,-43.891239,-7.108162,,,,,,,
1558973032.033269,0.669283,1.379658,-0.879260,-0.013836,0.009915,0.042295,0.117866,-0.981789,-0.148993,0.004647,0.008491,0.000418,-13.160378,-43.883610,-7.116628,,,,,,,
1558973032.053276,0.665209,1.379872,-0.875055,-0.014901,0.002497,0.026208,0.117128,-0.981829,-0.149306,-0.008852,0.001895,0.001738,-13.201902,-43.868057,-7.135592,,,,,,,
1558973032.073268,0.662642,1.380040,-0.872264,-0.015881,0.018325,0.005007,0.116643,-0.981861,-0.149476,-0.011876,0.002308,0.006486,-13.231739,-43.857635,-7.144385,,,,,,,
1558973032.093236,0.662170,1.380035,-0.871259,-0.003047,0.029863,-0.009818,0.116576,-0.981860,-0.149535,-0.007399,-0.008252,-0.002824,-13.240919,-43.853168,-7.154749,,,,,,,
1558973032.113212,0.661444,1.379837,-0.870214,-0.001002,0.008724,-0.001477,0.116587,-0.981823,-0.149773,-0.005289,-0.002522,-0.008750,-13.231818,-43.853493,-7.169600,,,,,,,
1558973032.133227,0.660456,1.379846,-0.869315,0.000015,-0.006082,-0.002685,0.116434,-0.981824,-0.149882,-0.007562,-0.001956,-0.003439,-13.241575,-43.848736,-7.180692,,,,,,,
1558973032.153203,0.660098,1.380041,-0.869139,0.012794,-0.005094,-0.003732,0.116262,-0.981861,-0.149772,-0.009771,0.000874,0.000754,-13.240404,-43.849236,-7.179810,,,,,,,
1558973032.173178,0.660412,1.380659,-0.869452,0.022419,0.005416,-0.010028,0.115937,-0.981978,-0.149256,-0.010804,0.006606,-0.003195,-13.255350,-43.849583,-7.150034,,,,,,,
1558973032.193185,0.661839,1.380755,-0.870826,0.014982,0.006500,-0.017496,0.116091,-0.981996,-0.149015,-0.008776,0.007662,-0.004778,-13.260606,-43.849209,-7.142569,,,,,,,
1558973032.213171,0.662350,1.380592,-0.871201,-0.015876,0.010892,-0.016411,0.116266,-0.981966,-0.149083,-0.006418,0.010530,0.004292,-13.252040,-43.851967,-7.141527,,,,,,,
1558973032.233158,0.661638,1.380083,-0.870257,-0.027586,0.013075,-0.011060,0.116467,-0.981869,-0.149560,-0.004559,0.010754,-0.000968,-13.239031,-43.852695,-7.161169,,,,,,,
1558973032.253145,0.659735,1.379691,-0.868201,-0.024423,0.007786,-0.002567,0.116418,-0.981795,-0.150086,-0.005121,0.005873,0.002991,-13.238035,-43.847866,-7.192510,,,,,,,
1558973032.273130,0.659516,1.379435,-0.867622,-0.012659,0.022516,-0.006687,0.116540,-0.981746,-0.150310,0.000068,0.009212,0.000896,-13.241884,-43.844921,-7.203387,,,,,,,
1558973032.293117,0.660481,1.378942,-0.868180,-0.009514,0.013002,0.003899,0.116981,-0.981652,-0.150579,0.008843,0.014001,0.000326,-13.226284,-43.845695,-7.227264,,,,,,,
1558973032.313079,0.661197,1.378476,-0.868623,-0.019111,0.010948,0.010275,0.117370,-0.981563,-0.150856,0.011399,0.008022,0.002953,-13.206143,-43.849480,-7.241131,,,,,,,
1558973032.333090,0.661162,1.378181,-0.868480,-0.008478,0.000299,-0.004766,0.117543,-0.981507,-0.151089,0.007503,0.005341,0.000210,-13.199930,-43.849182,-7.254247,,,,,,,
1558973032.353077,0.662424,1.377482,-0.869824,-0.014891,-0.010247,-0.011280,0.118155,-0.981373,-0.151481,0.009073,0.012470,-0.002999,-13.176155,-43.853546,-7.271054,,,,,,,
1558973032.373056,0.662567,1.376825,-0.870221,-0.017022,-0.013416,-0.017718,0.118573,-0.981246,-0.151973,0.005603,0.003723,-0.006886,-13.158828,-43.856461,-7.284872,,,,,,,
1558973032.393048,0.662835,1.376214,-0.870910,-0.000034,-0.023008,-0.010324,0.118983,-0.981128,-0.152414,0.007909,0.002033,-0.010627,-13.141712,-43.859341,-7.298420,,,,,,,
1558973032.413036,0.663628,1.375840,-0.872373,0.016949,-0.034715,-0.004018,0.119330,-0.981056,-0.152608,0.003504,0.006935,-0.003993,-13.115612,-43.865845,-7.306285,,,,,,,
1558973032.432997,0.663601,1.375982,-0.872935,0.011648,-0.023044,0.006766,0.119240,-0.981084,-0.152502,0.003151,0.009206,-0.001902,-13.113678,-43.868481,-7.293890,,,,,,,
1558973032.453007,0.663017,1.375821,-0.872545,-0.004269,-0.003923,0.014408,0.119248,-0.981052,-0.152696,0.006485,0.008793,-0.005767,-13.117037,-43.868465,-7.287958,,,,,,,
1558973032.472994,0.661232,1.375587,-0.870613,-0.013831,0.009894,0.031614,0.119116,-0.981007,-0.153090,0.007379,0.009907,-0.001802,-13.123403,-43.863365,-7.307161,,,,,,,
1558973032.492962,0.656834,1.375710,-0.865734,-0.018023,0.032119,0.036094,0.118368,-0.981031,-0.153517,-0.004629,0.006711,-0.002504,-13.144097,-43.853111,-7.331464,,,,,,,
1558973032.512959,0.653337,1.375772,-0.861460,-0.016939,0.036335,0.031865,0.117794,-0.981043,-0.153881,-0.001048,0.007181,-0.005482,-13.144097,-43.853111,-7.331464,,,,,,,
1558973032.532953,0.647932,1.375494,-0.855325,-0.035069,0.031159,0.041409,0.117124,-0.980989,-0.154733,-0.000502,0.004671,-0.004493,-13.186777,-43.830978,-7.386960,,,,,,,
1558973032.552914,0.644040,1.375872,-0.851093,0.003211,0.015091,0.033813,0.116299,-0.981062,-0.154891,-0.002682,0.001860,-0.002152,-13.229046,-43.811325,-7.427871,,,,,,,
1558973032.572924,0.641924,1.376299,-0.848647,0.010650,0.007640,0.025207,0.115720,-0.981145,-0.154801,-0.001966,0.004781,-0.005874,-13.252499,-43.803802,-7.430409,,,,,,,
1558973032.592885,0.640384,1.376889,-0.846912,0.003103,0.004718,0.013417,0.115136,-0.981259,-0.154515,-0.005257,0.004315,0.006902,-13.290947,-43.792454,-7.428660,,,,,,,
1558973032.612897,0.638888,1.377218,-0.845414,0.003092,-0.004816,-0.000552,0.114712,-0.981322,-0.154428,-0.009808,0.004195,0.001825,-13.308273,-43.788559,-7.420582,,,,,,,
1558973032.632878,0.639215,1.377493,-0.845944,0.011609,-0.010164,-0.012340,0.114602,-0.981375,-0.154175,-0.011147,0.003592,0.005325,-13.317007,-43.786629,-7.416297,,,,,,,
1558973032.652854,0.639244,1.378153,-0.846355,0.011590,-0.018629,-0.017757,0.114219,-0.981502,-0.153651,-0.009422,0.003673,0.005702,-13.334439,-43.787182,-7.381624,,,,,,,
1558973032.672856,0.640333,1.378355,-0.847890,-0.006514,-0.021706,-0.018867,0.114268,-0.981540,-0.153368,-0.006511,0.007511,0.007845,-13.335739,-43.790657,-7.358636,,,,,,,
1558973032.692815,0.640181,1.377886,-0.848147,-0.024602,-0.018437,-0.016715,0.114520,-0.981450,-0.153754,-0.001772,0.007040,0.003409,-13.334105,-43.791939,-7.353967,,,,,,,
1558973032.712822,0.640607,1.377576,-0.848800,-0.012869,-0.012160,-0.018781,0.114767,-0.981391,-0.153949,-0.000585,-0.002770,0.004550,-13.317436,-43.794628,-7.368144,,,,,,,
1558973032.732815,0.642060,1.377376,-0.850344,0.004188,-0.002730,-0.014406,0.115108,-0.981353,-0.153939,0.001683,0.000747,0.002404,-13.315466,-43.795395,-7.367162,,,,,,,
1558973032.752801,0.645139,1.377347,-0.853406,0.011605,0.004764,-0.001565,0.115599,-0.981347,-0.153607,0.010713,0.002084,0.004376,-13.289867,-43.804390,-7.359869,,,,,,,
1558973032.772789,0.647715,1.377563,-0.855778,0.016961,0.015307,-0.000394,0.115866,-0.981388,-0.153140,0.005716,0.003453,0.004900,-13.278315,-43.809193,-7.352155,,,,,,,
1558973032.792773,0.650398,1.377599,-0.858054,0.004214,0.021710,-0.004614,0.116255,-0.981395,-0.152800,0.004960,0.006466,0.002348,-13.266266,-43.815575,-7.335852,,,,,,,
1558973032.812749,0.651379,1.377137,-0.858606,-0.013883,0.019685,-0.008920,0.116680,-0.981307,-0.153046,0.004978,0.007781,-0.003997,-13.239883,-43.823563,-7.335793,,,,,,,
1558973032.832747,0.651348,1.376444,-0.858196,-0.022409,0.018679,-0.004667,0.117087,-0.981173,-0.153591,0.005517,0.004702,-0.002278,-13.218159,-43.824341,-7.370255,,,,,,,
1558973032.852732,0.651001,1.376186,-0.857419,-0.007513,0.020727,0.003906,0.117188,-0.981123,-0.153833,-0.000107,0.003447,-0.000571,-13.206562,-43.823883,-7.393723,,,,,,,
1558973032.872703,0.650527,1.376274,-0.856581,0.002030,0.015411,0.016674,0.117062,-0.981140,-0.153820,0.001148,0.007507,0.000255,-13.207764,-43.822197,-7.401579,,,,,,,
1558973032.892697,0.647637,1.376512,-0.853524,-0.006542,0.003845,0.028301,0.116476,-0.981186,-0.153971,-0.002570,0.006043,-0.002035,-13.230081,-43.814335,-7.408252,,,,,,,
1558973032.912672,0.644568,1.376726,-0.850262,-0.009746,0.009248,0.031483,0.115877,-0.981227,-0.154160,0.001417,0.005504,0.002228,-13.258048,-43.803814,-7.420438,,,,,,,
1558973032.932647,0.642926,1.377018,-0.848307,0.004127,0.014443,0.019799,0.115452,-0.981284,-0.154121,0.001674,0.003989,-0.000268,-13.270838,-43.799229,-7.424668,,,,,,,
1558973032.952659,0.642325,1.377307,-0.847280,0.002068,0.028169,0.002847,0.115190,-0.981339,-0.153963,-0.007814,0.006821,0.004595,-13.288971,-43.793007,-7.428939,,,,,,,
1558973032.972639,0.642347,1.377301,-0.846654,-0.010699,0.029290,0.000713,0.115196,-0.981338,-0.153965,-0.002785,0.003250,-0.002483,-13.295182,-43.790173,-7.434517,,,,,,,
1558973032.992636,0.642595,1.377259,-0.846330,-0.002192,0.029254,0.007125,0.115259,-0.981330,-0.153969,0.003409,0.001777,0.002862,-13.293860,-43.789185,-7.442717,,,,,,,
1558973033.012623,0.643392,1.377550,-0.846555,0.009486,0.024982,0.018836,0.115211,-0.981386,-0.153650,0.002968,-0.000746,0.002343,-13.292438,-43.788662,-7.448315,,,,,,,
1558973033.032609,0.643025,1.377949,-0.845647,0.009499,0.024969,0.010295,0.114919,-0.981463,-0.153378,-0.004034,0.002092,0.002148,-13.304312,-43.785831,-7.443740,,,,,,,
1558973033.052594,0.643780,1.378231,-0.845995,0.012697,0.019645,-0.004700,0.114869,-0.981517,-0.153070,-0.006150,0.002284,0.001702,-13.306062,-43.785496,-7.442600,,,,,,,
1558973033.072581,0.645667,1.378471,-0.847653,0.015847,0.007022,-0.008104,0.115016,-0.981562,-0.152665,0.000279,0.005778,0.004319,-13.303991,-43.788250,-7.430085,,,,,,,
1558973033.092568,0.647605,1.378793,-0.849700,0.020044,-0.008846,-0.001847,0.115121,-0.981624,-0.152189,0.000266,0.004466,0.003721,-13.296370,-43.794586,-7.406342,,,,,,,
1558973033.112553,0.648714,1.379155,-0.851097,0.020008,-0.017294,0.003410,0.115075,-0.981693,-0.151779,0.000571,0.005756,0.002792,-13.296681,-43.796169,-7.396399,,,,,,,
1558973033.132540,0.649642,1.379386,-0.852326,0.025367,-0.009936,-0.005056,0.115079,-0.981737,-0.151491,-0.001584,0.006639,-0.003584,-13.298347,-43.801414,-7.362278,,,,,,,
1558973033.152526,0.650256,1.379777,-0.853145,0.027529,-0.000438,-0.007098,0.114939,-0.981811,-0.151115,-0.007777,0.003982,-0.001976,-13.300800,-43.802532,-7.351179,,,,,,,
1558973033.172485,0.650970,1.380271,-0.853678,0.019056,0.017592,0.003745,0.114753,-0.981905,-0.150647,-0.011772,0.008730,0.004117,-13.303337,-43.804482,-7.334975,,,,,,,
1558973033.192497,0.651271,1.381078,-0.853396,0.010566,0.033518,0.022042,0.114318,-0.982057,-0.149982,-0.004333,0.009249,0.002826,-13.325535,-43.801582,-7.311933,,,,,,,
1558973033.212477,0.650131,1.381446,-0.851548,-0.009678,0.031523,0.030547,0.113928,-0.982127,-0.149824,0.003290,0.008265,0.005507,-13.342073,-43.797611,-7.305551,,,,,,,
1558973033.232457,0.648163,1.381626,-0.848899,-0.017139,0.028391,0.030511,0.113527,-0.982161,-0.149908,0.006102,0.010969,0.005911,-13.354578,-43.792404,-7.313937,,,,,,,
1558973033.252433,0.647838,1.381594,-0.848029,-0.011840,0.016722,0.020793,0.113496,-0.982155,-0.149969,0.005583,0.004753,0.001791,-13.372847,-43.783150,-7.335940,,,,,,,
1558973033.272413,0.646770,1.381522,-0.846739,-0.004407,0.005035,0.006807,0.113379,-0.982141,-0.150147,0.004312,0.003290,-0.001998,-13.367546,-43.784607,-7.336906,,,,,,,
1558973033.292424,0.646428,1.381499,-0.846290,-0.000143,0.005006,0.002539,0.113341,-0.982137,-0.150204,-0.000579,-0.001155,0.000149,-13.373740,-43.780636,-7.349290,,,,,,,
1558973033.312416,0.644198,1.381636,-0.844111,-0.003371,-0.003427,0.006728,0.112925,-0.982163,-0.150349,-0.007334,0.001190,-0.001156,-13.377478,-43.778557,-7.354877,,,,,,,
1558973033.332381,0.642100,1.381826,-0.842112,-0.010830,-0.004441,0.009916,0.112498,-0.982198,-0.150436,-0.004435,-0.001734,0.002639,-13.405027,-43.769283,-7.359896,,,,,,,
1558973033.352387,0.639665,1.382044,-0.839642,-0.016121,0.005100,0.010004,0.112003,-0.982239,-0.150538,-0.005161,-0.000183,0.006815,-13.424109,-43.762932,-7.362899,,,,,,,
1558973033.372376,0.638998,1.382003,-0.838627,-0.016051,0.020937,-0.001588,0.111927,-0.982231,-0.150644,-0.000187,0.004723,0.002832,-13.438753,-43.757042,-7.371205,,,,,,,
1558973033.392360,0.638368,1.381559,-0.837678,-0.015009,0.010349,-0.010230,0.112092,-0.982148,-0.151065,-0.002122,0.003068,-0.004574,-13.430540,-43.756386,-7.390038,,,,,,,
1558973033.412346,0.638028,1.381038,-0.837219,-0.011826,0.003978,-0.017762,0.112345,-0.982050,-0.151514,-0.001918,0.004251,-0.004018,-13.424714,-43.754814,-7.409887,,,,,,,
1558973033.432334,0.639158,1.380619,-0.838380,-0.001215,-0.004529,-0.014632,0.112762,-0.981971,-0.151717,0.000428,0.006659,-0.001267,-13.418314,-43.754959,-7.420628,,,,,,,
1558973033.452293,0.638919,1.380518,-0.838473,0.002986,-0.019342,-0.009432,0.112785,-0.981952,-0.151824,-0.005012,0.002490,-0.001664,-13.397208,-43.759708,-7.430746,,,,,,,
1558973033.472305,0.640062,1.380525,-0.839992,0.000886,-0.012997,-0.014711,0.112954,-0.981953,-0.151689,-0.001397,0.002674,0.006456,-13.395761,-43.761314,-7.423902,,,,,,,
1558973033.492292,0.642086,1.380437,-0.842158,0.002005,-0.000331,-0.023130,0.113313,-0.981936,-0.151529,-0.000184,0.006915,0.004664,-13.381544,-43.767952,-7.410376,,,,,,,
1558973033.512262,0.644901,1.380245,-0.844840,0.006306,0.011268,-0.026219,0.113852,-0.981900,-0.151361,0.003503,0.009778,0.002862,-13.364504,-43.773911,-7.405929,,,,,,,
1558973033.532264,0.647816,1.380065,-0.847662,0.006284,0.005988,-0.023067,0.114399,-0.981866,-0.151169,0.000728,0.009515,0.002304,-13.345528,-43.780460,-7.401454,,,,,,,
1558973033.552250,0.649699,1.379894,-0.849450,0.002013,0.006023,-0.014529,0.114785,-0.981834,-0.151087,-0.000253,0.011985,0.002894,-13.314398,-43.790810,-7.396296,,,,,,,
1558973033.572214,0.650254,1.379745,-0.849910,-0.008681,-0.000234,0.004620,0.114958,-0.981805,-0.151140,0.006929,0.008630,0.000475,-13.300978,-43.794643,-7.397724,,,,,,,
1558973033.592221,0.648843,1.379495,-0.848510,-0.016156,-0.004414,0.010979,0.114893,-0.981758,-0.151498,0.005087,0.006828,-0.002799,-13.303717,-43.793137,-7.401726,,,,,,,
1558973033.612207,0.647828,1.379334,-0.847507,-0.011908,-0.003367,0.019533,0.114835,-0.981727,-0.151741,0.001956,0.012580,0.001197,-13.306499,-43.788879,-7.421861,,,,,,,
1558973033.632195,0.645803,1.379408,-0.845450,-0.006575,0.000837,0.021712,0.114483,-0.981741,-0.151914,0.001835,0.008826,0.001340,-13.318512,-43.783630,-7.431307,,,,,,,
1558973033.652162,0.643445,1.379301,-0.842993,-0.018264,0.005120,0.017473,0.114188,-0.981721,-0.152268,0.003183,0.008286,-0.003753,-13.327909,-43.780170,-7.434831,,,,,,,
1558973033.672166,0.640622,1.378890,-0.840057,-0.020416,-0.002272,0.015264,0.113999,-0.981642,-0.152913,0.003631,0.000853,-0.005168,-13.344957,-43.769024,-7.469779,,,,,,,
1558973033.692153,0.639157,1.378916,-0.838611,-0.004438,-0.000131,0.010898,0.113759,-0.981647,-0.153059,0.000972,-0.004406,0.002592,-13.353085,-43.764095,-7.484144,,,,,,,
1558973033.712132,0.638212,1.379020,-0.837708,0.009384,-0.005490,0.009790,0.113553,-0.981667,-0.153085,-0.001218,-0.000068,-0.003776,-13.358645,-43.762169,-7.485458,,,,,,,
1558973033.732109,0.637645,1.379374,-0.837278,0.022162,-0.005563,0.006597,0.113260,-0.981735,-0.152870,-0.005625,0.003478,-0.006447,-13.372496,-43.759823,-7.474420,,,,,,,
1558973033.752112,0.637163,1.379910,-0.836959,0.017917,-0.002373,0.004490,0.112874,-0.981836,-0.152502,-0.011342,0.006769,-0.000574,-13.394114,-43.756104,-7.457496,,,,,,,
1558973033.772069,0.636158,1.380052,-0.835885,-0.008661,0.006216,0.000281,0.112637,-0.981863,-0.152503,-0.012021,0.014044,0.000984,-13.395365,-43.756851,-7.450858,,,,,,,
1558973033.792075,0.635390,1.379945,-0.834967,-0.020386,0.003155,0.003394,0.112582,-0.981843,-0.152674,0.003690,0.004853,0.003931,-13.408144,-43.750484,-7.465224,,,,,,,
1558973033.812071,0.635504,1.379644,-0.835038,-0.009767,-0.003238,0.006543,0.112775,-0.981786,-0.152899,0.006823,0.001058,0.001044,-13.404877,-43.750023,-7.473825,,,,,,,
1558973033.832036,0.637220,1.379786,-0.836952,0.002977,-0.013878,0.004315,0.112954,-0.981813,-0.152593,0.006034,0.005205,0.009374,-13.395281,-43.753830,-7.468730,,,,,,,
1558973033.852043,0.639450,1.380096,-0.839399,0.007245,-0.011788,0.003270,0.113113,-0.981872,-0.152097,0.004029,0.006866,0.009259,-13.388332,-43.760323,-7.443102,,,,,,,
1558973033.872029,0.640659,1.380295,-0.840640,0.001984,0.004085,-0.002989,0.113180,-0.981909,-0.151803,-0.001485,-0.000223,0.004678,-13.381060,-43.765690,-7.424616,,,,,,,
1558973033.892014,0.640774,1.380316,-0.840537,-0.005454,0.010474,0.002405,0.113185,-0.981913,-0.151774,-0.002513,0.003794,0.000056,-13.379763,-43.767014,-7.419141,,,,,,,
1558973033.912002,0.639447,1.380355,-0.838958,-0.017197,0.007389,0.018381,0.112961,-0.981921,-0.151893,-0.000351,0.004321,0.004021,-13.387451,-43.762672,-7.430864,,,,,,,
1558973033.931987,0.636797,1.380502,-0.836220,-0.018307,-0.002105,0.027898,0.112472,-0.981949,-0.152076,-0.000594,-0.005905,0.004646,-13.405451,-43.755260,-7.442035,,,,,,,
1558973033.951973,0.634543,1.380685,-0.833927,-0.007636,0.002096,0.018256,0.112022,-0.981983,-0.152184,0.000115,-0.006740,-0.000007,-13.423815,-43.749531,-7.442642,,,,,,,
1558973033.971961,0.632991,1.380857,-0.832339,-0.003377,-0.000049,0.012901,0.111686,-0.982016,-0.152222,-0.002433,0.006094,0.001084,-13.443364,-43.742767,-7.447093,,,,,,,
1558973033.991946,0.630017,1.381015,-0.829389,-0.016172,-0.004202,0.018190,0.111142,-0.982045,-0.152428,-0.007061,0.006856,0.001443,-13.462179,-43.736023,-7.452704,,,,,,,
1558973034.011931,0.625577,1.381103,-0.825028,-0.018285,-0.003147,0.009659,0.110413,-0.982062,-0.152850,-0.012925,-0.001352,-0.001935,-13.488045,-43.726398,-7.462439,,,,,,,
1558973034.031919,0.621680,1.380990,-0.821113,-0.013993,0.004218,0.002261,0.109881,-0.982041,-0.153369,-0.010851,-0.000015,-0.006879,-13.518273,-43.713253,-7.484699,,,,,,,
1558973034.051892,0.620022,1.380784,-0.819467,-0.010812,-0.002151,-0.004202,0.109744,-0.982002,-0.153716,-0.001086,0.003837,-0.006029,-13.528388,-43.707764,-7.498503,,,,,,,
1558973034.071890,0.619844,1.380398,-0.819507,-0.003381,-0.012775,-0.013907,0.109937,-0.981929,-0.154044,-0.000547,0.006221,-0.006052,-13.532914,-43.704380,-7.510026,,,,,,,
1558973034.091877,0.622349,1.380347,-0.822362,0.026406,-0.018217,-0.013936,0.110351,-0.981919,-0.153808,0.002884,0.010240,0.002807,-13.514070,-43.710098,-7.510686,,,,,,,
1558973034.111848,0.625677,1.380864,-0.826037,0.046655,-0.009836,-0.010720,0.110565,-0.982017,-0.153028,-0.000672,0.014320,0.001097,-13.503753,-43.717754,-7.484662,,,,,,,
1558973034.131849,0.628640,1.381444,-0.829149,0.041355,-0.000287,-0.005294,0.110683,-0.982126,-0.152240,-0.002544,0.013682,-0.002851,-13.496681,-43.725571,-7.451653,,,,,,,
1558973034.151835,0.629979,1.381706,-0.830591,0.028539,-0.006542,0.008514,0.110736,-0.982176,-0.151883,0.001218,0.012190,-0.010089,-13.491186,-43.735287,-7.404439,,,,,,,
1558973034.171821,0.629820,1.382006,-0.830718,0.019996,-0.013895,0.009504,0.110538,-0.982232,-0.151663,0.000561,0.007226,-0.007394,-13.496374,-43.735012,-7.396601,,,,,,,
1558973034.191806,0.631663,1.382240,-0.832838,0.038090,-0.017170,0.003080,0.110682,-0.982276,-0.151274,0.007498,0.009971,-0.001253,-13.499101,-43.735878,-7.386489,,,,,,,
1558973034.211794,0.637664,1.383044,-0.839174,0.078543,-0.023749,-0.012967,0.111117,-0.982426,-0.149972,0.011853,0.009617,0.000772,-13.488997,-43.748875,-7.327753,,,,,,,
1558973034.231764,0.643908,1.383612,-0.846194,0.075266,-0.046980,-0.008923,0.111717,-0.982532,-0.148829,0.010400,0.013218,-0.011373,-13.459646,-43.766911,-7.273833,,,,,,,
1558973034.251765,0.648248,1.384101,-0.851919,0.068781,-0.079725,-0.016717,0.112071,-0.982623,-0.147960,0.002812,0.004977,-0.007893,-13.437726,-43.782768,-7.218743,,,,,,,
1558973034.271738,0.651313,1.384584,-0.856779,0.060250,-0.086010,-0.017898,0.112237,-0.982713,-0.147238,0.004539,-0.000610,-0.011880,-13.431619,-43.799255,-7.129509,,,,,,,
1558973034.291738,0.654998,1.385663,-0.862294,0.066624,-0.090272,-0.017933,0.112132,-0.982912,-0.145983,-0.006892,-0.016768,0.011919,-13.425417,-43.811386,-7.066389,,,,,,,
1558973034.311721,0.661459,1.387535,-0.870627,0.146423,-0.104440,-0.023341,0.111943,-0.983255,-0.143803,-0.016072,-0.002585,0.011463,-13.431465,-43.818668,-7.009506,,,,,,,
1558973034.331628,0.668099,1.390187,-0.878803,0.081714,-0.040694,-0.032388,0.111279,-0.983734,-0.141009,-0.018994,0.002854,0.006533,-13.454681,-43.847523,-6.780828,,,,,,,
1558973034.351637,0.670700,1.391454,-0.882093,0.043421,-0.027795,-0.022682,0.110871,-0.983961,-0.139742,-0.022416,-0.005388,0.006762,-13.473497,-43.853519,-6.704251,,,,,,,
1558973034.371619,0.670695,1.391923,-0.882452,-0.008684,-0.009545,-0.018276,0.110583,-0.984045,-0.139382,-0.028461,0.006155,0.014046,-13.487697,-43.853249,-6.677393,,,,,,,
1558973034.391596,0.668223,1.392492,-0.880398,-0.008672,-0.018041,-0.043976,0.109892,-0.984146,-0.139215,-0.020017,0.037994,0.024530,-13.543504,-43.840797,-6.646154,,,,,,,
1558973034.411595,0.671078,1.391402,-0.883685,-0.046954,-0.011515,-0.055688,0.110956,-0.983952,-0.139741,-0.001642,0.019642,0.000077,-13.499035,-43.853352,-6.653762,,,,,,,
1558973034.431569,0.672354,1.389092,-0.884933,-0.058572,-0.002003,-0.097245,0.112549,-0.983537,-0.141377,0.004409,0.008760,-0.020213,-13.474564,-43.857624,-6.675195,,,,,,,
1558973034.451563,0.682305,1.386564,-0.895575,0.012783,-0.029974,-0.177612,0.115518,-0.983077,-0.142179,0.013801,0.001479,-0.010684,-13.321831,-43.890015,-6.768200,,,,,,,
1558973034.471554,0.703390,1.383977,-0.919066,0.140149,-0.176622,-0.252584,0.120134,-0.982600,-0.141651,0.022124,-0.013326,-0.037060,-13.147861,-43.950878,-6.713217,,,,,,,
1558973034.491523,0.740115,1.383393,-0.962254,0.298363,-0.334015,-0.335105,0.125641,-0.982491,-0.137568,0.006851,-0.042503,-0.015676,-12.964172,-44.025555,-6.579808,,,,,,,
1558973034.511508,0.782925,1.383768,-1.012026,0.287868,-0.270479,-0.295003,0.131154,-0.982561,-0.131804,0.016200,-0.033766,0.024489,-12.651556,-44.179729,-6.140239,,,,,,,
1558973034.531513,0.811859,1.383413,-1.045563,0.177368,-0.161934,-0.194761,0.135165,-0.982495,-0.128194,0.024305,-0.007968,0.020162,-12.444586,-44.277088,-5.855326,,,,,,,
1558973034.551498,0.835141,1.383373,-1.071943,0.138015,-0.128881,-0.142163,0.138142,-0.982488,-0.125040,0.007732,-0.000972,0.027628,-12.338969,-44.324238,-5.720551,,,,,,,
1558973034.571485,0.852209,1.383647,-1.091381,0.135927,-0.091795,-0.088427,0.140053,-0.982539,-0.122486,-0.005943,0.000681,0.030674,-12.202578,-44.390148,-5.497731,,,,,,,
1558973034.591444,0.865366,1.384655,-1.105665,0.113742,-0.015480,-0.025864,0.140898,-0.982726,-0.119991,-0.003401,0.007750,0.011669,-12.158735,-44.414265,-5.399193,,,,,,,
1558973034.611456,0.874055,1.386012,-1.114679,0.106200,-0.028075,0.007106,0.140913,-0.982976,-0.117907,-0.000151,0.017644,-0.007032,-12.144154,-44.429214,-5.308248,,,,,,,
1558973034.631444,0.884498,1.387688,-1.127149,0.181474,-0.139519,-0.034471,0.140862,-0.983283,-0.115384,0.027000,0.007773,0.013532,-12.152724,-44.447033,-5.136670,,,,,,,
1558973034.651413,0.918809,1.390448,-1.167141,0.470580,-0.304984,-0.107357,0.142579,-0.983781,-0.108837,0.009215,0.017915,0.003567,-12.123394,-44.477776,-4.935994,,,,,,,
1558973034.671414,0.982401,1.394978,-1.238110,0.712633,-0.233500,-0.227123,0.145499,-0.984584,-0.097082,0.002877,-0.001043,-0.019816,-12.049040,-44.538635,-4.554531,,,,,,,
1558973034.691402,1.063917,1.398137,-1.325134,0.707422,-0.213436,-0.257898,0.150201,-0.985131,-0.083402,0.034247,0.026055,-0.001254,-11.780771,-44.703655,-3.522692,,,,,,,
1558973034.711371,1.111723,1.397846,-1.380969,0.168317,-0.341619,-0.222189,0.154272,-0.985081,-0.076256,-0.012076,0.027699,0.184349,-11.624303,-44.779308,-3.049991,,,,,,,
1558973034.731373,1.105258,1.394482,-1.375692,-0.271297,0.053056,-0.078902,0.156736,-0.984497,-0.078739,-0.026105,-0.003113,0.154880,-11.494373,-44.824558,-2.872539,,,,,,,
1558973034.751360,1.062224,1.390694,-1.329989,-0.491709,0.109425,0.086947,0.156459,-0.983825,-0.087224,0.019993,-0.014191,0.030721,-11.415642,-44.816002,-3.289685,,,,,,,
1558973034.771317,1.019365,1.389364,-1.284398,-0.305645,0.083212,0.176527,0.153693,-0.983586,-0.094533,0.005014,-0.014827,-0.000178,-11.487974,-44.772366,-3.615905,,,,,,,
1558973034.791331,0.991136,1.390317,-1.254477,-0.160992,0.048630,0.178447,0.150179,-0.983758,-0.098320,-0.000826,-0.014701,-0.010750,-11.600471,-44.724979,-3.836430,,,,,,,
1558973034.811318,0.972153,1.391442,-1.234125,-0.099148,0.056685,0.127326,0.147371,-0.983959,-0.100529,-0.027376,-0.001438,-0.023724,-11.756881,-44.669361,-4.004644,,,,,,,
1558973034.831286,0.960768,1.391786,-1.222003,-0.068328,0.001427,0.039275,0.145940,-0.984020,-0.102007,-0.032934,0.018505,-0.026747,-11.891327,-44.622017,-4.133377,,,,,,,
1558973034.851290,0.958934,1.391013,-1.221216,0.002876,-0.082609,-0.067169,0.146376,-0.983882,-0.102711,-0.029081,0.024898,-0.031765,-11.914799,-44.611031,-4.184090,,,,,,,
1558973034.871250,0.969184,1.389766,-1.233858,0.086958,-0.118037,-0.136838,0.148432,-0.983659,-0.101899,-0.012155,0.037583,-0.027648,-11.827183,-44.639565,-4.127978,,,,,,,
1558973034.891263,0.985541,1.388688,-1.253459,0.132620,-0.154224,-0.142486,0.150962,-0.983464,-0.100043,-0.009101,0.034703,-0.025094,-11.740450,-44.670647,-4.038330,,,,,,,
1558973034.911231,1.003707,1.388063,-1.274358,0.139144,-0.102432,-0.120633,0.153273,-0.983351,-0.097615,0.001649,0.026670,-0.014156,-11.654734,-44.703304,-3.923616,,,,,,,
1558973034.931207,1.017839,1.387606,-1.290523,0.096572,-0.082066,-0.080969,0.155020,-0.983268,-0.095675,0.012216,0.021430,0.006488,-11.511969,-44.758183,-3.713824,,,,,,,
1558973034.951220,1.025636,1.386981,-1.299884,0.012485,-0.055118,-0.026331,0.156287,-0.983153,-0.094783,0.008569,0.012649,0.003077,-11.441620,-44.783360,-3.626684,,,,,,,
1558973034.971198,1.021320,1.386523,-1.295238,-0.083038,0.051154,0.019451,0.156261,-0.983070,-0.095692,0.005223,0.011527,-0.007732,-11.434269,-44.785637,-3.621783,,,,,,,
1558973034.991191,1.009588,1.385608,-1.281618,-0.083993,0.098767,0.048731,0.155888,-0.982902,-0.097997,0.007610,0.005301,-0.013591,-11.447142,-44.769428,-3.778132,,,,,,,
1558973035.011178,1.006376,1.386337,-1.277058,0.028616,0.030529,0.050304,0.154967,-0.983036,-0.098113,0.001405,0.003986,-0.003465,-11.488283,-44.753960,-3.836085,,,,,,,
1558973035.031164,1.011794,1.387828,-1.282831,0.102978,-0.032281,0.013462,0.154253,-0.983308,-0.096495,-0.003008,0.001908,-0.000398,-11.508524,-44.750179,-3.819458,,,,,,,
1558973035.051152,1.025931,1.389762,-1.298132,0.077382,-0.059663,-0.010307,0.153976,-0.983658,-0.093319,-0.003997,0.010941,0.025631,-11.541454,-44.755859,-3.649778,,,,,,,
1558973035.071138,1.031614,1.390373,-1.304532,-0.017242,-0.024279,-0.006841,0.153988,-0.983768,-0.092134,-0.002010,0.002460,0.008927,-11.541237,-44.765045,-3.536040,,,,,,,
1558973035.091101,1.024238,1.389549,-1.296731,-0.096857,0.046971,0.001251,0.153996,-0.983620,-0.093688,-0.002110,0.000328,-0.001832,-11.541237,-44.765045,-3.536040,,,,,,,
1558973035.111110,1.018225,1.388225,-1.288918,-0.059532,0.079579,0.026146,0.154539,-0.983380,-0.095296,0.009875,0.005566,0.003530,-11.528773,-44.755669,-3.692013,,,,,,,
1558973035.131096,1.017153,1.388525,-1.286689,-0.019256,0.033942,0.043890,0.154185,-0.983435,-0.095307,0.001363,0.005789,0.009217,-11.529026,-44.752251,-3.732390,,,,,,,
1558973035.151054,1.013390,1.389402,-1.282184,-0.029914,0.028710,0.041697,0.153094,-0.983593,-0.095430,-0.006579,0.012432,0.002779,-11.561565,-44.743900,-3.731872,,,,,,,
1558973035.171060,1.007637,1.390031,-1.276127,-0.035306,-0.000886,0.023262,0.152020,-0.983706,-0.095979,-0.013500,0.022464,0.005113,-11.616459,-44.726444,-3.770485,,,,,,,
1558973035.191025,1.003555,1.390000,-1.272144,-0.037435,-0.013601,-0.004619,0.151652,-0.983701,-0.096615,-0.007914,0.019254,-0.009968,-11.651760,-44.715355,-3.793014,,,,,,,
1558973035.211034,0.997595,1.389068,-1.266509,-0.028893,-0.010494,-0.017395,0.151843,-0.983533,-0.098014,-0.004825,0.018369,-0.020867,-11.649090,-44.714737,-3.808387,,,,,,,
1558973035.231012,0.994497,1.388151,-1.263282,0.053174,0.029263,-0.002003,0.152296,-0.983367,-0.098976,0.008669,0.014113,-0.018700,-11.635468,-44.711403,-3.888382,,,,,,,
1558973035.250992,1.002497,1.389004,-1.271251,0.114732,-0.012240,0.027542,0.152375,-0.983521,-0.097302,0.010924,0.012116,0.002622,-11.611605,-44.720509,-3.854845,,,,,,,
1558973035.270998,1.011662,1.390703,-1.280969,0.077442,-0.018372,0.037061,0.151844,-0.983827,-0.095015,0.006497,0.010225,0.013258,-11.625515,-44.721516,-3.800839,,,,,,,
1558973035.290984,1.012802,1.391703,-1.281675,-0.038392,0.040373,0.037531,0.151117,-0.984006,-0.094321,-0.000361,-0.004047,0.007941,-11.666306,-44.719990,-3.692265,,,,,,,
1558973035.310970,1.005492,1.391547,-1.273237,-0.053251,0.052072,0.033360,0.150553,-0.983978,-0.095506,0.002187,-0.006409,-0.007415,-11.694929,-44.707611,-3.751204,,,,,,,
1558973035.330957,1.002744,1.391770,-1.269841,0.025401,0.012537,0.025571,0.150105,-0.984018,-0.095801,0.004863,-0.008857,-0.010416,-11.707962,-44.701988,-3.777439,,,,,,,
1558973035.350943,1.007031,1.392843,-1.274610,0.061460,-0.033120,0.014486,0.149622,-0.984208,-0.094592,-0.001002,-0.011733,0.002506,-11.736649,-44.696922,-3.748246,,,,,,,
1558973035.370928,1.008450,1.393464,-1.276630,0.001904,-0.022257,0.001732,0.149239,-0.984318,-0.094054,-0.006829,-0.015316,0.001570,-11.760083,-44.695202,-3.694876,,,,,,,
1558973035.390914,1.005297,1.393471,-1.273453,-0.032065,0.008582,0.006271,0.148936,-0.984319,-0.094520,-0.006160,-0.016551,-0.000283,-11.761265,-44.694893,-3.694877,,,,,,,
1558973035.410901,1.000370,1.393799,-1.268047,-0.021359,0.031794,0.016113,0.148197,-0.984377,-0.095078,-0.009326,-0.012663,-0.003326,-11.792315,-44.683144,-3.737775,,,,,,,
1558973035.430888,0.997080,1.394516,-1.263774,-0.015945,0.060306,0.017461,0.147290,-0.984503,-0.095182,-0.012692,-0.009821,0.003782,-11.828505,-44.671707,-3.760034,,,,,,,
1558973035.450846,0.994682,1.394652,-1.260340,-0.029870,0.025470,-0.001033,0.146949,-0.984527,-0.095463,-0.008674,-0.007081,-0.001064,-11.852271,-44.664040,-3.776331,,,,,,,
1558973035.470849,0.988788,1.394581,-1.255041,-0.023701,-0.054943,-0.032756,0.146442,-0.984514,-0.096365,-0.013508,-0.007841,-0.015039,-11.879051,-44.653973,-3.811056,,,,,,,
1558973035.490821,0.979736,1.393353,-1.247043,-0.069358,-0.030432,-0.059246,0.146568,-0.984298,-0.098361,-0.014458,-0.004822,-0.018460,-11.890243,-44.647282,-3.854297,,,,,,,
1558973035.510810,0.971066,1.391329,-1.237979,-0.081894,0.044686,-0.055332,0.147354,-0.983939,-0.100752,-0.006454,0.005164,-0.016207,-11.868576,-44.644638,-3.950433,,,,,,,
1558973035.530816,0.964496,1.389442,-1.230700,-0.044734,0.023372,-0.040559,0.148214,-0.983600,-0.102776,-0.001684,0.003879,-0.024361,-11.834743,-44.646660,-4.028422,,,,,,,
1558973035.550797,0.954726,1.387262,-1.221028,-0.049094,-0.008326,-0.047271,0.148953,-0.983205,-0.105458,0.000583,-0.006007,-0.043255,-11.784155,-44.646309,-4.177797,,,,,,,
1558973035.570787,0.948908,1.385084,-1.215112,-0.061758,0.022379,-0.056597,0.150077,-0.982805,-0.107570,0.002526,-0.010435,-0.049672,-11.784155,-44.646309,-4.177797,,,,,,,
1558973035.590776,0.940061,1.382764,-1.205387,-0.086165,0.061663,-0.025279,0.150961,-0.982374,-0.110238,-0.004171,0.008985,-0.066199,-11.711763,-44.644382,-4.396211,,,,,,,
1558973035.610762,0.923545,1.380530,-1.186726,-0.122144,0.146467,0.011806,0.150870,-0.981954,-0.114039,-0.013571,0.002492,-0.088247,-11.674771,-44.639275,-4.543982,,,,,,,
1558973035.630747,0.913653,1.379198,-1.172678,-0.159232,0.209062,0.036931,0.150770,-0.981701,-0.116324,-0.011945,0.005566,-0.090905,-11.674771,-44.639275,-4.543982,,,,,,,
1558973035.650735,0.901265,1.377821,-1.156176,-0.159303,0.188984,0.039941,0.150377,-0.981438,-0.119022,-0.021333,0.015511,-0.134549,-11.699694,-44.596054,-4.891073,,,,,,,
1558973035.670720,0.893799,1.376296,-1.144362,-0.120826,0.216197,-0.004609,0.150651,-0.981144,-0.121079,-0.015962,0.009724,-0.175307,-11.710077,-44.562374,-5.165466,,,,,,,
1558973035.690705,0.894429,1.374677,-1.140142,-0.058860,0.259126,-0.060733,0.151966,-0.980830,-0.121978,-0.012409,-0.000417,-0.180344,-11.694231,-44.557613,-5.241878,,,,,,,
1558973035.710692,0.903520,1.373002,-1.143215,-0.012808,0.329656,-0.092051,0.154358,-0.980502,-0.121608,-0.005280,0.009311,-0.194737,-11.566542,-44.571045,-5.408345,,,,,,,
1558973035.730651,0.916768,1.371861,-1.149300,0.029980,0.393938,-0.071234,0.156844,-0.980278,-0.120233,-0.018233,0.040046,-0.180518,-11.451016,-44.591255,-5.487004,,,,,,,
1558973035.750663,0.933767,1.371941,-1.157364,0.085633,0.502574,-0.032782,0.158801,-0.980293,-0.117503,-0.028079,0.046242,-0.173238,-11.451016,-44.591255,-5.487004,,,,,,,
1558973035.770651,0.952473,1.372513,-1.164874,0.062475,0.590456,-0.013809,0.160515,-0.980406,-0.114187,-0.025047,0.083907,-0.155817,-11.272333,-44.624260,-5.587731,,,,,,,
1558973035.790634,0.969665,1.372839,-1.170303,0.052916,0.594726,-0.019114,0.162191,-0.980470,-0.111230,-0.017202,0.113634,-0.158026,-11.212231,-44.631577,-5.649891,,,,,,,
1558973035.810622,0.987848,1.372919,-1.176452,0.053004,0.611606,-0.040306,0.164121,-0.980486,-0.108220,-0.010572,0.124758,-0.166164,-11.148176,-44.639408,-5.714435,,,,,,,
1558973035.830609,1.007527,1.372066,-1.184243,0.116889,0.599582,-0.080941,0.166925,-0.980318,-0.105416,0.020041,0.126162,-0.157554,-10.980003,-44.666504,-5.827168,,,,,,,
1558973035.850571,1.039404,1.371983,-1.205342,0.218952,0.541906,-0.121982,0.170271,-0.980302,-0.100083,0.014864,0.143769,-0.151000,-10.811475,-44.703213,-5.860703,,,,,,,
1558973035.870579,1.080464,1.372654,-1.235716,0.297884,0.594354,-0.113943,0.173655,-0.980434,-0.092700,0.005422,0.154872,-0.144834,-10.725545,-44.729889,-5.814861,,,,,,,
1558973035.890558,1.120884,1.373627,-1.262990,0.229072,0.740683,-0.046404,0.176400,-0.980625,-0.085192,-0.014397,0.173740,-0.083616,-10.482267,-44.810387,-5.635976,,,,,,,
1558973035.910553,1.153698,1.375609,-1.279571,0.163320,0.869102,0.071146,0.177323,-0.981011,-0.078571,-0.004395,0.164941,-0.064556,-10.386175,-44.834957,-5.618473,,,,,,,
1558973035.930519,1.177258,1.379346,-1.285121,0.106912,0.929836,0.197665,0.175737,-0.981729,-0.072966,-0.004747,0.170603,-0.062868,-10.375981,-44.834553,-5.640460,,,,,,,
1558973035.950507,1.197384,1.385192,-1.286370,0.139807,0.946733,0.303550,0.171824,-0.982825,-0.067320,-0.003870,0.166419,-0.013842,-10.499886,-44.788292,-5.777058,,,,,,,
1558973035.970510,1.218419,1.393305,-1.289010,0.174650,0.908656,0.409978,0.165712,-0.984290,-0.060936,-0.034059,0.158881,0.031304,-10.699868,-44.733624,-5.833438,,,,,,,
1558973035.990485,1.234891,1.402957,-1.286491,0.109830,0.983117,0.497118,0.157716,-0.985948,-0.055064,-0.038225,0.164918,0.033870,-10.699868,-44.733624,-5.833438,,,,,,,
1558973036.010461,1.236203,1.413571,-1.267368,-0.014709,1.024065,0.582822,0.147895,-0.987666,-0.051418,-0.057532,0.154368,0.028484,-11.152081,-44.606155,-5.961125,,,,,,,
1558973036.050431,1.226745,1.435785,-1.214030,0.091912,1.062568,0.552314,0.126713,-0.990900,-0.045402,-0.034901,0.133905,0.037024,-11.739355,-44.403652,-6.333732,,,,,,,
1558973036.030453,1.227260,1.424743,-1.236548,-0.028324,1.102389,0.605981,0.137031,-0.989353,-0.049019,-0.045219,0.132359,0.040642,-11.739355,-44.403652,-6.333732,,,,,,,
1558973036.070429,1.246079,1.446825,-1.214000,0.217098,0.913863,0.508285,0.117192,-0.992325,-0.039451,-0.054066,0.184266,0.091147,-12.454447,-44.153793,-6.703897,,,,,,,
1558973036.090427,1.268936,1.457370,-1.219722,0.160462,0.838024,0.487228,0.108065,-0.993574,-0.033649,-0.052035,0.192900,0.089084,-12.774281,-44.056656,-6.741089,,,,,,,
1558973036.110387,1.279399,1.467287,-1.213901,0.110338,0.807627,0.482626,0.098969,-0.994648,-0.029684,-0.043183,0.181186,0.090613,-12.932219,-44.004059,-6.783342,,,,,,,
1558973036.130394,1.295030,1.477475,-1.213488,0.162446,0.803162,0.507181,0.089665,-0.995649,-0.025373,-0.050969,0.209516,0.088438,-13.245427,-43.893154,-6.896583,,,,,,,
1558973036.150385,1.316984,1.489079,-1.219388,0.180420,0.801067,0.584046,0.079012,-0.996663,-0.020496,-0.045748,0.197148,0.117603,-13.758441,-43.717083,-7.009664,,,,,,,
1558973036.170371,1.350535,1.502461,-1.236842,0.259118,0.813451,0.660031,0.066633,-0.997666,-0.014919,-0.041395,0.193360,0.149852,-13.758441,-43.717083,-7.009664,,,,,,,
1558973036.190358,1.415739,1.517143,-1.286380,0.270569,0.757443,0.709683,0.052984,-0.998561,-0.008282,-0.074941,0.177837,0.228009,-14.661927,-43.416767,-7.044516,,,,,,,
1558973036.210343,1.458057,1.532295,-1.314348,0.095792,0.722508,0.766861,0.038246,-0.999259,-0.004330,-0.104668,0.182670,0.255063,-15.189854,-43.228951,-7.080928,,,,,,,
1558973036.230329,1.364064,1.547923,-1.204702,-0.124350,0.801938,0.803745,0.022387,-0.999738,-0.004695,-0.097125,0.165159,0.241145,-15.472172,-43.115055,-7.163583,,,,,,,
1558973036.250315,0.716750,1.560384,-0.541639,-0.161728,0.747110,0.763688,0.006839,-0.999946,-0.007849,-0.085514,0.151801,0.233481,-16.319048,-42.708836,-7.697857,,,,,,,
1558973036.270286,-0.672399,1.559069,0.859299,0.006701,0.460715,0.685278,-0.007303,-0.999931,-0.009173,-0.075476,0.128242,0.194613,-16.838882,-42.449203,-8.008140,,,,,,,
1558973036.290287,-1.286184,1.549486,1.479284,0.259459,0.269084,0.658023,-0.020450,-0.999773,-0.005983,-0.072613,0.125872,0.207933,-17.092537,-42.337212,-8.063439,,,,,,,
1558973036.310274,-1.598461,1.536683,1.797752,0.389467,0.331886,0.701434,-0.034094,-0.999418,0.000943,-0.082239,0.087644,0.278598,-17.867365,-42.052040,-7.873775,,,,,,,
1558973036.330247,-1.744229,1.521029,1.950635,0.393659,0.343594,0.770946,-0.048999,-0.998762,0.008584,-0.081112,0.081449,0.328940,-18.278957,-41.903717,-7.718230,,,,,,,
1558973036.350245,-1.812067,1.504078,2.024142,0.369852,0.230635,0.781590,-0.064737,-0.997775,0.015930,-0.082510,0.072238,0.348893,-18.722654,-41.735428,-7.565013,,,,,,,
1558973036.370232,-1.836927,1.487285,2.051652,0.264967,0.066316,0.798083,-0.080478,-0.996515,0.021938,-0.065228,0.044122,0.356343,-19.654606,-41.362446,-7.242773,,,,,,,
1558973036.390210,-1.830249,1.469205,2.044756,0.181470,-0.004891,0.953211,-0.098022,-0.994844,0.026019,-0.083924,0.004869,0.348310,-20.162296,-41.141769,-7.102804,,,,,,,
1558973036.410203,-1.808917,1.447199,2.024481,0.152637,0.070646,1.180252,-0.119804,-0.992372,0.029079,-0.073464,-0.027175,0.325703,-20.748365,-40.868595,-6.991200,,,,,,,
1558973036.430191,-1.790538,1.421085,2.006873,0.200110,0.023101,1.361335,-0.145566,-0.988814,0.032512,-0.133075,-0.029237,0.379292,-22.194681,-40.129227,-6.830381,,,,,,,
1558973036.450174,-1.779775,1.393211,1.992696,0.139434,-0.300025,1.362464,-0.172810,-0.984273,0.036649,-0.128734,-0.049144,0.324374,-23.027525,-39.680199,-6.695374,,,,,,,
1558973036.470162,-1.763880,1.368760,1.967360,-0.048235,-0.483240,1.173722,-0.196936,-0.979660,0.038505,-0.120172,-0.062180,0.300301,-23.859772,-39.216454,-6.511095,,,,,,,
1558973036.490148,-1.750368,1.348117,1.944408,-0.035081,-0.445510,1.003270,-0.217292,-0.975309,0.039444,-0.099801,-0.090380,0.323120,-24.850941,-38.630619,-6.302304,,,,,,,
1558973036.510134,-1.743944,1.329868,1.926769,-0.056813,-0.626297,0.901163,-0.235036,-0.971117,0.041108,-0.127894,-0.149214,0.305282,-26.076454,-37.865898,-5.983760,,,,,,,
1558973036.530120,-1.742836,1.313185,1.908636,-0.075814,-0.928592,0.841669,-0.251011,-0.967001,0.043615,-0.147854,-0.156686,0.310374,-26.821949,-37.394615,-5.642594,,,,,,,
1558973036.550095,-1.748769,1.296945,1.893104,-0.063573,-1.094621,0.832616,-0.266170,-0.962736,0.047877,-0.191258,-0.165193,0.339024,-27.552742,-36.932522,-5.142806,,,,,,,
1558973036.570084,-1.748379,1.282284,1.869219,-0.323325,-1.142016,0.740137,-0.280052,-0.958668,0.050262,-0.167931,-0.182445,0.330552,-28.251360,-36.471352,-4.616715,,,,,,,
1558973036.590064,-1.726494,1.270711,1.822102,-0.703331,-1.172902,0.662666,-0.292026,-0.955311,0.045839,-0.151898,-0.171230,0.320372,-28.567078,-36.247997,-4.429231,,,,,,,
1558973036.610040,-1.697676,1.259988,1.765671,-0.763433,-1.327987,0.649389,-0.303370,-0.952087,0.038699,-0.159445,-0.165070,0.240079,-29.434128,-35.582512,-4.138872,,,,,,,
1558973036.630050,-1.679556,1.249034,1.716270,-0.670287,-1.503990,0.615750,-0.314370,-0.948680,0.034326,-0.190543,-0.187124,0.219031,-29.999830,-35.143143,-3.818748,,,,,,,
1558973036.650031,-1.667717,1.238786,1.672447,-0.641274,-1.448210,0.556519,-0.324414,-0.945389,0.031541,-0.189807,-0.201599,0.229796,-30.269682,-34.934570,-3.596574,,,,,,,
1558973036.670007,-1.656645,1.230453,1.628226,-0.721525,-1.629775,0.435140,-0.332581,-0.942640,0.028622,-0.161895,-0.263659,0.161670,-30.971664,-34.378235,-2.916500,,,,,,,
1558973036.690008,-1.649340,1.224737,1.584053,-0.704607,-1.729436,0.292202,-0.338148,-0.940717,0.026614,-0.186617,-0.270099,0.171933,-31.322130,-34.102455,-2.357875,,,,,,,
1558973036.709975,-1.646537,1.221884,1.544460,-0.634083,-1.721590,0.131119,-0.340895,-0.939745,0.025869,-0.192003,-0.254408,0.196192,-31.453640,-34.000946,-2.053617,,,,,,,
1558973036.729954,-1.648182,1.221961,1.506994,-0.666598,-1.958388,-0.001427,-0.340781,-0.939771,0.026424,-0.136957,-0.259676,0.168980,-31.654682,-33.860306,-1.036266,,,,,,,
1558973036.749966,-1.645975,1.223872,1.460440,-0.897033,-2.139048,-0.041872,-0.339046,-0.940423,0.025537,-0.139378,-0.282966,0.137473,-31.666677,-33.862041,-0.443489,,,,,,,
1558973036.769935,-1.634146,1.226587,1.401559,-1.025897,-2.179667,-0.090408,-0.336776,-0.941343,0.021363,-0.176698,-0.349521,0.036880,-31.638386,-33.890137,0.290608,,,,,,,
1558973036.789939,-1.624525,1.231597,1.346407,-0.876315,-2.095109,-0.274182,-0.332252,-0.943021,0.017869,-0.157585,-0.349505,0.006149,-31.486233,-34.013329,1.150588,,,,,,,
1558973036.809924,-1.620816,1.240450,1.298029,-0.811103,-2.097850,-0.465265,-0.323965,-0.945930,0.016218,-0.147868,-0.359658,-0.022184,-31.181313,-34.259880,1.897245,,,,,,,
1558973036.829910,-1.612672,1.251970,1.244929,-0.917476,-2.128119,-0.582014,-0.313177,-0.949604,0.013122,-0.147180,-0.369701,-0.055755,-30.972851,-34.426094,2.267100,,,,,,,
1558973036.849896,-1.601023,1.265512,1.186450,-0.898533,-2.240412,-0.683432,-0.300427,-0.953761,0.009084,-0.191791,-0.445439,-0.151021,-30.177483,-35.043968,3.294417,,,,,,,
1558973036.869860,-1.592234,1.281553,1.131905,-0.786074,-2.108071,-0.851832,-0.285161,-0.958460,0.006114,-0.194011,-0.470876,-0.181590,-29.495068,-35.546799,4.009900,,,,,,,
1558973036.889868,-1.577978,1.301518,1.075134,-0.817235,-1.968695,-1.061917,-0.266029,-0.963963,0.001911,-0.203515,-0.447734,-0.190494,-29.093987,-35.837254,4.340995,,,,,,,
1558973036.909854,-1.550936,1.324873,1.008259,-0.861248,-1.839777,-1.242218,-0.243404,-0.969913,-0.004835,-0.214772,-0.395916,-0.199130,-27.637699,-36.874184,5.105385,,,,,,,
1558973036.929825,-1.507598,1.351186,0.927687,-0.875460,-1.708891,-1.416071,-0.217414,-0.975982,-0.013759,-0.190789,-0.349716,-0.237874,-26.778744,-37.467449,5.357472,,,,,,,
1558973036.949825,-1.445837,1.379238,0.830292,-0.844324,-1.672204,-1.512851,-0.188904,-0.981709,-0.023729,-0.184585,-0.327739,-0.254912,-25.837292,-38.097019,5.537573,,,,,,,
1558973036.969812,-1.365254,1.406888,0.715332,-0.725891,-1.598870,-1.535542,-0.159741,-0.986597,-0.033304,-0.163913,-0.245550,-0.263983,-23.796061,-39.364136,5.815959,,,,,,,
1558973036.989792,-1.264198,1.433093,0.581651,-0.591509,-1.510754,-1.513238,-0.130867,-0.990534,-0.041430,-0.197380,-0.194769,-0.236295,-22.746529,-39.958736,5.958846,,,,,,,
1558973037.009784,-1.118674,1.457103,0.406742,-0.582434,-1.342744,-1.518029,-0.102050,-0.993544,-0.049563,-0.231187,-0.160829,-0.218824,-21.696621,-40.517067,6.102192,,,,,,,
1558973037.029770,-0.890789,1.475752,0.152425,-0.642787,-1.219732,-1.463518,-0.073792,-0.995487,-0.059674,-0.227584,-0.091290,-0.215259,-19.595474,-41.560661,6.192109,,,,,,,
1558973037.049729,-0.591090,1.485439,-0.172151,-0.610765,-1.142574,-1.352786,-0.047509,-0.996359,-0.070789,-0.219962,-0.040048,-0.219799,-18.255177,-42.178314,6.111579,,,,,,,
1558973037.069742,-0.282620,1.485614,-0.502224,-0.581501,-0.929034,-1.233277,-0.023726,-0.996374,-0.081704,-0.239793,-0.018244,-0.217948,-17.622639,-42.454163,6.058032,,,,,,,
1558973037.089728,-0.015634,1.476450,-0.785002,-0.684862,-0.601757,-1.154425,-0.001473,-0.995553,-0.094195,-0.217598,0.038155,-0.234586,-15.892822,-43.176044,5.732393,,,,,,,
1558973037.109696,0.178014,1.459469,-0.986631,-0.791199,-0.199388,-1.056706,0.019673,-0.993809,-0.109342,-0.169789,0.122197,-0.253619,-14.869433,-43.601696,5.235004,,,,,,,
1558973037.129698,0.303200,1.439080,-1.112856,-0.810680,0.076757,-0.947314,0.039213,-0.991338,-0.125344,-0.173109,0.148397,-0.242438,-14.869433,-43.601696,5.235004,,,,,,,
1558973037.149664,0.385567,1.417544,-1.194600,-0.813021,0.034561,-0.898608,0.057410,-0.988280,-0.141446,-0.157310,0.219023,-0.303454,-13.566744,-44.136597,4.185436,,,,,,,
1558973037.169647,0.448853,1.397129,-1.258658,-0.635300,0.016703,-0.906110,0.074982,-0.984958,-0.155679,-0.153107,0.219836,-0.308356,-12.380419,-44.570683,3.129332,,,,,,,
1558973037.189643,0.522938,1.378978,-1.330418,-0.457474,0.287191,-1.060323,0.095213,-0.981659,-0.165166,-0.157332,0.207733,-0.310344,-12.380419,-44.570683,3.129332,,,,,,,
1558973037.209619,0.599141,1.358657,-1.398075,-0.529683,0.638414,-1.116807,0.118737,-0.977583,-0.173878,-0.121423,0.259214,-0.255321,-10.556350,-45.097473,2.096320,,,,,,,
1558973037.229621,0.659638,1.338353,-1.443593,-0.502663,0.857383,-0.908634,0.141169,-0.973107,-0.182030,-0.118403,0.277214,-0.239845,-9.844358,-45.277641,1.623838,,,,,,,
1558973037.249609,0.699711,1.323833,-1.467674,-0.297950,0.806130,-0.533149,0.157432,-0.969659,-0.187020,-0.112922,0.270669,-0.231315,-9.086944,-45.453045,1.030180,,,,,,,
1558973037.269586,0.728858,1.316755,-1.480181,-0.113870,0.905979,-0.264066,0.167382,-0.967905,-0.187467,-0.146874,0.240656,-0.189410,-8.580881,-45.559334,0.572917,,,,,,,
1558973037.289588,0.755633,1.312000,-1.484957,-0.169218,1.263645,-0.193425,0.175495,-0.966699,-0.186266,-0.165394,0.249581,-0.149549,-8.428990,-45.589779,0.370246,,,,,,,
1558973037.309573,0.781256,1.305138,-1.479321,-0.391287,1.717232,-0.180721,0.184876,-0.964920,-0.186414,-0.152741,0.250702,-0.071825,-8.258389,-45.622486,-0.028952,,,,,,,
1558973037.329561,0.798267,1.295321,-1.458657,-0.609072,1.872776,-0.129227,0.194795,-0.962296,-0.189845,-0.097398,0.282105,-0.040608,-8.043536,-45.651829,-0.908267,,,,,,,
1558973037.349546,0.805004,1.286110,-1.428162,-0.607545,1.755654,0.014853,0.202451,-0.959750,-0.194664,-0.090360,0.272021,-0.053245,-7.945977,-45.651428,-1.556183,,,,,,,
1558973037.369514,0.812023,1.280042,-1.399424,-0.427851,1.725217,0.084103,0.208034,-0.958028,-0.197242,-0.075161,0.263784,-0.071191,-7.898332,-45.624813,-2.367696,,,,,,,
1558973037.389519,0.827173,1.277668,-1.380571,-0.182400,1.598169,0.102301,0.212672,-0.957345,-0.195606,-0.049769,0.266030,-0.037548,-7.883068,-45.581924,-3.123846,,,,,,,
