timestamp(unix),attitude_roll(radians),attitude_pitch(radians),attitude_yaw(radians),rotation_rate_x(radians/s),rotation_rate_y(radians/s),rotation_rate_z(radians/s),gravity_x(G),gravity_y(G),gravity_z(G),user_acc_x(G),user_acc_y(G),user_acc_z(G),magnetic_field_x(microteslas),magnetic_field_y(microteslas),magnetic_field_z(microteslas),latitude(degree),longitude(degree),altitude(meter),speed(m/s),course(degree),timestamp(unix),User Mark
1558972768.435264,-0.273218,1.130296,3.041311,0.594389,0.424885,-0.210615,-0.115054,-0.904539,-0.410576,-0.004377,0.037351,-0.065453,18.241747,-38.036037,-25.674078,,,,,,,
1558972768.455264,-0.267507,1.148374,3.041347,0.990596,0.157459,-0.233143,-0.108367,-0.912099,-0.395389,0.007003,0.039326,-0.062573,18.600468,-38.340477,-24.953775,,,,,,,
1558972768.475225,-0.270146,1.167866,3.038399,0.855637,-0.497433,-0.403937,-0.104645,-0.919916,-0.377894,-0.008102,0.076105,-0.084142,18.711815,-38.544010,-24.553768,,,,,,,
1558972768.495235,-0.269804,1.184884,3.024963,0.682777,-0.656243,-0.477128,-0.100328,-0.926455,-0.362788,0.027726,-0.047879,-0.007406,18.844191,-38.919735,-23.849747,,,,,,,
1558972768.515220,-0.272022,1.197902,3.015119,0.513896,-0.440447,-0.252060,-0.097883,-0.931277,-0.350916,0.013991,-0.008756,-0.003042,18.860641,-39.062519,-23.602028,,,,,,,
1558972768.535205,-0.275918,1.206213,3.014268,0.343220,-0.141197,-0.066765,-0.097138,-0.934273,-0.343073,-0.002548,0.027855,-0.028189,18.859526,-39.167793,-23.427811,,,,,,,
1558972768.555191,-0.276668,1.209147,3.015734,0.363046,0.078603,-0.036885,-0.096646,-0.935315,-0.340362,-0.002933,0.030117,-0.051621,18.870750,-39.345421,-23.119104,,,,,,,
1558972768.575175,-0.279753,1.217283,3.017007,0.396763,-0.374054,-0.089235,-0.095591,-0.938162,-0.332737,-0.100179,0.057578,-0.189510,18.931870,-39.410645,-22.957481,,,,,,,
1558972768.595161,-0.293649,1.224273,3.011705,0.305286,-1.104308,-0.317301,-0.098305,-0.940559,-0.325092,-0.101707,0.077995,-0.017544,18.767874,-39.499706,-22.939053,,,,,,,
1558972768.615116,-0.281656,1.235993,2.977539,0.459259,-0.870377,-0.971542,-0.091329,-0.944475,-0.315636,0.012517,0.054262,0.079446,18.626225,-39.475689,-23.095316,,,,,,,
1558972768.635125,-0.238312,1.252792,2.915859,0.603334,-0.850296,-1.174087,-0.073810,-0.949861,-0.303835,0.058902,-0.023497,-0.045042,19.002022,-39.343021,-23.015432,,,,,,,
1558972768.655118,-0.205244,1.269987,2.860845,0.697343,-0.944447,-0.894122,-0.060386,-0.955097,-0.290075,0.104835,-0.059536,0.081823,19.493465,-39.183701,-22.875807,,,,,,,
1558972768.675105,-0.194890,1.285775,2.833557,0.636482,-0.711699,-0.260964,-0.054453,-0.959656,-0.275855,0.148462,-0.115112,0.068458,19.735931,-39.212376,-22.617306,,,,,,,
1558972768.695082,-0.223287,1.292756,2.850764,0.254068,-0.508963,0.318301,-0.060778,-0.961595,-0.267658,0.078097,-0.007277,0.006168,19.544949,-39.376499,-22.497702,,,,,,,
1558972768.715074,-0.255088,1.295621,2.874757,0.257662,-0.434087,0.215459,-0.068562,-0.962377,-0.262924,0.001988,0.073965,-0.033509,19.083294,-39.604851,-22.493204,,,,,,,
1558972768.735061,-0.283686,1.304573,2.890403,0.659895,-0.888889,0.022454,-0.073638,-0.964771,-0.252574,0.020125,0.005070,-0.040928,18.626122,-39.877151,-22.395098,,,,,,,
1558972768.755025,-0.333793,1.323292,2.915570,1.202748,-1.579966,-0.050988,-0.080264,-0.969527,-0.231464,0.039935,-0.013765,-0.036236,18.098431,-40.271046,-22.121250,,,,,,,
1558972768.775031,-0.384262,1.355966,2.920519,1.706699,-2.678541,-0.630155,-0.079916,-0.977013,-0.197635,0.039587,-0.006279,-0.070065,18.098431,-40.271046,-22.121250,,,,,,,
1558972768.795017,-0.467963,1.393954,2.950722,1.859609,-2.671551,-0.365189,-0.079353,-0.984404,-0.157008,-0.057442,-0.095506,-0.151158,16.844803,-41.337292,-21.122055,,,,,,,
1558972768.814986,-0.594074,1.421381,3.039161,1.334228,-1.401986,-0.026758,-0.083323,-0.988858,-0.123356,0.091304,-0.034732,0.063877,16.212261,-41.831318,-20.638885,,,,,,,
1558972768.834987,-0.683456,1.436120,3.106792,0.578233,-1.148579,-0.039885,-0.084788,-0.990945,-0.104112,0.140940,-0.123481,0.089036,15.795271,-42.229473,-20.145504,,,,,,,
1558972768.854973,-0.707706,1.440374,3.110556,-0.023402,-0.955382,-0.192259,-0.084546,-0.991507,-0.098821,-0.030459,-0.097421,0.040426,15.240240,-42.503540,-19.996115,,,,,,,
1558972768.874953,-0.671790,1.441540,3.055133,-0.247892,-0.996733,-0.360456,-0.080224,-0.991658,-0.100889,-0.012961,-0.122691,-0.006258,15.115482,-42.417019,-20.272617,,,,,,,
1558972768.894943,-0.620248,1.440909,2.982629,-0.331878,-0.955040,-0.340906,-0.075283,-0.991576,-0.105396,-0.005192,-0.118317,-0.045177,15.003484,-42.202965,-20.795807,,,,,,,
1558972768.914929,-0.553281,1.440695,2.900415,-0.244164,-0.584761,-0.523063,-0.068173,-0.991549,-0.110379,-0.031909,-0.063459,-0.063480,14.922950,-42.020954,-21.218035,,,,,,,
1558972768.934890,-0.481780,1.444963,2.819042,0.052540,-0.358037,-0.544143,-0.058152,-0.992093,-0.111216,-0.017272,-0.059390,-0.087011,15.120581,-41.705284,-21.695568,,,,,,,
1558972768.954871,-0.433740,1.453457,2.767416,0.333211,-0.091925,-0.434607,-0.049201,-0.993124,-0.106230,-0.008660,-0.028361,-0.089128,15.424121,-41.585670,-21.711481,,,,,,,
1558972768.974884,-0.396505,1.465548,2.729816,0.534815,0.039157,-0.424649,-0.040572,-0.994466,-0.096904,-0.007341,0.038061,-0.067433,15.850274,-41.624123,-21.327480,,,,,,,
1558972768.994871,-0.365415,1.478407,2.700702,0.542502,0.153412,-0.331732,-0.032967,-0.995735,-0.086167,0.007073,0.063362,-0.086441,16.123814,-41.698292,-20.974632,,,,,,,
1558972769.014834,-0.352572,1.489282,2.692267,0.424573,0.286365,-0.192828,-0.028117,-0.996680,-0.076415,-0.014333,0.083334,-0.082322,16.444050,-41.822365,-20.472982,,,,,,,
1558972769.034813,-0.282858,1.494419,2.635367,0.007220,0.879324,-0.262222,-0.021296,-0.997085,-0.073270,-0.093984,0.120605,-0.074145,16.940981,-41.876835,-19.949783,,,,,,,
1558972769.054827,-0.222293,1.488914,2.597930,-0.488567,1.445848,0.095127,-0.018032,-0.996650,-0.079779,-0.019230,0.135291,-0.010034,17.483051,-41.749081,-19.748850,,,,,,,
1558972769.074804,-0.214070,1.468379,2.621742,-1.243098,1.671276,0.462884,-0.021719,-0.994760,-0.099905,-0.003381,0.186471,-0.042124,17.715918,-41.659389,-19.730728,,,,,,,
1558972769.094780,-0.248631,1.434985,2.695333,-1.681120,2.102533,1.044258,-0.033317,-0.990792,-0.131231,-0.031075,0.150963,-0.005107,18.078621,-41.189316,-20.378031,,,,,,,
1558972769.114784,-0.313252,1.393234,2.807833,-1.750250,2.382800,1.617008,-0.054429,-0.984277,-0.168035,0.064760,0.141397,-0.020594,18.021580,-40.979687,-20.845819,,,,,,,
1558972769.134740,-0.373642,1.351223,2.917984,-1.498113,2.406006,1.764768,-0.079504,-0.975990,-0.202785,0.091360,0.059349,-0.023534,17.786638,-40.859146,-21.279707,,,,,,,
1558972769.154753,-0.409930,1.316050,3.002442,-1.016321,2.116496,1.410059,-0.100433,-0.967727,-0.231121,0.077301,0.128891,-0.044300,17.243687,-40.812019,-21.810423,,,,,,,
1558972769.174740,-0.430789,1.298927,3.055264,-0.223312,1.144134,0.719160,-0.112136,-0.963271,-0.243999,0.030944,0.085509,-0.039464,17.067493,-40.901665,-21.781067,,,,,,,
1558972769.194706,-0.448069,1.295240,3.089723,0.119458,0.702224,0.455766,-0.117873,-0.962274,-0.245223,0.019576,0.065988,0.008880,17.011278,-41.023304,-21.595493,,,,,,,
1558972769.214686,-0.472672,1.293413,3.129932,0.187403,0.702046,0.576463,-0.124670,-0.961775,-0.243815,0.048605,0.002913,0.000025,16.882807,-41.302742,-21.159266,,,,,,,
1558972769.234695,-0.499796,1.291931,-3.110348,0.191823,0.711406,0.489009,-0.131920,-0.961369,-0.241594,-0.024941,0.006931,0.040163,16.699654,-41.584030,-20.749697,,,,,,,
1558972769.254674,-0.511661,1.291488,-3.086334,0.046725,0.461167,0.160866,-0.134985,-0.961246,-0.240384,-0.030557,-0.031368,0.067425,16.632166,-41.755875,-20.456738,,,,,,,
1558972769.274595,-0.503945,1.289604,-3.088252,-0.183737,0.204156,-0.047834,-0.134001,-0.960725,-0.243003,-0.020327,-0.041853,0.058448,16.720947,-41.793861,-20.306232,,,,,,,
1558972769.294574,-0.493641,1.289096,-3.096037,-0.237985,0.199108,-0.078888,-0.131721,-0.960584,-0.244801,-0.015587,-0.049914,0.011647,16.807779,-41.775970,-20.271334,,,,,,,
1558972769.314582,-0.474008,1.286939,-3.110075,-0.135125,0.368636,-0.152986,-0.127836,-0.959982,-0.249183,-0.040713,-0.034540,-0.001976,16.974850,-41.651489,-20.387943,,,,,,,
1558972769.334569,-0.460301,1.287556,-3.117646,-0.034069,0.302424,-0.249621,-0.124145,-0.960155,-0.250381,-0.015000,-0.036091,0.001297,17.244823,-41.574867,-20.317644,,,,,,,
1558972769.354542,-0.439446,1.289287,-3.134779,-0.047241,0.181995,-0.248649,-0.118189,-0.960637,-0.251411,-0.004476,-0.042323,0.004722,17.556271,-41.477718,-20.249344,,,,,,,
1558972769.374538,-0.418002,1.289107,3.129488,-0.154826,0.173090,-0.219994,-0.112841,-0.960587,-0.254045,-0.005628,-0.033126,0.000902,17.694088,-41.421432,-20.244614,,,,,,,
1558972769.394525,-0.395587,1.286741,3.109961,-0.204853,0.179711,-0.209293,-0.107995,-0.959927,-0.258607,-0.006324,-0.020862,-0.024413,18.068211,-41.198357,-20.368975,,,,,,,
1558972769.414510,-0.373703,1.284562,3.091542,-0.190857,0.232503,-0.199168,-0.103073,-0.959314,-0.262855,-0.003219,-0.013373,-0.033836,18.251888,-41.080761,-20.442596,,,,,,,
1558972769.434494,-0.349913,1.280396,3.072436,-0.116279,0.275517,-0.153855,-0.098160,-0.958129,-0.268984,-0.003997,-0.016053,-0.044538,18.444166,-40.968899,-20.494440,,,,,,,
1558972769.454480,-0.335007,1.280461,3.062904,0.018909,0.292833,-0.115146,-0.094120,-0.958148,-0.270359,-0.010937,-0.019208,-0.052334,18.810316,-40.761181,-20.575672,,,,,,,
1558972769.474445,-0.326115,1.283977,3.058473,0.218712,0.194535,-0.116995,-0.090632,-0.959148,-0.267993,-0.010869,0.005856,-0.053357,18.964251,-40.749706,-20.456745,,,,,,,
1558972769.494451,-0.319867,1.289317,3.054015,0.184116,0.019209,-0.146459,-0.087344,-0.960645,-0.263688,-0.000027,-0.006472,-0.044372,19.096792,-40.780540,-20.271160,,,,,,,
1558972769.514437,-0.309982,1.289606,3.043843,-0.023545,0.012962,-0.106117,-0.084649,-0.960726,-0.264274,-0.007926,-0.024244,-0.022638,19.303688,-40.753998,-20.128073,,,,,,,
1558972769.534412,-0.297836,1.290773,3.033559,0.084608,0.180371,-0.165284,-0.081104,-0.961049,-0.264210,-0.026105,0.019734,-0.081814,19.445290,-40.694698,-20.111746,,,,,,,
1558972769.554407,-0.286937,1.291619,3.025091,0.340494,0.028012,-0.073652,-0.077989,-0.961282,-0.264299,0.002504,0.007990,-0.071181,19.587564,-40.698360,-19.965740,,,,,,,
1558972769.574394,-0.294382,1.298706,3.030033,0.336489,-0.198101,-0.028843,-0.077976,-0.963211,-0.257185,-0.006344,0.003098,-0.030444,19.643656,-40.738995,-19.827280,,,,,,,
1558972769.594349,-0.299725,1.303090,3.031411,0.134328,-0.184401,-0.059835,-0.078101,-0.964380,-0.252727,-0.008004,0.002405,-0.012852,19.594681,-40.828663,-19.690834,,,,,,,
1558972769.614364,-0.297025,1.303471,3.026174,0.035588,-0.095060,-0.037707,-0.077311,-0.964481,-0.252586,0.006175,0.008197,-0.014977,19.583515,-40.838863,-19.680779,,,,,,,
1558972769.634349,-0.298608,1.304790,3.025799,0.092990,-0.114372,-0.027170,-0.077337,-0.964828,-0.251247,0.016332,0.010544,-0.026173,19.597639,-40.808228,-19.730209,,,,,,,
1558972769.654316,-0.297920,1.306858,3.022377,0.219548,-0.158407,-0.049912,-0.076578,-0.965370,-0.249393,0.016001,0.018150,-0.019177,19.595968,-40.810257,-19.727669,,,,,,,
1558972769.674304,-0.304199,1.312465,3.025352,0.301413,-0.181010,-0.032981,-0.076520,-0.966818,-0.243738,0.020474,0.023275,-0.008947,19.580362,-40.867878,-19.623606,,,,,,,
1558972769.694289,-0.306913,1.319583,3.024110,0.301168,-0.241207,-0.000467,-0.075100,-0.968612,-0.236963,0.028683,0.014693,0.023157,19.608778,-40.971611,-19.377380,,,,,,,
1558972769.714290,-0.317787,1.324314,3.029715,0.195539,-0.305065,-0.020350,-0.076240,-0.969777,-0.231777,0.023948,0.012105,0.032864,19.511478,-41.076168,-19.253857,,,,,,,
1558972769.734263,-0.322634,1.329075,3.027460,0.074135,-0.358450,-0.097831,-0.075897,-0.970927,-0.227023,0.012436,0.011134,0.035876,19.462194,-41.104534,-19.243196,,,,,,,
1558972769.754240,-0.319174,1.332108,3.017658,0.156511,-0.275516,-0.189856,-0.074187,-0.971649,-0.224488,-0.011750,0.035476,-0.003830,19.435345,-41.120285,-19.236679,,,,,,,
1558972769.774247,-0.311085,1.338038,3.004559,0.269459,-0.226381,-0.157269,-0.070604,-0.973034,-0.219591,0.018190,0.013546,0.000154,19.495775,-41.125793,-19.163609,,,,,,,
1558972769.794230,-0.315882,1.343501,3.004142,0.246649,-0.323371,-0.066398,-0.070004,-0.974279,-0.214194,0.031537,0.008215,0.006949,19.558126,-41.128189,-19.094814,,,,,,,
1558972769.814219,-0.325861,1.348408,3.004079,0.231909,-0.611905,-0.097998,-0.070607,-0.975373,-0.208953,0.022481,-0.002578,0.016876,19.438953,-41.223717,-19.010323,,,,,,,
1558972769.834204,-0.334338,1.354807,2.997366,0.331488,-0.815560,-0.222647,-0.070326,-0.976765,-0.202446,0.020201,-0.010692,0.011040,19.324150,-41.256474,-19.056252,,,,,,,
1558972769.854167,-0.338968,1.365831,2.985321,0.571277,-0.787411,-0.348168,-0.067678,-0.979068,-0.191952,-0.017695,0.016345,-0.018513,19.229893,-41.288071,-19.083149,,,,,,,
1558972769.874173,-0.354529,1.378305,2.987579,0.626911,-0.590736,-0.103885,-0.066411,-0.981531,-0.179408,0.067601,-0.061713,0.002223,19.133444,-41.444717,-18.838974,,,,,,,
1558972769.894160,-0.370795,1.391565,2.992332,0.617422,-0.625773,-0.241955,-0.064599,-0.983981,-0.166158,-0.017311,-0.023526,0.021383,19.052578,-41.622150,-18.527166,,,,,,,
1558972769.914132,-0.376463,1.404403,2.984132,0.540527,-0.744950,-0.334975,-0.060890,-0.986189,-0.154028,0.007545,-0.037340,0.006902,19.041267,-41.686260,-18.394190,,,,,,,
1558972769.934110,-0.373233,1.416685,2.964943,0.506447,-0.773387,-0.386522,-0.055971,-0.988148,-0.142934,-0.010267,-0.023174,-0.010249,19.045031,-41.766148,-18.208120,,,,,,,
1558972769.954118,-0.357031,1.429253,2.934613,0.523053,-0.615040,-0.465066,-0.049304,-0.989999,-0.132175,-0.029905,-0.025824,-0.028515,19.103695,-41.810966,-18.043056,,,,,,,
1558972769.974102,-0.323782,1.443873,2.891371,0.647300,-0.420271,-0.549582,-0.040273,-0.991956,-0.120005,-0.017115,-0.010806,-0.024328,19.291798,-41.821430,-17.817253,,,,,,,
1558972769.994087,-0.280606,1.460919,2.838797,0.749206,-0.502182,-0.539608,-0.030368,-0.993970,-0.105367,0.020083,-0.005908,-0.016932,19.672213,-41.852135,-17.322321,,,,,,,
1558972770.014072,-0.234161,1.478152,2.780072,0.777310,-0.663948,-0.469602,-0.021465,-0.995712,-0.089986,0.023952,0.008453,-0.026179,19.912052,-41.907734,-16.908936,,,,,,,
1558972770.034057,-0.182635,1.495660,2.713755,0.816386,-0.749744,-0.451174,-0.013634,-0.997179,-0.073817,0.013862,0.015626,-0.030736,20.033035,-41.961594,-16.630165,,,,,,,
1558972770.054044,-0.109027,1.513520,2.624076,0.842733,-0.807946,-0.402599,-0.006229,-0.998360,-0.056905,0.005283,0.047356,-0.032938,20.177834,-42.080299,-16.148174,,,,,,,
1558972770.074024,-0.054613,1.529205,2.554716,0.715910,-0.721232,-0.113606,-0.002270,-0.999135,-0.041517,-0.035557,0.004430,-0.071657,20.192614,-42.210926,-15.784682,,,,,,,
1558972770.094004,-0.010460,1.543162,2.483190,0.809087,-1.900477,-0.239057,-0.000289,-0.999618,-0.027628,0.009490,0.112686,0.060786,20.057413,-42.337765,-15.616463,,,,,,,
1558972770.114001,1.307386,1.560010,1.133541,1.333856,-1.442974,-0.639963,0.010416,-0.999942,-0.002809,0.076574,-0.088483,0.011888,19.815588,-42.540009,-15.373679,,,,,,,
1558972770.133960,2.415111,1.546046,0.001899,0.854208,-1.031536,-0.027851,0.016439,-0.999694,0.018500,0.077967,0.019408,0.017511,19.844126,-42.669647,-14.972367,,,,,,,
1558972770.153971,2.627481,1.540062,-0.229104,0.222580,-0.768003,0.099081,0.015111,-0.999528,0.026756,0.003505,0.063004,0.031624,19.644091,-42.842381,-14.741112,,,,,,,
1558972770.173956,2.651034,1.540261,-0.260459,-0.076520,-0.157734,0.004323,0.014384,-0.999534,0.026930,-0.049509,0.024467,-0.035124,19.241213,-42.975971,-14.882940,,,,,,,
1558972770.193938,2.589244,1.542903,-0.196679,-0.188285,0.162053,-0.007652,0.014633,-0.999611,0.023741,0.015595,0.019264,-0.039427,19.256966,-42.931614,-14.990192,,,,,,,
1558972770.213928,2.533205,1.545300,-0.139610,-0.093132,-0.033989,-0.004114,0.014570,-0.999675,0.020918,0.019183,0.027339,-0.036024,19.280640,-42.903240,-15.040905,,,,,,,
1558972770.233913,2.519036,1.544444,-0.127745,0.096041,-0.151335,-0.058469,0.015364,-0.999653,0.021405,0.004243,0.023136,-0.040708,19.280214,-42.866650,-15.145411,,,,,,,
1558972770.253896,2.540486,1.541551,-0.152761,0.139558,-0.184313,-0.045938,0.016538,-0.999572,0.024116,0.008334,0.023590,-0.019828,19.281073,-42.877060,-15.114829,,,,,,,
1558972770.273883,2.553213,1.539437,-0.169106,0.075688,-0.179734,-0.035269,0.017402,-0.999508,0.026082,0.014733,0.023190,-0.013142,19.270126,-42.894398,-15.079557,,,,,,,
1558972770.293869,2.545648,1.538254,-0.163517,0.033565,-0.043166,-0.040401,0.018261,-0.999471,0.026926,-0.006466,0.021962,-0.011713,19.252563,-42.903809,-15.075203,,,,,,,
1558972770.313841,2.535542,1.536996,-0.155082,0.058827,-0.135276,-0.051939,0.019250,-0.999429,0.027775,0.009879,0.016870,-0.013157,19.268847,-42.899414,-15.066911,,,,,,,
1558972770.333838,2.529849,1.535041,-0.153377,0.086220,-0.228460,-0.067756,0.020530,-0.999361,0.029265,0.006554,0.015398,-0.010497,19.271553,-42.897694,-15.068357,,,,,,,
1558972770.353826,2.492674,1.532687,-0.120985,0.052167,-0.227230,-0.072045,0.023025,-0.999274,0.030356,0.003525,0.014090,-0.002570,19.293224,-42.874435,-15.106771,,,,,,,
1558972770.373798,2.457105,1.531669,-0.089453,0.017122,-0.194254,-0.055744,0.024732,-0.999235,0.030305,0.004214,0.010007,-0.007051,19.287245,-42.864353,-15.142969,,,,,,,
1558972770.393795,2.413507,1.530211,-0.050551,0.039143,-0.295844,-0.056703,0.027000,-0.999177,0.030287,0.011178,0.000412,0.001147,19.301363,-42.821079,-15.247056,,,,,,,
1558972770.413781,2.409168,1.527552,-0.055291,0.026673,-0.528321,-0.056803,0.028907,-0.999065,0.032144,-0.001823,0.001842,0.012228,19.278921,-42.793949,-15.351246,,,,,,,
1558972770.433768,2.392815,1.527050,-0.049325,-0.094565,-0.501282,-0.071585,0.029770,-0.999043,0.032034,-0.009781,-0.000972,0.011103,19.177870,-42.804474,-15.448181,,,,,,,
1558972770.453752,2.309604,1.528112,0.025131,-0.179313,-0.394136,-0.110129,0.031545,-0.999089,0.028735,-0.009954,-0.003734,0.004468,19.088367,-42.778854,-15.628945,,,,,,,
1558972770.473717,2.198577,1.530149,0.129579,-0.170495,-0.303288,-0.115656,0.032888,-0.999174,0.023868,-0.014273,-0.005968,-0.011371,19.009148,-42.696236,-15.948162,,,,,,,
1558972770.493702,2.089607,1.532929,0.234237,-0.151941,-0.169171,-0.132501,0.032877,-0.999283,0.018772,-0.017389,0.003586,-0.015537,18.917875,-42.566887,-16.396164,,,,,,,
1558972770.513682,1.969216,1.532415,0.352054,-0.145467,-0.130057,-0.106499,0.035365,-0.999264,0.014886,-0.001292,0.001827,-0.017236,18.918535,-42.518784,-16.519745,,,,,,,
1558972770.533689,1.829637,1.532965,0.488972,-0.110448,-0.130140,-0.039212,0.036562,-0.999285,0.009681,-0.006380,0.000765,-0.022834,18.977795,-42.350044,-16.881269,,,,,,,
1558972770.553679,1.735373,1.533230,0.580472,-0.095594,-0.148203,-0.050049,0.037050,-0.999294,0.006153,-0.005510,-0.000843,-0.019642,18.946774,-42.280888,-17.088198,,,,,,,
1558972770.573654,1.654172,1.532598,0.658810,-0.104027,-0.130216,-0.068034,0.038056,-0.999271,0.003180,-0.007904,-0.003232,-0.022406,18.934767,-42.245819,-17.187943,,,,,,,
1558972770.593626,1.602595,1.531465,0.708791,-0.088886,-0.054179,-0.059821,0.039302,-0.999227,0.001250,-0.006694,0.001744,-0.033324,18.944101,-42.148514,-17.415041,,,,,,,
1558972770.613636,1.524857,1.530386,0.786503,-0.109935,0.020983,-0.058051,0.040356,-0.999184,-0.001855,0.006000,0.005470,-0.030616,18.980850,-42.075916,-17.550060,,,,,,,
1558972770.633590,1.446030,1.528641,0.865191,-0.127176,-0.037047,-0.047945,0.041815,-0.999112,-0.005244,0.010751,0.006894,-0.024770,19.008034,-42.045132,-17.594355,,,,,,,
1558972770.653589,1.332168,1.526103,0.977816,-0.078364,-0.068972,-0.021526,0.043413,-0.999001,-0.010561,0.012251,0.001016,-0.031431,19.081804,-41.883461,-17.897505,,,,,,,
1558972770.673591,1.290424,1.524262,1.017380,-0.026448,-0.133695,-0.003958,0.044701,-0.998917,-0.012872,0.017250,-0.007262,-0.019477,19.101051,-41.806919,-18.055237,,,,,,,
1558972770.693553,1.265351,1.523768,1.039822,-0.049866,-0.120847,0.022836,0.044835,-0.998894,-0.014137,0.015910,-0.009727,-0.014641,19.097599,-41.781696,-18.117178,,,,,,,
1558972770.713559,1.213562,1.522535,1.089624,-0.121099,-0.090866,0.029469,0.045198,-0.998836,-0.016870,0.011718,-0.022374,-0.008627,19.051399,-41.722054,-18.302313,,,,,,,
1558972770.733547,1.144393,1.521211,1.156655,-0.173479,-0.151846,-0.002091,0.045126,-0.998771,-0.020500,-0.010489,-0.034875,-0.006463,19.034334,-41.652431,-18.477810,,,,,,,
1558972770.753520,1.068414,1.518587,1.227975,-0.226992,-0.242477,-0.008339,0.045737,-0.998637,-0.025128,0.077157,-0.066182,0.001950,18.990629,-41.616959,-18.602276,,,,,,,
1558972770.773496,0.972202,1.517474,1.318153,-0.239249,-0.356398,0.106934,0.044031,-0.998579,-0.030032,0.070807,-0.111117,-0.004483,18.823652,-41.496784,-19.035416,,,,,,,
1558972770.793504,0.863576,1.517662,1.418931,-0.187493,-0.435806,0.201236,0.040373,-0.998589,-0.034507,0.045397,-0.166603,-0.009408,18.556196,-41.467110,-19.359913,,,,,,,
1558972770.813489,0.748596,1.518208,1.524700,-0.197205,-0.469559,0.214784,0.035776,-0.998618,-0.038512,0.033193,-0.200952,-0.021578,18.293575,-41.472225,-19.597446,,,,,,,
1558972770.833475,0.630399,1.517407,1.632914,-0.210172,-0.548833,0.170242,0.031456,-0.998575,-0.043107,0.002296,-0.223730,-0.040389,17.838165,-41.465008,-20.027811,,,,,,,
1558972770.853459,0.551159,1.515826,1.699640,-0.114608,-0.659389,0.087051,0.028772,-0.998489,-0.046806,0.003012,-0.236221,-0.056404,17.489315,-41.432961,-20.398384,,,,,,,
1558972770.873446,0.515621,1.516987,1.720812,0.111905,-0.734595,0.070498,0.026520,-0.998553,-0.046791,0.003083,-0.215254,-0.061012,17.223282,-41.435738,-20.617912,,,,,,,
1558972770.893431,0.524634,1.522528,1.696499,0.369227,-0.813085,0.087035,0.024168,-0.998835,-0.041760,0.004686,-0.184575,-0.064486,16.758121,-41.559753,-20.751202,,,,,,,
1558972770.913410,0.612449,1.532021,1.588484,0.602410,-1.144183,0.029602,0.022285,-0.999248,-0.031719,-0.006507,-0.152500,-0.039799,16.435110,-41.715134,-20.697710,,,,,,,
1558972770.933403,0.726018,1.545714,1.447138,0.693405,-1.487709,0.353087,0.016649,-0.999685,-0.018754,0.016874,-0.012628,-0.025924,16.052723,-41.911720,-20.600439,,,,,,,
1558972770.953387,1.352574,1.556020,0.785878,0.829226,-1.806136,-0.056626,0.014426,-0.999891,-0.003199,-0.027747,-0.153948,-0.067648,14.801698,-42.473900,-20.384739,,,,,,,
1558972770.973347,2.060715,1.545436,0.044742,0.809898,-1.449547,-0.581713,0.022373,-0.999678,0.011931,-0.084553,0.031066,0.011857,14.382092,-42.674953,-20.264843,,,,,,,
1558972770.993358,2.251103,1.526462,-0.169894,0.815086,-1.150386,-0.545749,0.034453,-0.999017,0.027879,-0.026488,-0.075430,-0.022370,14.298118,-42.800171,-20.059155,,,,,,,
1558972771.013344,2.314822,1.509759,-0.256241,0.633081,-1.100667,-0.451466,0.044881,-0.998138,0.041313,-0.008946,0.024261,0.015435,14.297056,-43.039570,-19.540960,,,,,,,
1558972771.033324,2.305993,1.496854,-0.267183,0.359061,-0.920617,-0.468112,0.054793,-0.997267,0.049551,-0.032332,0.064086,0.015208,14.276520,-43.109436,-19.401487,,,,,,,
1558972771.053314,2.249730,1.486557,-0.227947,0.144338,-0.841312,-0.496351,0.065481,-0.996454,0.052837,-0.028372,0.071359,0.017674,14.333887,-43.101604,-19.376575,,,,,,,
1558972771.073300,2.169426,1.478453,-0.164764,-0.068753,-0.900443,-0.497088,0.076177,-0.995739,0.051962,-0.018407,0.070950,0.021723,14.448540,-42.970703,-19.581078,,,,,,,
1558972771.093282,2.053248,1.471210,-0.066062,-0.305860,-0.865530,-0.602641,0.088073,-0.995045,0.046127,-0.050232,0.068211,0.013795,14.510314,-42.820850,-19.861656,,,,,,,
1558972771.113271,1.919334,1.461417,0.052980,-0.369099,-0.733265,-0.732746,0.102598,-0.994024,0.037281,-0.059568,0.080953,0.020779,14.639323,-42.597221,-20.244183,,,,,,,
1558972771.133256,1.817667,1.450037,0.140343,-0.293842,-0.748189,-0.551329,0.116814,-0.992717,0.029438,-0.014153,0.152935,0.037517,14.943285,-42.232529,-20.779123,,,,,,,
1558972771.153215,1.746499,1.440514,0.193193,-0.195699,-1.067059,-0.681353,0.127914,-0.991525,0.022709,-0.017059,0.047235,0.046551,15.152229,-41.800983,-21.488323,,,,,,,
1558972771.173200,1.664963,1.426726,0.254441,-0.447689,-0.985426,-0.697856,0.142936,-0.989640,0.013500,-0.068183,0.078431,0.058690,15.220969,-41.646549,-21.738155,,,,,,,
1558972771.193204,1.549243,1.412045,0.352646,-0.869773,-0.864943,-0.778182,0.158048,-0.987426,-0.003407,-0.032575,0.086150,0.041600,15.479376,-40.964153,-22.825151,,,,,,,
1558972771.213198,1.405796,1.394807,0.483674,-1.353471,-0.649877,-0.734872,0.172705,-0.984554,-0.028758,-0.015219,0.062313,0.019816,15.743225,-40.236557,-23.912975,,,,,,,
1558972771.233166,1.243598,1.371231,0.637348,-1.835188,-0.552387,-0.850699,0.187726,-0.980153,-0.063714,-0.031461,0.043812,0.024514,18.159008,-41.158466,-18.870085,,,,,,,
1558972771.253141,1.102184,1.340248,0.770506,-1.908653,-0.551986,-0.840077,0.203877,-0.973541,-0.103207,-0.073857,0.043304,-0.060596,18.849087,-39.587284,-21.387089,,,,,,,
1558972771.273154,1.010551,1.310401,0.858245,-1.455267,-0.184186,-0.686723,0.218103,-0.966288,-0.136814,-0.114877,0.072535,-0.028606,19.298023,-38.490906,-22.932190,,,,,,,
1558972771.293139,0.967821,1.292032,0.902494,-0.702150,0.146429,-0.312482,0.226643,-0.961396,-0.156047,-0.077702,0.086350,0.000468,19.503862,-38.049713,-23.487595,,,,,,,
1558972771.313125,0.967996,1.285012,0.908983,-0.050959,0.418992,-0.242090,0.232223,-0.959441,-0.159829,-0.039108,0.098693,-0.041511,19.979839,-37.416622,-24.096708,,,,,,,
1558972771.333111,1.002143,1.282687,0.883455,0.386844,0.472590,-0.324503,0.239424,-0.958783,-0.153009,-0.053801,0.124783,-0.055549,20.411293,-37.366199,-23.811659,,,,,,,
1558972771.353096,1.051691,1.282383,0.838721,0.594705,0.229419,-0.339476,0.246962,-0.958696,-0.141108,-0.059920,0.129351,-0.064566,20.641975,-37.398647,-23.560535,,,,,,,
1558972771.373081,1.100924,1.283035,0.789225,0.668475,0.034643,-0.270816,0.253049,-0.958882,-0.128500,-0.057492,0.140660,-0.041285,21.154942,-37.603020,-22.766869,,,,,,,
1558972771.393065,1.152435,1.285858,0.734559,0.795576,-0.113859,-0.171777,0.256855,-0.959679,-0.114200,-0.030400,0.142281,-0.029812,21.323454,-37.832348,-22.223238,,,,,,,
1558972771.413036,1.197365,1.289515,0.682615,0.691461,-0.323489,-0.058561,0.258456,-0.960701,-0.101267,-0.037585,0.130470,-0.032949,21.353346,-37.972321,-21.954180,,,,,,,
1558972771.433025,1.232140,1.299240,0.636965,0.776717,-0.427963,0.356889,0.252996,-0.963355,-0.089112,-0.004797,0.090369,0.011567,21.054859,-38.481754,-21.347038,,,,,,,
1558972771.453022,1.269519,1.310353,0.587444,0.774026,-0.628879,0.290905,0.245910,-0.966276,-0.076413,0.043518,0.138212,0.011686,20.593487,-38.958359,-20.928534,,,,,,,
1558972771.472978,1.308547,1.320810,0.523943,0.983998,-1.218818,0.237382,0.238932,-0.968916,-0.064137,0.065573,0.124556,0.039326,20.324680,-39.181419,-20.774330,,,,,,,
1558972771.492979,1.343165,1.324476,0.471603,0.405541,-0.514353,-0.052076,0.237547,-0.969816,-0.055027,0.060121,0.158644,0.010868,19.482094,-39.806202,-20.390266,,,,,,,
1558972771.512959,1.350843,1.324235,0.460703,0.054875,0.007576,-0.027076,0.238190,-0.969757,-0.053252,0.054870,0.047806,0.028686,19.407974,-39.875099,-20.326239,,,,,,,
1558972771.532964,1.356882,1.324675,0.457444,0.019140,0.183348,0.053583,0.238091,-0.969865,-0.051722,0.072288,0.040971,0.029368,19.426178,-39.881912,-20.295460,,,,,,,
1558972771.552945,1.356609,1.326782,0.460430,-0.013187,0.091647,0.113536,0.236079,-0.970376,-0.051353,0.052281,0.087869,0.017722,19.440250,-39.928795,-20.189524,,,,,,,
1558972771.572927,1.368364,1.324316,0.451641,0.150290,0.161229,-0.140835,0.239010,-0.969777,-0.049055,0.047962,-0.069728,-0.005571,19.561485,-39.913242,-20.102989,,,,,,,
1558972771.592919,1.383270,1.325003,0.434886,0.236332,-0.141281,0.026094,0.239060,-0.969945,-0.045363,0.086761,-0.097988,-0.066576,19.625515,-39.925747,-20.015564,,,,,,,
1558972771.612906,1.403897,1.326187,0.412891,0.289080,0.029652,0.008554,0.238812,-0.970232,-0.040232,0.016727,0.016344,0.000422,19.559328,-40.078262,-19.774082,,,,,,,
1558972771.632891,1.427426,1.327144,0.389494,0.284825,0.027550,0.002125,0.238774,-0.970463,-0.034470,0.025615,0.017811,-0.007584,19.571573,-40.193417,-19.526688,,,,,,,
1558972771.652876,1.449370,1.326447,0.365931,0.299349,-0.083497,0.011745,0.240144,-0.970295,-0.029304,0.022292,0.020115,-0.008584,19.573456,-40.249306,-19.409327,,,,,,,
1558972771.672863,1.469300,1.327520,0.343361,0.253493,-0.099080,0.032912,0.239644,-0.970554,-0.024407,0.012248,0.013187,0.000039,19.573765,-40.388294,-19.118122,,,,,,,
1558972771.692847,1.483855,1.328951,0.326850,0.172718,-0.046817,0.063242,0.238590,-0.970898,-0.020796,0.003719,0.008434,0.007017,19.504356,-40.491310,-18.970577,,,,,,,
1558972771.712831,1.493725,1.330531,0.316796,0.060086,0.020385,0.075539,0.237254,-0.971275,-0.018322,0.000143,0.007438,0.006252,19.471321,-40.534439,-18.912329,,,,,,,
1558972771.732816,1.495741,1.332093,0.315455,0.013312,0.040717,0.077832,0.235777,-0.971645,-0.017730,0.007631,0.006329,-0.024903,19.396362,-40.617447,-18.810978,,,,,,,
1558972771.752790,1.499140,1.333651,0.312798,0.059026,0.041630,0.073633,0.234326,-0.972013,-0.016820,0.001911,0.007474,-0.020854,19.360664,-40.645397,-18.787367,,,,,,,
1558972771.772776,1.502506,1.335202,0.309300,0.093946,-0.023039,0.068771,0.232877,-0.972376,-0.015928,-0.000791,0.003351,-0.015352,19.327011,-40.683342,-18.739838,,,,,,,
1558972771.792753,1.500297,1.336248,0.309919,0.078895,-0.070539,0.059760,0.231827,-0.972619,-0.016371,0.001648,-0.006385,-0.015657,19.255751,-40.719265,-18.735168,,,,,,,
1558972771.812747,1.497152,1.338360,0.311703,0.044905,-0.029080,0.098565,0.229725,-0.973108,-0.016949,-0.003467,-0.007864,-0.014820,19.127151,-40.763927,-18.769737,,,,,,,
1558972771.832743,1.494895,1.340763,0.313722,0.009844,-0.006696,0.100887,0.227354,-0.973659,-0.017290,-0.005003,-0.011189,-0.016905,19.127151,-40.763927,-18.769737,,,,,,,
1558972771.852710,1.485889,1.344812,0.321841,-0.008359,-0.047861,0.076995,0.223259,-0.974574,-0.019002,-0.022026,-0.012761,-0.011882,18.940475,-40.821766,-18.833241,,,,,,,
1558972771.872715,1.478774,1.347267,0.327549,0.021395,-0.072363,0.054366,0.220734,-0.975121,-0.020370,-0.012086,-0.015418,-0.016663,18.705132,-40.883327,-18.934639,,,,,,,
1558972771.892673,1.478562,1.348958,0.326026,0.060770,-0.077865,0.047940,0.219089,-0.975495,-0.020265,-0.013766,-0.015106,-0.015807,18.705132,-40.883327,-18.934639,,,,,,,
1558972771.912688,1.473186,1.351009,0.329772,0.034249,-0.056615,0.028907,0.216984,-0.975944,-0.021247,-0.007420,-0.013741,-0.017281,18.516747,-40.940189,-18.996830,,,,,,,
1558972771.932672,1.467603,1.352015,0.334585,0.015235,-0.011065,0.028260,0.215886,-0.976163,-0.022357,-0.005894,-0.006107,-0.022656,18.398560,-40.965153,-19.057745,,,,,,,
1558972771.952657,1.465126,1.352918,0.337163,0.027054,0.025876,0.033962,0.214953,-0.976358,-0.022799,-0.011813,0.001505,-0.027158,18.373611,-40.963684,-19.084961,,,,,,,
1558972771.972643,1.455915,1.354573,0.346914,0.089915,0.065775,0.076032,0.213128,-0.976715,-0.024593,-0.008447,0.010971,-0.038060,18.291382,-40.969105,-19.152195,,,,,,,
1558972771.992627,1.459422,1.356999,0.344545,0.234698,0.104227,0.145911,0.210857,-0.977232,-0.023582,-0.002056,0.016890,-0.049218,18.220222,-41.015789,-19.120066,,,,,,,
1558972772.012614,1.486920,1.361428,0.318820,0.408241,0.143574,0.208350,0.207112,-0.978162,-0.017413,0.002544,0.010679,-0.051176,18.171638,-41.067486,-19.055231,,,,,,,
1558972772.032598,1.523732,1.365595,0.283268,0.378372,0.078042,0.105205,0.203539,-0.979020,-0.009586,-0.017977,0.002107,0.006886,18.001202,-41.354774,-18.589994,,,,,,,
1558972772.052570,1.552879,1.366515,0.254475,0.244299,0.046883,0.002306,0.202830,-0.979207,-0.003634,-0.012095,-0.009425,0.024112,17.950378,-41.511284,-18.287868,,,,,,,
1558972772.072571,1.573026,1.366202,0.235406,0.174214,0.089500,-0.018696,0.203169,-0.979144,0.000453,-0.001662,-0.014280,0.019933,17.961483,-41.552742,-18.182503,,,,,,,
1558972772.092556,1.593730,1.365722,0.216269,0.151811,0.080126,-0.004924,0.203586,-0.979046,0.004670,0.011853,-0.016041,0.024581,18.027462,-41.638268,-17.919666,,,,,,,
1558972772.112537,1.606216,1.365366,0.204518,0.095267,0.033888,-0.022495,0.203861,-0.978973,0.007224,0.002972,-0.009705,0.028085,18.070160,-41.691154,-17.752909,,,,,,,
1558972772.132525,1.610086,1.364276,0.200894,0.002640,0.005760,-0.073017,0.204898,-0.978750,0.008055,0.000699,-0.013788,0.029711,18.087349,-41.701107,-17.711971,,,,,,,
1558972772.152499,1.604988,1.362413,0.206313,-0.078180,0.016710,-0.102872,0.206757,-0.978367,0.007072,0.000137,-0.005825,0.029580,18.187836,-41.655357,-17.716732,,,,,,,
1558972772.172497,1.595933,1.360440,0.215757,-0.097408,-0.002211,-0.099865,0.208742,-0.977957,0.005248,0.009535,-0.005396,0.017365,18.277906,-41.585976,-17.786894,,,,,,,
1558972772.192468,1.586756,1.358539,0.224800,-0.085761,-0.019178,-0.095748,0.210640,-0.977558,0.003362,0.006385,-0.003918,0.017161,18.318037,-41.550373,-17.828754,,,,,,,
1558972772.212467,1.580283,1.356355,0.231020,-0.092165,-0.029731,-0.106531,0.212792,-0.977096,0.002019,0.002739,0.006606,0.014278,18.429482,-41.448551,-17.950508,,,,,,,
1558972772.232452,1.571292,1.353748,0.239469,-0.103918,-0.044470,-0.108818,0.215348,-0.976537,0.000107,0.008590,0.013692,0.008179,18.533749,-41.374565,-18.013725,,,,,,,
1558972772.252421,1.562497,1.351513,0.247696,-0.085862,-0.038162,-0.068173,0.217523,-0.976054,-0.001805,0.009375,0.018137,0.004995,18.570000,-41.336254,-18.064276,,,,,,,
1558972772.272424,1.556142,1.349301,0.253138,-0.057262,-0.068924,-0.040689,0.219665,-0.975570,-0.003219,0.012284,0.026077,0.002746,18.675076,-41.237125,-18.182129,,,,,,,
1558972772.292408,1.550175,1.348365,0.257928,-0.057247,-0.054093,-0.018128,0.220554,-0.975364,-0.004549,0.004192,0.032539,0.001146,18.717567,-41.188492,-18.248545,,,,,,,
1558972772.312388,1.542606,1.348007,0.265373,-0.098543,0.013777,-0.015376,0.220863,-0.975285,-0.006228,0.005150,0.026036,-0.003141,18.716671,-41.165649,-18.300945,,,,,,,
1558972772.332365,1.535417,1.347792,0.273883,-0.078156,0.068653,-0.003091,0.221022,-0.975237,-0.007823,0.003618,0.020373,-0.005406,18.743664,-41.115288,-18.386330,,,,,,,
1558972772.352365,1.532156,1.347230,0.277927,-0.022988,0.011280,-0.005732,0.221544,-0.975113,-0.008565,0.012740,0.022873,0.002782,18.782703,-41.083687,-18.417101,,,,,,,
1558972772.372325,1.531731,1.345276,0.278127,0.022700,-0.012206,-0.000587,0.223443,-0.974678,-0.008733,0.023780,0.019935,-0.006343,18.823349,-41.061527,-18.425018,,,,,,,
1558972772.392319,1.534138,1.344184,0.275516,0.064212,0.008787,0.046619,0.224527,-0.974433,-0.008234,0.017676,0.020316,-0.005468,18.883858,-41.037457,-18.416719,,,,,,,
1558972772.412322,1.540703,1.344570,0.269691,0.057970,0.062761,0.068481,0.224200,-0.974520,-0.006749,0.008115,0.023836,0.001637,18.897194,-41.056816,-18.359810,,,,,,,
1558972772.432307,1.546182,1.345327,0.265946,0.018719,0.104193,0.069912,0.223496,-0.974689,-0.005502,0.005309,0.022892,0.002954,18.907347,-41.077690,-18.302582,,,,,,,
1558972772.452292,1.548671,1.346178,0.265939,-0.009947,0.126540,0.069033,0.222680,-0.974879,-0.004928,0.006965,0.014628,0.000915,18.910618,-41.107185,-18.232847,,,,,,,
1558972772.472278,1.552152,1.347009,0.264470,0.004823,0.077814,0.051496,0.221885,-0.975064,-0.004137,0.006035,0.002316,0.006976,18.918797,-41.124199,-18.185932,,,,,,,
1558972772.492264,1.556354,1.347379,0.260940,0.030163,0.003656,0.028385,0.221541,-0.975146,-0.003200,0.006395,-0.003934,0.006465,18.925121,-41.140301,-18.142885,,,,,,,
1558972772.512249,1.561311,1.348331,0.255287,0.045968,-0.043987,0.032213,0.220625,-0.975357,-0.002093,-0.008161,-0.006028,0.007571,18.893745,-41.175869,-18.094837,,,,,,,
1558972772.532207,1.564301,1.349109,0.251676,-0.000741,-0.018416,0.003595,0.219872,-0.975528,-0.001428,-0.006004,-0.010709,0.005670,18.842800,-41.213596,-18.062040,,,,,,,
1558972772.552218,1.562705,1.349357,0.253338,-0.037901,0.008195,-0.002585,0.219627,-0.975582,-0.001777,-0.003486,-0.011661,0.004829,18.825882,-41.220791,-18.063255,,,,,,,
1558972772.572204,1.561990,1.349787,0.254307,-0.018793,-0.003517,0.007996,0.219206,-0.975677,-0.001931,-0.004026,-0.021790,0.008049,18.818666,-41.216473,-18.080618,,,,,,,
1558972772.592177,1.562009,1.350279,0.253750,-0.007177,-0.038481,-0.006207,0.218726,-0.975784,-0.001922,-0.026908,-0.020309,0.013107,18.801874,-41.222767,-18.083748,,,,,,,
1558972772.612175,1.560072,1.350340,0.255373,-0.048526,-0.006613,-0.046504,0.218662,-0.975798,-0.002345,-0.027332,-0.018923,0.012233,18.779556,-41.231472,-18.087084,,,,,,,
1558972772.632160,1.556008,1.350533,0.259634,-0.064492,-0.002289,-0.037930,0.218463,-0.975840,-0.003231,-0.019687,-0.002447,0.004314,18.756180,-41.234818,-18.103718,,,,,,,
1558972772.652124,1.550412,1.350555,0.265296,-0.055967,-0.002343,-0.044327,0.218420,-0.975845,-0.004453,-0.017202,0.001754,-0.002429,18.759264,-41.207287,-18.163099,,,,,,,
1558972772.672132,1.546742,1.349910,0.269117,-0.021905,0.001720,-0.034652,0.219031,-0.975704,-0.005270,-0.009253,0.003871,-0.003962,18.769775,-41.185612,-18.201368,,,,,,,
1558972772.692117,1.545191,1.349177,0.270153,0.020530,-0.034419,-0.018950,0.219737,-0.975543,-0.005628,0.003422,0.005359,-0.007296,18.802429,-41.154324,-18.238392,,,,,,,
1558972772.712086,1.546920,1.348897,0.267668,0.033341,-0.024979,-0.023120,0.220020,-0.975481,-0.005254,-0.005451,0.005404,-0.005335,18.807159,-41.151794,-18.239225,,,,,,,
1558972772.732087,1.548532,1.348491,0.265800,0.017439,-0.005873,-0.025085,0.220424,-0.975392,-0.004908,-0.006984,0.008107,-0.003347,18.810608,-41.153778,-18.231192,,,,,,,
1558972772.752074,1.548020,1.347857,0.266051,0.015277,-0.010072,-0.013384,0.221040,-0.975252,-0.005035,0.003584,0.012392,-0.009155,18.828358,-41.146832,-18.228550,,,,,,,
1558972772.772053,1.547853,1.347310,0.265949,0.039656,-0.007936,0.010170,0.221573,-0.975131,-0.005084,0.009125,0.017382,-0.012005,18.851187,-41.132870,-18.236458,,,,,,,
1558972772.792043,1.551249,1.347079,0.262072,0.086434,-0.016610,0.029340,0.221813,-0.975080,-0.004336,0.014088,0.021726,-0.013333,18.859447,-41.133850,-18.225704,,,,,,,
1558972772.812029,1.556135,1.347082,0.256925,0.084416,0.019344,0.032883,0.221829,-0.975080,-0.003252,0.007221,0.029218,-0.013731,18.853325,-41.161846,-18.168747,,,,,,,
1558972772.832015,1.561277,1.346863,0.252426,0.083440,0.054254,0.049227,0.222056,-0.975031,-0.002114,0.015904,0.030009,-0.010673,18.868406,-41.176403,-18.120041,,,,,,,
1558972772.851999,1.571569,1.347484,0.242536,0.139700,0.010635,0.058462,0.221461,-0.975169,0.000171,0.019796,0.024013,-0.008685,18.868361,-41.204433,-18.056252,,,,,,,
1558972772.871960,1.585835,1.347877,0.227723,0.157695,-0.015871,0.067829,0.221052,-0.975256,0.003325,0.013735,0.017111,0.009798,18.847876,-41.277332,-17.910549,,,,,,,
1558972772.891971,1.603877,1.348994,0.209205,0.149157,-0.009437,0.098844,0.219868,-0.975502,0.007276,0.007946,0.012978,0.023837,18.812990,-41.336151,-17.811308,,,,,,,
1558972772.911937,1.617058,1.350711,0.195692,0.084247,-0.009116,0.084916,0.218079,-0.975879,0.010096,-0.000428,0.011752,0.026815,18.777666,-41.409187,-17.678442,,,,,,,
1558972772.931913,1.625001,1.351941,0.187537,-0.011545,-0.017101,0.062342,0.216793,-0.976147,0.011763,0.001316,0.008358,0.017610,18.682178,-41.522858,-17.512211,,,,,,,
1558972772.951927,1.620437,1.353072,0.192163,-0.068924,0.009610,0.051875,0.215742,-0.976392,0.010718,0.010225,-0.004047,0.002358,18.632103,-41.530388,-17.547665,,,,,,,
1558972772.971905,1.613997,1.353776,0.198839,-0.066834,-0.006269,0.043183,0.215120,-0.976543,0.009299,0.017683,-0.010731,-0.000937,18.612444,-41.527573,-17.575163,,,,,,,
1558972772.991868,1.607231,1.354544,0.205119,-0.077576,-0.041113,0.031096,0.214428,-0.976709,0.007816,0.024220,-0.039603,-0.014057,18.566418,-41.508011,-17.669792,,,,,,,
1558972773.011883,1.593421,1.354727,0.218874,-0.147615,0.017364,0.013448,0.214337,-0.976748,0.004850,0.029239,-0.067671,-0.036756,18.546944,-41.465256,-17.790232,,,,,,,
1558972773.031841,1.576313,1.354788,0.237214,-0.232663,0.041032,-0.008814,0.214329,-0.976761,0.001182,0.034282,-0.077271,-0.049507,18.546644,-41.439568,-17.850292,,,,,,,
1558972773.051842,1.538268,1.354323,0.276053,-0.340216,0.014056,-0.046526,0.214673,-0.976661,-0.006985,-0.015485,-0.115411,-0.152164,18.561577,-41.260700,-18.244759,,,,,,,
1558972773.071840,1.504298,1.351610,0.311524,-0.418703,0.042819,-0.173364,0.216955,-0.976075,-0.014448,-0.019277,-0.172180,-0.249010,18.640980,-41.093082,-18.539719,,,,,,,
1558972773.091811,1.467907,1.344985,0.349275,-0.444110,-0.002787,-0.367065,0.222713,-0.974613,-0.022996,-0.029674,-0.186108,-0.299544,18.730003,-40.976635,-18.706984,,,,,,,
1558972773.111809,1.437787,1.334729,0.380187,-0.387383,0.020995,-0.521601,0.231815,-0.972265,-0.031017,-0.080265,-0.230143,-0.441212,19.201294,-40.511696,-19.234381,,,,,,,
1558972773.131794,1.421361,1.321283,0.399088,-0.272785,0.145893,-0.712490,0.244180,-0.969033,-0.036763,-0.115335,-0.218910,-0.501384,19.698986,-40.148952,-19.490002,,,,,,,
1558972773.151773,1.420101,1.303457,0.404525,-0.164640,0.221048,-0.968987,0.261172,-0.964477,-0.039658,-0.131304,-0.201966,-0.516616,20.028082,-39.951233,-19.560768,,,,,,,
1558972773.171751,1.428030,1.280523,0.402032,-0.130929,0.309241,-1.249975,0.283302,-0.958166,-0.040723,-0.142418,-0.041377,-0.520999,21.358528,-39.233406,-19.606169,,,,,,,
1558972773.191731,1.438997,1.252169,0.399533,-0.178823,0.527944,-1.484938,0.310547,-0.949666,-0.041168,-0.165207,0.130574,-0.501785,22.556381,-38.583347,-19.554638,,,,,,,
1558972773.211736,1.450269,1.221277,0.402225,-0.284359,0.785286,-1.529536,0.339961,-0.939538,-0.041174,-0.160900,0.212426,-0.484354,23.240883,-38.203762,-19.498278,,,,,,,
1558972773.231724,1.456151,1.190964,0.415118,-0.522285,0.964183,-1.483173,0.368331,-0.928727,-0.042413,-0.138396,0.457215,-0.369879,25.401173,-36.926113,-19.263735,,,,,,,
1558972773.251698,1.458285,1.162102,0.442417,-0.780378,1.567320,-1.254468,0.394899,-0.917641,-0.044619,-0.102067,0.527534,-0.291547,26.910753,-35.939388,-19.079319,,,,,,,
1558972773.271693,1.460104,1.139234,0.479307,-0.906622,1.857066,-0.905878,0.415730,-0.908313,-0.046207,-0.035741,0.586231,-0.248883,27.654133,-35.453766,-18.924278,,,,,,,
1558972773.291679,1.468710,1.125397,0.514094,-0.720185,2.123169,-0.424876,0.428576,-0.902439,-0.043904,-0.005343,0.593250,-0.120677,29.584482,-34.252064,-18.204483,,,,,,,
1558972773.311663,1.490548,1.121150,0.539351,-0.496856,2.238855,-0.029628,0.433249,-0.900601,-0.034842,-0.051947,0.626889,0.026649,30.543968,-33.875389,-17.302399,,,,,,,
1558972773.331648,1.511513,1.123481,0.562154,-0.503452,1.986704,0.265827,0.431786,-0.901612,-0.025628,-0.046288,0.631363,0.072671,30.918552,-33.794025,-16.788568,,,,,,,
1558972773.351635,1.525892,1.132819,0.589903,-0.598780,1.988853,0.662935,0.423681,-0.905611,-0.019038,-0.041555,0.575640,0.205500,31.567944,-33.837074,-15.439118,,,,,,,
1558972773.371619,1.540507,1.151672,0.618694,-0.515192,2.049362,1.132279,0.406774,-0.913446,-0.012325,-0.037038,0.513681,0.263439,31.622562,-34.076828,-14.786220,,,,,,,
1558972773.391604,1.561933,1.179452,0.638612,-0.285201,1.938856,1.557396,0.381417,-0.924397,-0.003381,-0.052956,0.526021,0.293023,31.484161,-34.501392,-14.080129,,,,,,,
1558972773.411591,1.586902,1.213963,0.650461,-0.233126,1.687333,1.771763,0.349264,-0.937008,0.005626,-0.175313,0.450191,0.485112,30.579498,-35.861835,-12.596498,,,,,,,
1558972773.431548,1.596190,1.248274,0.670750,-0.440960,1.251771,1.699098,0.316857,-0.948439,0.008048,-0.144235,0.385939,0.501001,29.699337,-36.823788,-11.908267,,,,,,,
1558972773.451546,1.598350,1.286735,0.691986,-0.294116,1.089858,2.089492,0.280150,-0.959925,0.007721,-0.142882,0.371790,0.459839,28.922400,-37.526196,-11.624461,,,,,,,
1558972773.471525,1.611836,1.333464,0.701477,-0.195418,1.146900,2.413614,0.234913,-0.971969,0.009646,-0.315418,0.389296,0.629621,27.141438,-38.991806,-11.082890,,,,,,,
1558972773.491528,1.598435,1.379559,0.733603,-0.559629,0.669641,2.181345,0.190001,-0.981770,0.005253,-0.258788,0.274647,0.594372,25.504694,-40.156647,-10.807541,,,,,,,
1558972773.511499,1.541101,1.421796,0.798394,-0.485629,0.172401,2.143548,0.148384,-0.988920,-0.004408,-0.226052,0.241941,0.555525,25.504694,-40.156647,-10.807541,,,,,,,
1558972773.531492,1.485210,1.468049,0.856093,-0.057528,0.041647,2.446919,0.102190,-0.994726,-0.008768,-0.286013,0.106985,0.549783,22.996550,-41.541611,-11.193851,,,,,,,
1558972773.551487,1.416138,1.517400,0.925500,-0.012019,-0.044229,2.434389,0.052734,-0.998575,-0.008221,-0.356796,0.113153,0.601590,19.921124,-43.086212,-11.250607,,,,,,,
1558972773.571452,0.458287,1.558160,1.878953,-0.184368,-0.372165,2.359580,0.005592,-0.999920,-0.011335,-0.328361,0.067471,0.584501,19.921124,-43.086212,-11.250607,,,,,,,
1558972773.591460,-1.333969,1.525099,-2.622948,0.163525,-0.653773,2.580301,-0.044405,-0.998956,-0.010717,-0.448011,-0.238562,0.621801,16.719547,-44.352196,-11.540736,,,,,,,
1558972773.611444,-1.512478,1.475470,-2.458138,0.132662,-0.723609,2.422664,-0.095020,-0.995460,-0.005548,-0.561733,-0.312981,0.750344,13.059789,-45.543324,-11.623122,,,,,,,
1558972773.631429,-1.495768,1.433155,-2.491611,-0.657033,-0.906241,1.920624,-0.136821,-0.990542,-0.010285,-0.547764,-0.336774,0.750641,11.897548,-45.843552,-11.690430,,,,,,,
1558972773.651414,-1.411085,1.395825,-2.597437,-1.197826,-1.022128,1.689538,-0.171864,-0.984732,-0.027684,-0.574824,-0.465708,0.628377,8.927273,-46.176304,-12.957670,,,,,,,
1558972773.671401,-1.327618,1.360283,-2.705629,-1.454743,-1.264308,1.409425,-0.202814,-0.977924,-0.050316,-0.572409,-0.498532,0.571495,7.156104,-46.077301,-14.336010,,,,,,,
1558972773.691386,-1.257491,1.329994,-2.808578,-1.564942,-1.635399,0.966982,-0.226873,-0.971147,-0.073501,-0.575556,-0.498824,0.550873,6.337247,-45.952446,-15.101683,,,,,,,
1558972773.711371,-1.192922,1.305832,-2.911821,-1.653287,-1.831127,0.533708,-0.243400,-0.965102,-0.096617,-0.571923,-0.504228,0.392882,4.270109,-45.328716,-17.519196,,,,,,,
1558972773.731340,-1.133082,1.287773,-3.014817,-1.602309,-2.049737,0.132357,-0.252932,-0.960216,-0.118370,-0.567426,-0.501943,0.277794,3.230701,-44.752102,-19.148392,,,,,,,
1558972773.751341,-1.082565,1.275299,-3.112324,-1.488452,-2.200881,-0.170075,-0.257191,-0.956657,-0.136599,-0.557735,-0.502815,0.230288,2.786298,-44.445740,-19.916367,,,,,,,
1558972773.771299,-1.042523,1.266085,3.080663,-1.316433,-2.375281,-0.267695,-0.259119,-0.953934,-0.151222,-0.522818,-0.536530,0.045814,1.610083,-43.516396,-21.990444,,,,,,,
1558972773.791309,-1.012922,1.258683,2.998964,-1.227057,-2.411726,-0.371508,-0.260513,-0.951687,-0.162558,-0.533890,-0.549091,-0.021264,0.782637,-42.933586,-23.150454,,,,,,,
1558972773.811285,-0.985067,1.254842,2.919211,-1.078732,-2.409685,-0.607320,-0.258928,-0.950500,-0.171770,-0.555113,-0.568649,-0.052885,0.387552,-42.647697,-23.682745,,,,,,,
1558972773.831266,-0.959552,1.257091,2.841271,-0.838968,-2.445139,-0.855162,-0.252711,-0.951197,-0.177093,-0.514700,-0.573416,-0.180253,-0.564396,-41.888245,-24.998098,,,,,,,
1558972773.851245,-0.941170,1.264071,2.769687,-0.610210,-2.515170,-0.937858,-0.244041,-0.953327,-0.177795,-0.443962,-0.629681,-0.248963,-1.065512,-41.526966,-25.577818,,,,,,,
1558972773.871242,-0.923538,1.273333,2.699232,-0.569328,-2.440522,-1.062025,-0.233814,-0.956083,-0.176737,-0.470867,-0.643923,-0.260931,-1.320570,-41.385414,-25.794418,,,,,,,
1558972773.891239,-0.886136,1.285029,2.611028,-0.685541,-2.308227,-1.358726,-0.218364,-0.959446,-0.178272,-0.520298,-0.594555,-0.327816,-1.846133,-40.976788,-26.407265,,,,,,,
1558972773.911218,-0.819019,1.298165,2.494644,-0.824194,-2.201179,-1.653551,-0.196693,-0.963066,-0.183892,-0.484216,-0.523232,-0.436439,-1.850406,-40.636120,-26.928244,,,,,,,
1558972773.931210,-0.724937,1.311087,2.353571,-0.819084,-2.028136,-1.841931,-0.170281,-0.966465,-0.192225,-0.477546,-0.495846,-0.494878,-1.760212,-40.441681,-27.225374,,,,,,,
1558972773.951196,-0.609443,1.323342,2.195934,-0.697657,-1.744645,-1.980050,-0.140205,-0.969539,-0.200840,-0.425927,-0.415959,-0.652004,-1.171459,-39.865459,-28.093079,,,,,,,
1558972773.971181,-0.472337,1.333857,2.022508,-0.570960,-1.465370,-2.092582,-0.106794,-0.972061,-0.209028,-0.356127,-0.325882,-0.721545,-0.491491,-39.529415,-28.583782,,,,,,,
1558972773.991152,-0.316587,1.341838,1.834716,-0.404196,-1.294094,-2.186897,-0.070659,-0.973903,-0.215684,-0.346775,-0.275730,-0.740569,-0.074387,-39.377865,-28.796307,,,,,,,
1558972774.011136,-0.145060,1.346261,1.633746,-0.243935,-1.162965,-2.291211,-0.032185,-0.974898,-0.220315,-0.296108,-0.040346,-0.803382,0.871274,-39.114952,-29.139500,,,,,,,
1558972774.031137,0.044404,1.345311,1.419014,-0.132043,-0.876287,-2.452795,0.009925,-0.974686,-0.223359,-0.273261,0.078857,-0.797637,2.590920,-38.793068,-29.465813,,,,,,,
1558972774.051097,0.242773,1.336737,1.202192,-0.025328,-0.494283,-2.502436,0.055754,-0.972733,-0.225127,-0.263808,0.129258,-0.783174,2.590920,-38.793068,-29.465813,,,,,,,
1558972774.071104,0.426027,1.322273,1.007899,0.143797,-0.149334,-2.370881,0.101650,-0.969277,-0.223987,-0.119777,0.277504,-0.696774,4.907838,-38.456993,-29.611176,,,,,,,
1558972774.091094,0.584749,1.304255,0.843128,0.270754,0.011968,-2.205885,0.145392,-0.964688,-0.219633,-0.061744,0.394299,-0.628725,7.486028,-38.161915,-29.452950,,,,,,,
1558972774.111064,0.716888,1.284070,0.706858,0.347327,0.075262,-2.020515,0.185820,-0.959175,-0.213200,-0.051711,0.427986,-0.601894,8.323351,-38.072845,-29.343296,,,,,,,
1558972774.131041,0.824469,1.262466,0.598426,0.306201,0.288245,-1.813522,0.222802,-0.952842,-0.206039,0.004157,0.522437,-0.478929,10.688553,-37.800919,-28.925669,,,,,,,
1558972774.151049,0.909513,1.240356,0.518080,0.210737,0.508988,-1.556317,0.256065,-0.945899,-0.199260,0.060555,0.552787,-0.408711,12.207003,-37.562218,-28.634205,,,,,,,
1558972774.171036,0.973092,1.220710,0.462882,0.145627,0.622977,-1.189076,0.283517,-0.939343,-0.193010,0.069343,0.553235,-0.384108,12.207003,-37.562218,-28.634205,,,,,,,
1558972774.191020,1.018604,1.206009,0.429886,0.026393,0.798594,-0.796731,0.303729,-0.934200,-0.187135,0.029325,0.551799,-0.305434,14.192606,-37.179539,-28.215256,,,,,,,
1558972774.210986,1.051229,1.193058,0.414278,-0.145698,0.960340,-0.678948,0.320148,-0.929501,-0.183121,0.011304,0.522931,-0.279358,15.763753,-36.823589,-27.845572,,,,,,,
1558972774.230990,1.079475,1.180078,0.405581,-0.162584,1.032395,-0.618483,0.335802,-0.924636,-0.179683,0.009764,0.514510,-0.276951,15.763753,-36.823589,-27.845572,,,,,,,
1558972774.250977,1.107718,1.169760,0.397314,-0.048960,1.016164,-0.470145,0.349259,-0.920657,-0.174381,0.027648,0.510882,-0.235913,17.304663,-36.370766,-27.523891,,,,,,,
1558972774.270893,1.135940,1.164109,0.387906,0.104872,0.961784,-0.244201,0.358754,-0.918436,-0.166646,0.052379,0.501169,-0.212169,18.418268,-36.131180,-27.113726,,,,,,,
1558972774.290890,1.165975,1.164294,0.376542,0.270754,1.025774,0.013847,0.363440,-0.918509,-0.155730,0.057565,0.489219,-0.210939,18.938923,-36.105274,-26.787592,,,,,,,
1558972774.310872,1.202227,1.169798,0.361769,0.434932,1.189035,0.206650,0.364124,-0.920672,-0.140631,-0.003284,0.433703,-0.110299,19.729631,-36.356552,-25.861006,,,,,,,
1558972774.330834,1.246259,1.178247,0.339851,0.601888,1.169233,0.274924,0.362576,-0.923937,-0.121982,-0.029248,0.400347,-0.031811,20.063860,-36.607952,-25.241793,,,,,,,
1558972774.350846,1.294607,1.188417,0.311711,0.682410,1.094953,0.365027,0.358988,-0.927780,-0.101749,-0.031824,0.393142,-0.008435,20.347546,-36.915054,-24.558187,,,,,,,
1558972774.370832,1.343752,1.198591,0.283328,0.586855,1.165199,0.352811,0.354337,-0.931528,-0.081862,-0.049650,0.343774,0.103682,20.621574,-37.380497,-23.607162,,,,,,,
1558972774.390801,1.391244,1.208169,0.257207,0.560082,1.140049,0.404864,0.349029,-0.934968,-0.063351,-0.016449,0.263139,0.158658,21.005562,-38.010231,-22.222458,,,,,,,
1558972774.410802,1.441057,1.218714,0.228477,0.574969,1.153772,0.445577,0.341954,-0.938657,-0.044615,-0.030919,0.220822,0.182357,21.096716,-38.222576,-21.767221,,,,,,,
1558972774.430788,1.490076,1.228876,0.200033,0.518262,1.081186,0.479002,0.334205,-0.942113,-0.027036,-0.049064,0.123906,0.263349,21.298061,-38.861069,-20.397514,,,,,,,
1558972774.450773,1.540307,1.240194,0.168428,0.585942,0.981589,0.558176,0.324462,-0.945847,-0.009896,-0.096465,0.013306,0.370262,21.311716,-39.294777,-19.534077,,,,,,,
1558972774.470757,1.592368,1.250508,0.131718,0.560964,0.784965,0.456983,0.314767,-0.949145,0.006791,-0.113854,0.001818,0.387771,21.256550,-39.642128,-18.881462,,,,,,,
1558972774.490744,1.630723,1.256178,0.105269,0.283943,0.593673,0.207236,0.308898,-0.950915,0.018533,-0.134201,-0.003569,0.382117,21.205482,-39.940708,-18.300707,,,,,,,
1558972774.510729,1.648361,1.258324,0.097955,0.017754,0.517729,0.085652,0.306488,-0.951576,0.023820,-0.104614,-0.004646,0.336760,21.259153,-40.184444,-17.694849,,,,,,,
1558972774.530714,1.656509,1.260219,0.099687,-0.046322,0.461006,0.098937,0.304487,-0.952157,0.026163,-0.090986,-0.003928,0.305045,21.342478,-40.218811,-17.515556,,,,,,,
1558972774.550681,1.662443,1.262775,0.102005,-0.043462,0.375424,0.133352,0.301901,-0.952935,0.027746,-0.034247,0.002221,0.216715,21.447088,-40.265102,-17.279835,,,,,,,
1558972774.570685,1.665621,1.265280,0.105385,-0.075652,0.288890,0.114348,0.299434,-0.953692,0.028479,-0.029476,-0.001615,0.204782,21.461237,-40.293282,-17.196388,,,,,,,
1558972774.590665,1.666205,1.267481,0.109584,-0.069547,0.193695,0.093156,0.297328,-0.954351,0.028454,-0.044093,-0.009546,0.183582,21.466118,-40.311165,-17.148308,,,,,,,
1558972774.610656,1.665452,1.269484,0.113160,-0.053913,0.096381,0.101846,0.295445,-0.954948,0.028049,-0.026082,-0.003701,0.130978,21.442772,-40.337921,-17.114571,,,,,,,
1558972774.630641,1.664724,1.271951,0.115263,-0.041314,0.058311,0.134589,0.293119,-0.955677,0.027613,-0.024244,-0.002010,0.115041,21.398121,-40.360279,-17.117744,,,,,,,
1558972774.650624,1.663154,1.274894,0.117761,-0.056339,0.023516,0.139582,0.290361,-0.956539,0.026894,-0.035539,-0.005833,0.105187,21.332020,-40.392155,-17.125055,,,,,,,
1558972774.670596,1.658415,1.277214,0.122389,-0.087339,-0.037699,0.091994,0.288273,-0.957213,0.025323,-0.043660,-0.021180,0.082343,21.181980,-40.442368,-17.192657,,,,,,,
1558972774.690597,1.651317,1.278685,0.128547,-0.098022,-0.068359,0.050054,0.287042,-0.957638,0.023163,-0.042367,-0.024326,0.072327,21.120070,-40.444660,-17.263275,,,,,,,
1558972774.710555,1.644144,1.279488,0.134696,-0.078802,-0.057915,0.033087,0.286433,-0.957869,0.021047,-0.047374,-0.018037,0.057124,21.071875,-40.435368,-17.343761,,,,,,,
1558972774.730541,1.641080,1.280437,0.136969,-0.009546,-0.032893,0.045126,0.285590,-0.958141,0.020105,-0.043967,-0.037388,0.052374,20.997135,-40.424469,-17.459415,,,,,,,
1558972774.750554,1.639716,1.280647,0.138357,-0.044388,0.024270,-0.020549,0.285416,-0.958201,0.019702,-0.048417,-0.032888,0.045362,20.970917,-40.431038,-17.475708,,,,,,,
1558972774.770524,1.634216,1.280005,0.144752,-0.100797,0.022438,-0.030221,0.286134,-0.958017,0.018171,-0.038927,-0.031164,0.036791,20.987431,-40.415260,-17.492371,,,,,,,
1558972774.790525,1.628253,1.280177,0.150175,-0.062839,-0.067540,0.014857,0.286073,-0.958067,0.016455,-0.018357,-0.034533,0.015634,21.011227,-40.355911,-17.600500,,,,,,,
1558972774.810509,1.623166,1.280402,0.154281,-0.066021,-0.040982,0.012997,0.285937,-0.958131,0.014988,-0.015612,-0.029097,0.002895,20.981693,-40.338829,-17.674740,,,,,,,
1558972774.830494,1.618799,1.280988,0.158457,-0.047861,-0.013570,0.030357,0.285439,-0.958299,0.013712,-0.016533,-0.022063,-0.002863,20.968498,-40.330410,-17.709572,,,,,,,
1558972774.850480,1.617484,1.281795,0.159405,0.002131,-0.020157,0.042078,0.284685,-0.958529,0.013301,-0.011491,-0.006971,-0.030192,20.918880,-40.330231,-17.768560,,,,,,,
1558972774.870450,1.620179,1.282430,0.156284,0.068187,-0.007838,0.030504,0.284039,-0.958710,0.014038,-0.007413,-0.015610,-0.030121,20.890501,-40.346821,-17.764275,,,,,,,
1558972774.890450,1.626076,1.282761,0.149571,0.107469,-0.046119,0.015222,0.283635,-0.958804,0.015695,0.000621,-0.015226,-0.033914,20.869637,-40.374199,-17.726570,,,,,,,
1558972774.910437,1.633623,1.282837,0.140279,0.147835,-0.073821,0.010719,0.283436,-0.958825,0.017831,0.003246,-0.001426,-0.043023,20.824375,-40.443680,-17.621096,,,,,,,
1558972774.930413,1.643794,1.282951,0.128505,0.173468,-0.043287,0.020640,0.283131,-0.958858,0.020705,-0.004460,-0.009572,-0.028441,20.798647,-40.488922,-17.547430,,,,,,,
1558972774.950406,1.654247,1.282725,0.116790,0.157567,-0.040089,-0.016710,0.283115,-0.958793,0.023681,-0.009754,-0.008644,-0.021850,20.775356,-40.540314,-17.456127,,,,,,,
1558972774.970393,1.658495,1.281983,0.110832,0.102202,-0.067361,-0.070396,0.283720,-0.958583,0.024946,-0.007872,0.006709,-0.008680,20.782816,-40.601021,-17.305508,,,,,,,
1558972774.990349,1.655965,1.280642,0.112540,0.023620,0.014515,-0.020565,0.285063,-0.958200,0.024337,0.002733,0.007074,-0.015838,20.801014,-40.565189,-17.367556,,,,,,,
1558972775.010362,1.654875,1.280837,0.114344,0.039668,0.057825,0.018297,0.284903,-0.958256,0.024011,-0.000663,0.007129,-0.013696,20.809505,-40.566566,-17.354162,,,,,,,
1558972775.030349,1.662710,1.280705,0.107509,0.059912,0.041795,-0.027749,0.284832,-0.958218,0.026254,-0.004651,0.027966,0.005179,20.809509,-40.589401,-17.300680,,,,,,,
1558972775.050315,1.666750,1.279819,0.103497,0.064015,-0.008975,-0.035705,0.285569,-0.957964,0.027486,0.009887,0.038576,0.001506,20.860394,-40.597000,-17.221392,,,,,,,
1558972775.070319,1.672111,1.279415,0.097561,0.104403,-0.012307,-0.001540,0.285803,-0.957848,0.029056,0.009608,0.031700,-0.000125,20.870365,-40.602394,-17.196573,,,,,,,
1558972775.090305,1.683870,1.278170,0.084982,0.118141,-0.043029,0.000310,0.286626,-0.957489,0.032549,0.005580,0.021882,0.017668,20.863995,-40.654984,-17.079666,,,,,,,
1558972775.110266,1.691317,1.277369,0.076979,0.030950,-0.004484,0.023027,0.287137,-0.957258,0.034774,0.004367,0.023237,0.014740,20.888744,-40.692177,-16.960426,,,,,,,
1558972775.130263,1.694321,1.277739,0.074338,-0.019058,0.013789,0.049852,0.286680,-0.957365,0.035593,0.004031,0.012266,0.013677,20.888744,-40.692177,-16.960426,,,,,,,
1558972775.150238,1.695530,1.277130,0.073429,-0.060592,-0.002936,0.028302,0.287215,-0.957189,0.036012,0.005907,0.020727,-0.000505,20.914021,-40.729610,-16.838984,,,,,,,
1558972775.170238,1.686733,1.275922,0.082365,-0.077613,0.005623,0.037971,0.288669,-0.956839,0.033618,0.016797,0.022970,-0.012851,20.958941,-40.678097,-16.907511,,,,,,,
1558972775.190230,1.682888,1.276520,0.085655,0.025419,-0.044544,0.074938,0.288227,-0.957012,0.032444,0.014477,0.016918,-0.015201,20.958941,-40.678097,-16.907511,,,,,,,
1558972775.210207,1.679511,1.277255,0.087729,0.036103,-0.035101,0.066493,0.287636,-0.957225,0.031394,-0.006767,0.021709,-0.010657,20.931091,-40.633518,-17.048613,,,,,,,
1558972775.230187,1.677015,1.278728,0.090285,-0.062664,0.035179,0.066019,0.286311,-0.957650,0.030526,-0.008143,0.027170,-0.012017,20.881172,-40.652306,-17.065033,,,,,,,
1558972775.250167,1.667901,1.280056,0.101173,-0.169971,0.088560,0.044023,0.285312,-0.958032,0.027792,-0.010089,0.038949,-0.013312,20.840111,-40.634300,-17.157856,,,,,,,
1558972775.270173,1.652285,1.280568,0.119176,-0.173119,0.101250,0.037732,0.285221,-0.958179,0.023294,0.009838,0.014865,-0.025201,20.845238,-40.565834,-17.312933,,,,,,,
1558972775.290158,1.637870,1.281117,0.134174,-0.064866,-0.009296,0.006865,0.285003,-0.958336,0.019145,0.001664,-0.004311,-0.032038,20.860031,-40.481739,-17.491049,,,,,,,
1558972775.310144,1.633142,1.281937,0.138310,0.032985,-0.019281,0.036743,0.284306,-0.958569,0.017748,-0.007130,-0.008716,-0.034350,20.849262,-40.454010,-17.567884,,,,,,,
1558972775.330129,1.638640,1.282807,0.132026,0.104267,-0.025982,0.047412,0.283372,-0.958817,0.019254,-0.024598,-0.014099,-0.007017,20.771683,-40.487450,-17.582743,,,,,,,
1558972775.350114,1.644009,1.283117,0.126515,0.048076,0.024992,0.008352,0.282968,-0.958905,0.020754,-0.022409,-0.010013,0.002424,20.745571,-40.524563,-17.527969,,,,,,,
1558972775.370099,1.645865,1.283905,0.125400,-0.007285,0.036956,0.039385,0.282175,-0.959128,0.021222,-0.005015,-0.013696,0.003939,20.732418,-40.552410,-17.479071,,,,,,,
1558972775.390085,1.647753,1.284987,0.123931,0.035208,0.019850,0.059541,0.281100,-0.959434,0.021675,-0.016161,-0.012841,0.006264,20.698887,-40.578026,-17.459343,,,,,,,
