timestamp(unix),attitude_roll(radians),attitude_pitch(radians),attitude_yaw(radians),rotation_rate_x(radians/s),rotation_rate_y(radians/s),rotation_rate_z(radians/s),gravity_x(G),gravity_y(G),gravity_z(G),user_acc_x(G),user_acc_y(G),user_acc_z(G),magnetic_field_x(microteslas),magnetic_field_y(microteslas),magnetic_field_z(microteslas),latitude(degree),longitude(degree),altitude(meter),speed(m/s),course(degree),timestamp(unix),User Mark
1558973740.110421,-0.076592,1.451129,-1.357685,-0.030638,0.083227,0.019173,-0.009135,-0.992848,-0.119032,-0.015050,0.010381,-0.010881,-5.013260,-47.696934,9.541576,,,,,,,
1558973740.130388,-0.076518,1.451501,-1.356542,0.037396,0.049025,0.006088,-0.009098,-0.992893,-0.118665,-0.009152,-0.000851,-0.006915,-5.047882,-47.699177,9.512068,,,,,,,
1558973740.150368,-0.078004,1.451745,-1.354641,-0.017058,0.000694,0.009852,-0.009255,-0.992922,-0.118409,0.004678,-0.019102,0.013459,-5.070355,-47.690819,9.541951,,,,,,,
1558973740.170374,-0.080853,1.451099,-1.351391,-0.084012,0.043360,0.032628,-0.009644,-0.992845,-0.119022,0.000199,-0.015975,0.019672,-5.080213,-47.694996,9.515793,,,,,,,
1558973740.190328,-0.088988,1.449047,-1.341170,-0.125263,0.136636,0.061247,-0.010793,-0.992598,-0.120968,-0.011393,-0.010790,0.009854,-5.110459,-47.698456,9.482201,,,,,,,
1558973740.210335,-0.096045,1.446511,-1.330828,-0.116659,0.160895,0.056149,-0.011888,-0.992287,-0.123394,-0.009032,-0.001213,0.002560,-5.250056,-47.719006,9.300812,,,,,,,
1558973740.230327,-0.094237,1.444698,-1.330612,-0.076434,0.042134,-0.053856,-0.011834,-0.992060,-0.125207,-0.006766,0.002772,0.004266,-5.317435,-47.727718,9.217448,,,,,,,
1558973740.250295,-0.078154,1.444303,-1.347679,0.061708,-0.062284,-0.124140,-0.009850,-0.992010,-0.125771,-0.014687,0.004721,-0.019309,-5.284812,-47.741917,9.162519,,,,,,,
1558973740.270271,-0.066414,1.445648,-1.360039,0.030908,-0.003865,-0.042465,-0.008284,-0.992179,-0.124547,0.006346,0.001975,-0.000972,-5.141709,-47.748779,9.208067,,,,,,,
1558973740.290280,-0.060569,1.445583,-1.365346,-0.017917,0.042911,-0.034583,-0.007560,-0.992171,-0.124657,-0.002511,0.001937,0.002999,-5.097517,-47.753777,9.206720,,,,,,,
1558973740.310254,-0.054971,1.445866,-1.370104,0.021441,0.039551,-0.022840,-0.006846,-0.992206,-0.124417,0.004176,0.001865,0.002667,-5.090683,-47.755329,9.202474,,,,,,,
1558973740.330247,-0.042905,1.445724,-1.381948,0.001104,-0.005833,-0.048917,-0.005351,-0.992189,-0.124632,0.008997,0.005601,-0.005984,-5.032137,-47.759872,9.211071,,,,,,,
1558973740.350233,-0.034621,1.445649,-1.390491,0.009583,-0.007963,-0.029713,-0.004321,-0.992179,-0.124746,0.007205,0.006355,-0.006922,-4.972413,-47.767124,9.205904,,,,,,,
1558973740.370199,-0.031948,1.445512,-1.393037,-0.006363,0.014369,0.004652,-0.003991,-0.992162,-0.124893,0.004724,0.004461,-0.004837,-4.949243,-47.770931,9.198635,,,,,,,
1558973740.390203,-0.032861,1.445102,-1.391562,-0.015916,0.033481,0.028315,-0.004119,-0.992111,-0.125296,0.007110,0.006851,-0.003122,-4.957311,-47.774071,9.177939,,,,,,,
1558973740.410162,-0.034817,1.444759,-1.388501,-0.016936,0.054651,0.044530,-0.004376,-0.992068,-0.125628,0.007809,0.005358,-0.001065,-4.968210,-47.776592,9.158915,,,,,,,
1558973740.430172,-0.032667,1.443971,-1.389893,-0.007422,0.013307,-0.002836,-0.004131,-0.991968,-0.126418,0.008449,0.017344,-0.006989,-4.991736,-47.780788,9.124178,,,,,,,
1558973740.450156,-0.026290,1.444606,-1.396904,0.046717,-0.051519,-0.045053,-0.003308,-0.992049,-0.125812,0.002423,0.003218,0.007404,-4.951920,-47.786980,9.113427,,,,,,,
1558973740.470122,-0.025689,1.445652,-1.398371,-0.000026,-0.022732,-0.043745,-0.003206,-0.992180,-0.124776,-0.017027,0.004066,0.006414,-4.920164,-47.778419,9.175299,,,,,,,
1558973740.490125,-0.021564,1.444924,-1.402060,-0.039172,0.050449,-0.027079,-0.002707,-0.992089,-0.125511,-0.010400,0.003899,-0.002785,-4.898009,-47.780212,9.177829,,,,,,,
1558973740.510109,-0.020141,1.444249,-1.402167,-0.004034,0.067225,0.004070,-0.002542,-0.992004,-0.126184,0.002130,0.009780,-0.013556,-4.908421,-47.790951,9.116130,,,,,,,
1558973740.530094,-0.018218,1.444081,-1.403071,0.025671,0.028989,-0.014423,-0.002302,-0.991982,-0.126356,0.001982,0.011697,-0.007967,-4.920306,-47.792297,9.102649,,,,,,,
1558973740.550078,-0.009478,1.444565,-1.412129,0.015962,-0.031279,-0.060917,-0.001193,-0.992043,-0.125891,0.006488,0.008462,0.001455,-4.898762,-47.792580,9.112797,,,,,,,
1558973740.570064,0.002391,1.444687,-1.424902,0.001031,-0.042838,-0.067446,0.000301,-0.992059,-0.125774,0.010838,0.005975,-0.000401,-4.793216,-47.799599,9.132082,,,,,,,
1558973740.590035,0.012362,1.444763,-1.435333,0.004294,-0.001566,-0.023276,0.001554,-0.992068,-0.125690,0.007617,0.005160,0.002521,-4.735056,-47.804920,9.134589,,,,,,,
1558973740.610032,0.010644,1.444488,-1.432796,-0.023313,0.052594,0.048751,0.001341,-0.992034,-0.125966,0.010195,0.003508,-0.000652,-4.717921,-47.806358,9.135915,,,,,,,
1558973740.630016,0.007527,1.443861,-1.428989,-0.022359,0.012401,0.034487,0.000953,-0.991955,-0.126591,0.008401,0.011013,-0.005535,-4.751376,-47.810959,9.094444,,,,,,,
1558973740.649987,0.005468,1.444006,-1.426933,-0.007546,-0.009857,0.046028,0.000691,-0.991973,-0.126449,0.011699,-0.009446,0.008957,-4.766356,-47.811092,9.085882,,,,,,,
1558973740.669973,-0.002085,1.443682,-1.419616,-0.029922,-0.022429,0.031998,-0.000264,-0.991932,-0.126772,-0.000834,0.003925,0.006045,-4.796108,-47.807758,9.087753,,,,,,,
1558973740.689949,-0.008446,1.443395,-1.414113,0.049938,-0.040904,-0.025765,-0.001073,-0.991895,-0.127052,-0.022181,0.009626,-0.009377,-4.819409,-47.808296,9.072588,,,,,,,
1558973740.709955,-0.010454,1.444603,-1.412450,0.047957,0.011983,-0.008176,-0.001316,-0.992048,-0.125852,-0.021664,-0.003069,-0.003253,-4.824406,-47.801178,9.107389,,,,,,,
1558973740.729909,-0.013958,1.444596,-1.407683,-0.059355,0.087643,0.024492,-0.001757,-0.992047,-0.125854,-0.013456,-0.008334,0.015548,-4.867876,-47.788055,9.152980,,,,,,,
1558973740.749916,-0.019154,1.443616,-1.400630,-0.066846,0.079238,0.032948,-0.002429,-0.991924,-0.126814,-0.001080,-0.002965,0.005659,-4.932250,-47.795048,9.081743,,,,,,,
1558973740.769896,-0.019427,1.442935,-1.399598,-0.022270,0.017628,-0.013515,-0.002477,-0.991837,-0.127489,0.001073,0.002991,0.005113,-4.960162,-47.798660,9.047464,,,,,,,
1558973740.789876,-0.016090,1.443044,-1.402259,-0.047725,0.051607,0.000669,-0.002050,-0.991851,-0.127388,0.000646,0.000899,0.026360,-4.948320,-47.797939,9.057734,,,,,,,
1558973740.809864,-0.017087,1.442132,-1.399863,-0.114780,0.071043,0.039235,-0.002192,-0.991734,-0.128291,0.009806,0.000462,0.031611,-4.977709,-47.811272,8.970848,,,,,,,
1558973740.829862,-0.019614,1.439802,-1.396933,-0.106489,-0.014669,0.005297,-0.002562,-0.991432,-0.130595,0.006407,0.000786,0.019557,-4.995102,-47.817764,8.926489,,,,,,,
1558973740.849840,-0.019295,1.437930,-1.398824,-0.002352,-0.098817,-0.059482,-0.002556,-0.991186,-0.132451,-0.014214,0.018362,-0.023036,-5.009016,-47.840343,8.796757,,,,,,,
1558973740.869831,-0.012570,1.438971,-1.406967,0.047859,-0.031392,-0.032106,-0.001652,-0.991324,-0.131434,-0.006649,0.002615,-0.012075,-4.921318,-47.842464,8.834647,,,,,,,
1558973740.889814,-0.009813,1.438493,-1.408732,-0.061424,0.089722,-0.005410,-0.001295,-0.991261,-0.131911,-0.010760,0.002308,-0.004243,-4.906965,-47.841488,8.847880,,,,,,,
1558973740.909800,-0.007172,1.437469,-1.409572,-0.026345,0.071557,-0.013030,-0.000953,-0.991125,-0.132929,-0.009072,-0.001123,-0.007314,-4.918316,-47.852341,8.782656,,,,,,,
1558973740.929784,-0.000756,1.437717,-1.416430,0.028604,-0.071495,-0.057061,-0.000100,-0.991158,-0.132687,0.019570,0.000207,-0.014088,-4.891072,-47.858192,8.765993,,,,,,,
1558973740.949767,0.004861,1.438914,-1.423635,0.031772,-0.060881,-0.016387,0.000639,-0.991316,-0.131499,0.003389,-0.008394,0.009566,-4.833011,-47.856518,8.807226,,,,,,,
1558973740.969752,0.003953,1.438738,-1.423147,-0.035149,-0.004464,0.012926,0.000520,-0.991293,-0.131674,0.000868,-0.006571,0.005606,-4.810565,-47.851669,8.845770,,,,,,,
1558973740.989719,0.000106,1.437868,-1.418844,-0.039285,0.037849,0.035725,0.000014,-0.991178,-0.132538,-0.001799,-0.000216,0.003006,-4.819549,-47.855133,8.822130,,,,,,,
1558973741.009702,-0.003765,1.436495,-1.414270,-0.031822,0.020829,-0.010340,-0.000504,-0.990995,-0.133897,-0.004791,0.010496,-0.009520,-4.845537,-47.858570,8.789204,,,,,,,
1558973741.029681,-0.001164,1.435355,-1.416662,-0.002067,0.012235,0.002413,-0.000157,-0.990842,-0.135028,0.002583,0.003568,-0.011121,-4.872229,-47.874355,8.687881,,,,,,,
1558973741.049690,-0.000857,1.434982,-1.417091,-0.003225,-0.020541,-0.007511,-0.000116,-0.990791,-0.135397,0.000620,0.011406,-0.008920,-4.866271,-47.882256,8.647576,,,,,,,
1558973741.069670,-0.001798,1.434305,-1.416590,0.007452,-0.010027,-0.007401,-0.000245,-0.990700,-0.136068,-0.005599,0.011726,-0.008418,-4.863588,-47.882580,8.647304,,,,,,,
1558973741.089651,-0.002328,1.434653,-1.415974,0.021328,0.000466,-0.009424,-0.000316,-0.990747,-0.135723,-0.004231,0.004052,-0.001805,-4.863392,-47.886398,8.626223,,,,,,,
1558973741.109645,0.000717,1.434983,-1.419235,0.004293,-0.007924,-0.025533,0.000097,-0.990792,-0.135396,-0.003958,0.007881,0.002767,-4.851387,-47.883545,8.648796,,,,,,,
1558973741.129556,0.002863,1.435427,-1.421242,0.023456,0.008940,0.009876,0.000386,-0.990852,-0.134956,0.003886,0.003638,0.004219,-4.835149,-47.883923,8.655775,,,,,,,
1558973741.149531,0.004810,1.435866,-1.423548,0.007436,-0.030161,-0.040691,0.000647,-0.990911,-0.134519,0.003809,-0.003550,0.011030,-4.834932,-47.879990,8.677652,,,,,,,
1558973741.169526,0.010846,1.436128,-1.430008,-0.010555,-0.003680,-0.032997,0.001456,-0.990946,-0.134254,-0.002494,-0.002188,0.011954,-4.779001,-47.879669,8.710329,,,,,,,
1558973741.189514,0.013118,1.436721,-1.432175,-0.018020,-0.000444,-0.015890,0.001753,-0.991025,-0.133662,-0.000456,-0.004702,0.009288,-4.764694,-47.877930,8.727724,,,,,,,
1558973741.209499,0.017480,1.436500,-1.436715,-0.053167,-0.008722,-0.020269,0.002340,-0.990996,-0.133872,0.005915,-0.006868,0.016197,-4.748121,-47.880486,8.722744,,,,,,,
1558973741.229464,0.021274,1.435410,-1.440526,-0.057378,0.003979,-0.023354,0.002871,-0.990849,-0.134943,-0.000201,0.008321,0.007394,-4.708078,-47.890686,8.688383,,,,,,,
1558973741.249466,0.023671,1.434567,-1.442958,-0.027584,0.001711,-0.021216,0.003214,-0.990735,-0.135770,-0.002070,0.004651,-0.003955,-4.693719,-47.898144,8.654980,,,,,,,
1558973741.269423,0.024938,1.433504,-1.443931,-0.037126,0.026113,0.005701,0.003413,-0.990590,-0.136819,0.000997,0.013372,-0.009498,-4.678246,-47.909370,8.601034,,,,,,,
1558973741.289429,0.025383,1.432355,-1.444118,-0.015961,-0.004630,0.020369,0.003502,-0.990432,-0.137955,0.009269,0.010360,-0.004684,-4.689104,-47.919350,8.539315,,,,,,,
1558973741.309422,0.022328,1.432313,-1.441352,0.006393,-0.014321,0.018151,0.003082,-0.990426,-0.138007,0.000626,0.010034,0.000373,-4.688853,-47.922070,8.524147,,,,,,,
1558973741.329390,0.019386,1.432579,-1.438444,0.002232,0.004693,-0.004090,0.002671,-0.990463,-0.137752,-0.009476,0.002884,0.004955,-4.714868,-47.917374,8.536213,,,,,,,
1558973741.349366,0.020690,1.432282,-1.439634,-0.002012,0.007882,-0.007266,0.002857,-0.990422,-0.138043,-0.000964,0.006856,-0.007175,-4.707998,-47.918041,8.536247,,,,,,,
1558973741.369375,0.020863,1.432321,-1.439606,0.001179,0.011049,0.001308,0.002880,-0.990428,-0.138003,0.001301,0.000575,-0.000226,-4.707986,-47.920296,8.523607,,,,,,,
1558973741.389360,0.022678,1.432178,-1.441272,-0.015851,0.004774,-0.013713,0.003133,-0.990408,-0.138139,0.001338,-0.000437,0.001664,-4.705855,-47.920498,8.523626,,,,,,,
1558973741.409344,0.024917,1.431970,-1.443641,0.006433,-0.015424,-0.011754,0.003448,-0.990379,-0.138338,0.003129,0.000435,-0.003050,-4.691854,-47.924129,8.510921,,,,,,,
1558973741.429310,0.027912,1.432462,-1.447352,0.029816,-0.036721,-0.034359,0.003848,-0.990447,-0.137840,-0.001071,-0.001512,-0.003243,-4.672215,-47.924618,8.518986,,,,,,,
1558973741.449304,0.029907,1.432826,-1.449664,-0.000929,0.006796,-0.022223,0.004113,-0.990497,-0.137471,-0.009255,-0.005429,0.002370,-4.648881,-47.920918,8.552500,,,,,,,
1558973741.469298,0.029589,1.432659,-1.448927,-0.005089,0.024714,-0.016722,0.004074,-0.990474,-0.137638,-0.009399,0.001903,0.000339,-4.631179,-47.923840,8.545731,,,,,,,
1558973741.489280,0.032858,1.433215,-1.452113,0.015081,-0.005031,-0.044749,0.004506,-0.990551,-0.137074,-0.000706,-0.002842,0.005680,-4.644377,-47.922821,8.544248,,,,,,,
1558973741.509268,0.038264,1.433030,-1.457638,-0.031734,0.010041,-0.026492,0.005254,-0.990525,-0.137231,-0.000432,0.003220,0.001870,-4.602289,-47.921494,8.574429,,,,,,,
1558973741.529253,0.038879,1.431820,-1.457449,-0.042286,0.052421,0.003799,0.005385,-0.990358,-0.138425,-0.000486,0.008409,-0.005114,-4.590108,-47.931767,8.523399,,,,,,,
1558973741.549214,0.039897,1.430749,-1.457546,0.007717,0.038396,-0.010175,0.005568,-0.990209,-0.139478,-0.000334,0.010198,-0.013262,-4.593873,-47.935200,8.502035,,,,,,,
1558973741.569222,0.043400,1.430835,-1.460471,0.050232,0.019147,-0.010325,0.006053,-0.990221,-0.139374,0.005041,0.010195,-0.008454,-4.595712,-47.945816,8.440938,,,,,,,
1558973741.589206,0.048632,1.431836,-1.465694,0.056519,-0.011542,-0.011683,0.006734,-0.990360,-0.138350,0.007655,0.003315,0.003386,-4.566341,-47.941757,8.479877,,,,,,,
1558973741.609184,0.051907,1.433071,-1.469294,0.039465,-0.014611,-0.003186,0.007123,-0.990531,-0.137106,0.004794,-0.001199,0.005636,-4.552705,-47.939854,8.497940,,,,,,,
1558973741.629175,0.050797,1.433433,-1.468297,0.004401,-0.004984,0.006487,0.006953,-0.990580,-0.136755,-0.000285,0.005412,0.001669,-4.531434,-47.928719,8.571787,,,,,,,
1558973741.649159,0.051282,1.433853,-1.468697,0.023617,0.002284,-0.013713,0.006998,-0.990638,-0.136337,-0.006296,0.005027,0.006362,-4.535816,-47.927349,8.577133,,,,,,,
1558973741.669144,0.050593,1.434770,-1.467962,0.022600,0.010726,-0.026443,0.006858,-0.990763,-0.135434,-0.010016,0.000299,0.004361,-4.540849,-47.918617,8.623125,,,,,,,
1558973741.689129,0.053920,1.434950,-1.471266,0.012923,-0.015640,-0.020298,0.007299,-0.990787,-0.135233,0.000560,-0.003720,-0.003470,-4.532595,-47.915081,8.647090,,,,,,,
1558973741.709113,0.057996,1.435326,-1.476213,0.023458,-0.051642,-0.025972,0.007828,-0.990838,-0.134829,0.005416,-0.006950,0.004382,-4.492137,-47.915352,8.666657,,,,,,,
1558973741.729092,0.058881,1.436112,-1.477665,-0.005158,-0.003894,-0.004185,0.007902,-0.990944,-0.134045,-0.004667,-0.004738,0.014599,-4.470661,-47.912411,8.694008,,,,,,,
1558973741.749082,0.059479,1.435642,-1.477764,-0.028456,0.032166,-0.004926,0.008010,-0.990880,-0.134505,-0.006697,-0.005976,0.006041,-4.472041,-47.909374,8.709999,,,,,,,
1558973741.769066,0.062420,1.435406,-1.480469,0.006603,-0.000826,-0.031905,0.008420,-0.990849,-0.134714,0.000720,-0.000591,-0.002798,-4.465900,-47.916046,8.676394,,,,,,,
1558973741.789052,0.067085,1.435779,-1.485652,0.025724,-0.033783,-0.025792,0.009023,-0.990899,-0.134305,0.002528,-0.003181,-0.001056,-4.441585,-47.916584,8.685865,,,,,,,
1558973741.809034,0.070085,1.435891,-1.489265,-0.018950,-0.021917,-0.022511,0.009419,-0.990914,-0.134167,0.000195,-0.003700,0.005840,-4.407628,-47.915985,8.706482,,,,,,,
1558973741.829010,0.072636,1.435548,-1.492151,-0.030647,-0.009141,-0.002113,0.009785,-0.990868,-0.134481,0.004848,0.000817,0.001760,-4.378828,-47.919605,8.701068,,,,,,,
1558973741.849006,0.071849,1.434888,-1.491348,-0.018921,0.005626,0.018322,0.009726,-0.990779,-0.135140,0.006326,0.008357,-0.005256,-4.374715,-47.923225,8.683191,,,,,,,
1558973741.868977,0.069602,1.434509,-1.488937,0.006627,0.005490,0.017273,0.009449,-0.990727,-0.135536,0.002270,0.017369,-0.009346,-4.379239,-47.926872,8.660766,,,,,,,
1558973741.888966,0.066647,1.434410,-1.485947,0.022584,-0.004130,0.002247,0.009055,-0.990714,-0.135662,-0.007926,0.011740,-0.006917,-4.398729,-47.928185,8.643589,,,,,,,
1558973741.908959,0.068608,1.434911,-1.488245,0.027881,-0.022160,-0.020341,0.009287,-0.990782,-0.135149,-0.005854,0.009382,-0.007109,-4.403986,-47.926491,8.650316,,,,,,,
1558973741.928938,0.071295,1.435277,-1.491400,0.019375,-0.018945,-0.020318,0.009624,-0.990831,-0.134761,-0.001690,0.012377,-0.002324,-4.386804,-47.924141,8.672032,,,,,,,
1558973741.948914,0.073061,1.435802,-1.493354,0.036440,-0.004222,-0.010554,0.009824,-0.990902,-0.134225,-0.000684,0.002590,0.000360,-4.359825,-47.921024,8.702829,,,,,,,
1558973741.968913,0.076456,1.436584,-1.496951,0.032188,-0.011629,-0.030914,0.010220,-0.991007,-0.133418,-0.002164,0.006403,0.002132,-4.357999,-47.919533,8.711939,,,,,,,
1558973741.988875,0.079929,1.437078,-1.500693,0.016206,-0.008349,-0.013813,0.010645,-0.991073,-0.132895,-0.000193,-0.002411,0.002279,-4.328241,-47.913742,8.758518,,,,,,,
1558973742.008867,0.087056,1.437180,-1.508168,-0.017926,-0.032491,-0.020479,0.011583,-0.991087,-0.132714,0.013091,-0.001635,0.001916,-4.287532,-47.911781,8.789181,,,,,,,
1558973742.028867,0.091825,1.436688,-1.514019,-0.014834,-0.064221,-0.022917,0.012260,-0.991021,-0.133143,0.010674,-0.015952,-0.002507,-4.237276,-47.918747,8.775547,,,,,,,
1558973742.048844,0.096582,1.436229,-1.520254,-0.015895,-0.073764,-0.046498,0.012938,-0.990959,-0.133537,0.000139,-0.012932,-0.012307,-4.205834,-47.922413,8.770693,,,,,,,
1558973742.068829,0.104384,1.434518,-1.529996,-0.016012,-0.113948,-0.058628,0.014156,-0.990729,-0.135117,0.012410,-0.047953,-0.030410,-4.107356,-47.939011,8.726555,,,,,,,
1558973742.088798,0.111693,1.433745,-1.540238,-0.046813,-0.141446,-0.082382,0.015228,-0.990623,-0.135771,0.014649,-0.100868,-0.042650,-4.028685,-47.952641,8.688243,,,,,,,
1558973742.108805,0.116546,1.431673,-1.547190,-0.138201,-0.075372,-0.042320,0.016125,-0.990338,-0.137734,0.013797,-0.126041,-0.058433,-3.953570,-47.963558,8.662466,,,,,,,
1558973742.128788,0.118288,1.427842,-1.549681,-0.197630,-0.020096,-0.042906,0.016813,-0.989799,-0.141473,-0.004377,-0.114525,-0.121528,-3.869740,-48.006836,8.458124,,,,,,,
1558973742.148758,0.125400,1.424869,-1.557132,-0.097490,-0.023884,-0.103718,0.018187,-0.989371,-0.144269,-0.034208,-0.086053,-0.160739,-3.832788,-48.032219,8.329893,,,,,,,
1558973742.168758,0.148038,1.424202,-1.580925,0.043044,-0.069186,-0.217210,0.021545,-0.989274,-0.144472,-0.028228,-0.079344,-0.158690,-3.754994,-48.050098,8.261921,,,,,,,
1558973742.188743,0.171785,1.420768,-1.606993,0.099484,-0.085426,-0.276039,0.025550,-0.988767,-0.147266,-0.025962,-0.054721,-0.164883,-3.455039,-48.096909,8.119206,,,,,,,
1558973742.208702,0.210697,1.421436,-1.646724,0.074323,0.028852,-0.283507,0.031122,-0.988866,-0.145515,-0.031488,-0.049494,-0.162926,-3.244590,-48.098953,8.193578,,,,,,,
1558973742.228712,0.246592,1.421425,-1.680798,0.053340,0.149550,-0.223648,0.036326,-0.988865,-0.144314,-0.028636,-0.025021,-0.163593,-3.045911,-48.103024,8.245790,,,,,,,
1558973742.248698,0.280198,1.421994,-1.711769,0.120399,0.123740,-0.223815,0.040999,-0.988949,-0.142472,-0.001235,0.034268,-0.192138,-2.755847,-48.106335,8.328110,,,,,,,
1558973742.268669,0.322181,1.423787,-1.753762,0.207258,-0.041726,-0.301132,0.046381,-0.989214,-0.138943,0.016577,0.044801,-0.197849,-2.593672,-48.097725,8.429287,,,,,,,
1558973742.288666,0.358144,1.419121,-1.791529,0.274396,-0.024146,-0.325467,0.052964,-0.988519,-0.141507,0.002303,0.071649,-0.189823,-2.290984,-48.076153,8.637503,,,,,,,
1558973742.308652,0.413396,1.422205,-1.845924,0.302568,0.131101,-0.315417,0.059473,-0.988981,-0.135574,-0.020944,0.096372,-0.206726,-1.886841,-48.097401,8.616898,,,,,,,
1558973742.328636,0.472840,1.425028,-1.902365,0.310230,0.196599,-0.312649,0.066150,-0.989395,-0.129315,-0.003849,0.126815,-0.211917,-1.680344,-48.066246,8.830859,,,,,,,
1558973742.348621,0.534994,1.427747,-1.961684,0.337726,0.144672,-0.305650,0.072683,-0.989786,-0.122642,-0.002295,0.135812,-0.210549,-1.481484,-48.032127,9.049413,,,,,,,
1558973742.368592,0.600034,1.430682,-2.025370,0.384364,0.088418,-0.296543,0.078860,-0.990200,-0.115261,0.008619,0.151501,-0.214528,-1.080862,-47.947979,9.539116,,,,,,,
1558973742.388583,0.671465,1.433974,-2.093412,0.410592,0.307120,-0.270940,0.084857,-0.990654,-0.106786,-0.060183,0.170372,-0.190287,-0.889580,-47.894257,9.824472,,,,,,,
1558973742.408563,0.743674,1.435790,-2.156818,0.301714,0.539177,-0.270942,0.091122,-0.990900,-0.099062,-0.080548,0.181101,-0.178526,-0.700211,-47.819115,10.198698,,,,,,,
1558973742.428559,0.808409,1.435288,-2.211268,0.215448,0.523767,-0.276497,0.097698,-0.990833,-0.093303,0.010166,0.212238,-0.157277,-0.509399,-47.751926,10.519753,,,,,,,
1558973742.448544,0.866314,1.434874,-2.259040,0.240969,0.548049,-0.205779,0.103247,-0.990777,-0.087758,-0.010870,0.228509,-0.163280,-0.406507,-47.719269,10.671331,,,,,,,
1558973742.468519,0.930715,1.435456,-2.312560,0.359190,0.564331,-0.211935,0.108218,-0.990856,-0.080587,-0.030902,0.235484,-0.158335,-0.329936,-47.666695,10.906376,,,,,,,
1558973742.488496,1.018819,1.436014,-2.391003,0.483715,0.514912,-0.307329,0.114418,-0.990931,-0.070462,-0.062218,0.255411,-0.099475,-0.194428,-47.556911,11.378674,,,,,,,
1558973742.508497,1.104959,1.436124,-2.464044,0.387628,0.825359,-0.147490,0.119959,-0.990945,-0.060308,-0.065241,0.273248,-0.098856,-0.083761,-47.476418,11.711292,,,,,,,
1558973742.528483,1.178070,1.438940,-2.519239,0.427213,0.924623,0.011538,0.121465,-0.991320,-0.050316,-0.069753,0.248506,-0.059364,-0.172677,-47.384544,12.076706,,,,,,,
1558973742.548441,1.271106,1.441968,-2.596074,0.558845,0.780066,-0.063408,0.122745,-0.991713,-0.037928,-0.081623,0.241698,0.045328,-0.439307,-47.239765,12.624698,,,,,,,
1558973742.568452,1.362234,1.442675,-2.673457,0.411765,0.711030,-0.094080,0.125003,-0.991804,-0.026456,-0.082034,0.246107,0.074185,-0.473798,-47.204483,12.754762,,,,,,,
1558973742.588417,1.423823,1.442887,-2.720107,0.257592,0.809230,0.002824,0.126185,-0.991831,-0.018681,-0.086024,0.242716,0.103809,-0.639329,-47.035671,13.356975,,,,,,,
1558973742.608401,1.491877,1.444217,-2.770263,0.385833,0.979850,0.041928,0.125849,-0.991999,-0.009953,-0.118189,0.212092,0.159992,-0.940550,-46.938393,13.677505,,,,,,,
1558973742.628406,1.580759,1.446748,-2.839679,0.425040,0.981942,0.165826,0.123724,-0.992316,0.001233,-0.063040,0.194937,0.200580,-1.293287,-46.817898,14.056446,,,,,,,
1558973742.648382,1.652237,1.452103,-2.891772,0.222564,0.997017,0.347308,0.118023,-0.992964,0.009633,-0.071468,0.193617,0.206523,-1.651369,-46.732426,14.301214,,,,,,,
1558973742.668366,1.715386,1.459342,-2.935019,0.249210,1.025475,0.387105,0.110064,-0.993795,0.016026,-0.133455,0.206701,0.209148,-2.436040,-46.636696,14.500205,,,,,,,
1558973742.688346,1.815237,1.463645,-3.017188,0.483988,0.805191,0.219699,0.103767,-0.994265,0.025882,-0.154533,0.202563,0.247677,-2.905305,-46.554672,14.676291,,,,,,,
1558973742.708344,1.926044,1.463449,-3.114515,0.452787,0.669944,0.143644,0.100452,-0.994244,0.037266,-0.162494,0.159023,0.338161,-3.324938,-46.396362,15.082895,,,,,,,
1558973742.728329,1.995694,1.466683,3.113545,0.030344,0.816238,0.359303,0.094685,-0.994585,0.042841,-0.121876,0.110033,0.354559,-3.812994,-46.245380,15.427176,,,,,,,
1558973742.748313,2.023534,1.477432,3.104533,-0.260033,0.978734,0.563479,0.083835,-0.995645,0.040781,-0.136265,0.140451,0.280631,-4.312351,-46.236736,15.321211,,,,,,,
1558973742.768299,2.075688,1.487862,3.068392,0.058320,0.638692,0.479338,0.072503,-0.996563,0.040070,-0.109292,0.161327,0.289718,-4.919437,-46.253494,15.085932,,,,,,,
1558973742.788283,2.190083,1.491249,2.961309,0.334137,0.290347,0.348106,0.064706,-0.996838,0.046125,-0.143640,0.118145,0.424639,-5.813489,-46.134308,15.132760,,,,,,,
1558973742.808268,2.294680,1.497275,2.862255,-0.102516,0.336341,0.591620,0.055035,-0.997299,0.048649,-0.134075,0.051330,0.436626,-6.276796,-46.018322,15.299914,,,,,,,
1558973742.828252,2.377429,1.515556,2.787454,-0.607349,0.411380,0.933581,0.038203,-0.998475,0.039860,-0.096155,0.053483,0.360957,-6.840786,-46.010536,15.079992,,,,,,,
1558973742.848237,2.545172,1.535503,2.625779,-0.440680,0.240218,0.861612,0.019820,-0.999377,0.029195,-0.135802,0.099811,0.343165,-8.032173,-46.051399,14.350075,,,,,,,
1558973742.868222,2.992470,1.546316,2.181600,-0.165272,0.116043,0.784841,0.003637,-0.999700,0.024205,-0.121709,0.063696,0.338451,-8.846712,-46.003162,14.022001,,,,,,,
1558973742.888207,-2.589238,1.547253,1.479581,-0.283249,-0.132728,0.828274,-0.012352,-0.999723,0.020041,-0.083931,0.039716,0.334375,-9.219761,-45.954845,13.939850,,,,,,,
1558973742.908191,-1.977460,1.539147,0.860903,-0.397043,-0.424925,0.826454,-0.029062,-0.999499,0.012516,-0.036460,0.048770,0.299145,-10.284975,-45.837654,13.575715,,,,,,,
1558973742.928176,-1.700865,1.524672,0.575765,-0.317119,-0.379834,0.866452,-0.045720,-0.998936,0.005980,-0.084041,0.026234,0.312699,-10.762906,-45.783188,13.387698,,,,,,,
1558973742.948156,-1.577467,1.506795,0.445224,-0.290496,-0.349231,0.926554,-0.063957,-0.997953,0.000427,-0.065774,-0.027835,0.327195,-11.280947,-45.703308,13.233279,,,,,,,
1558973742.968140,-1.530878,1.488622,0.387905,-0.162676,-0.667070,0.884111,-0.082017,-0.996626,-0.003276,0.009385,-0.033358,0.320552,-12.372084,-45.484150,13.011354,,,,,,,
1558973742.988118,-1.538105,1.470367,0.379357,-0.052543,-0.804941,0.964021,-0.100207,-0.994961,-0.003277,-0.008238,-0.064441,0.348538,-12.829802,-45.340187,13.070408,,,,,,,
1558973743.008100,-1.526057,1.448572,0.353055,-0.306688,-0.644796,1.137242,-0.121798,-0.992540,-0.005453,-0.047010,-0.171980,0.374807,-13.328393,-45.162964,13.184533,,,,,,,
1558973743.028077,-1.482369,1.425748,0.295804,-0.498348,-0.693576,1.065089,-0.143975,-0.989499,-0.012765,-0.063010,-0.184466,0.267785,-14.575939,-44.826286,13.012223,,,,,,,
1558973743.048057,-1.461627,1.406457,0.257010,-0.308539,-1.013049,0.853992,-0.162627,-0.986527,-0.017825,-0.038575,-0.226929,0.262179,-15.106849,-44.691689,12.868869,,,,,,,
1558973743.068068,-1.467815,1.389800,0.240744,-0.217319,-1.124556,0.826306,-0.179056,-0.983665,-0.018505,-0.044058,-0.297097,0.266323,-15.486988,-44.554943,12.891164,,,,,,,
1558973743.088054,-1.475007,1.372124,0.225762,-0.211959,-1.092808,0.870388,-0.196463,-0.980329,-0.018877,-0.083581,-0.332934,0.240450,-15.926838,-44.354305,13.046181,,,,,,,
1558973743.108038,-1.491722,1.356409,0.218485,-0.101603,-1.283927,0.685011,-0.212084,-0.977107,-0.016806,-0.052946,-0.407827,0.196203,-16.593309,-44.020847,13.341619,,,,,,,
1558973743.128023,-1.519340,1.345590,0.216912,-0.044712,-1.551938,0.491383,-0.223011,-0.974748,-0.011486,-0.033764,-0.473784,0.192851,-16.593309,-44.020847,13.341619,,,,,,,
1558973743.148008,-1.541951,1.335680,0.207019,-0.212028,-1.607070,0.498194,-0.232860,-0.972487,-0.006719,-0.076161,-0.573030,0.206365,-16.713951,-43.704929,14.201928,,,,,,,
1558973743.167992,-1.543440,1.325327,0.177360,-0.459585,-1.453523,0.522954,-0.242921,-0.970023,-0.006647,-0.134216,-0.574105,0.156824,-16.708317,-43.678429,14.289822,,,,,,,
1558973743.187976,-1.527106,1.314661,0.131913,-0.639138,-1.370203,0.475563,-0.253102,-0.967376,-0.011065,-0.133281,-0.573227,0.103610,-16.745008,-43.603844,14.473459,,,,,,,
1558973743.207962,-1.507432,1.307625,0.081894,-0.648729,-1.494218,0.210660,-0.259622,-0.965570,-0.016473,-0.094809,-0.552008,0.029916,-16.688030,-43.666264,14.350563,,,,,,,
1558973743.227928,-1.498240,1.305411,0.038931,-0.507409,-1.667564,0.001990,-0.261591,-0.964992,-0.019013,-0.062445,-0.520513,-0.014403,-16.626938,-43.695217,14.333341,,,,,,,
1558973743.247932,-1.497638,1.307415,0.004233,-0.433426,-1.616523,-0.241953,-0.259651,-0.965515,-0.019030,-0.139748,-0.472626,-0.035490,-15.958556,-43.910721,14.434159,,,,,,,
1558973743.267916,-1.494817,1.315898,-0.031222,-0.403970,-1.550580,-0.573337,-0.251420,-0.967689,-0.019140,-0.171981,-0.434991,-0.085047,-15.014212,-44.194546,14.580369,,,,,,,
1558973743.287895,-1.490544,1.328073,-0.066462,-0.388633,-1.453530,-0.650334,-0.239574,-0.970687,-0.019268,-0.123036,-0.459107,-0.110859,-14.271842,-44.414803,14.656443,,,,,,,
1558973743.307859,-1.478071,1.340078,-0.107922,-0.470317,-1.364299,-0.642072,-0.227695,-0.973502,-0.021174,-0.124021,-0.456902,-0.116171,-13.274008,-44.709358,14.698488,,,,,,,
1558973743.327859,-1.451547,1.353163,-0.162274,-0.552902,-1.291134,-0.778097,-0.214386,-0.976411,-0.025687,-0.208297,-0.380034,-0.191079,-12.026302,-45.103401,14.567862,,,,,,,
1558973743.347834,-1.414294,1.369415,-0.224582,-0.508375,-1.103485,-0.955630,-0.197578,-0.979791,-0.031176,-0.247933,-0.323279,-0.232770,-11.193444,-45.366051,14.415275,,,,,,,
1558973743.367811,-1.366841,1.387020,-0.290928,-0.459343,-0.769759,-0.976952,-0.178956,-0.983161,-0.037014,-0.242248,-0.294931,-0.224904,-10.019201,-45.711464,14.186235,,,,,,,
1558973743.387818,-1.289579,1.404044,-0.383598,-0.681457,-0.700019,-1.066145,-0.159461,-0.986129,-0.046064,-0.177163,-0.203492,-0.229189,-8.620076,-46.121441,13.772392,,,,,,,
1558973743.407809,-1.163737,1.420665,-0.525671,-0.788812,-0.707034,-1.186943,-0.137347,-0.988751,-0.059216,-0.106290,-0.088763,-0.214756,-7.380580,-46.503628,13.195105,,,,,,,
1558973743.427794,-1.007980,1.434001,-0.694490,-0.747592,-0.447140,-1.129972,-0.115335,-0.990658,-0.072763,-0.138434,-0.073169,-0.199790,-6.741046,-46.688793,12.879680,,,,,,,
1558973743.447779,-0.818620,1.442340,-0.890721,-0.787166,-0.174202,-1.115647,-0.093542,-0.991761,-0.087524,-0.177073,0.063675,-0.230103,-4.994614,-47.169815,11.884169,,,,,,,
1558973743.467764,-0.607465,1.444929,-1.105765,-0.802932,-0.113874,-1.118285,-0.071654,-0.992089,-0.103077,-0.064409,0.086511,-0.207303,-3.912924,-47.450672,11.148724,,,,,,,
1558973743.487748,-0.398934,1.442561,-1.322365,-0.696413,-0.437951,-1.166143,-0.049675,-0.991789,-0.117842,-0.026131,0.089094,-0.222978,-3.363930,-47.579590,10.772097,,,,,,,
1558973743.507722,-0.210145,1.441642,-1.523323,-0.245262,-0.537703,-1.257487,-0.026867,-0.991671,-0.125962,-0.117924,0.183367,-0.273360,-1.545175,-47.858749,9.915842,,,,,,,
1558973743.527718,-0.016129,1.444929,-1.727179,0.132414,-0.294510,-1.290089,-0.002025,-0.992089,-0.125519,-0.200551,0.175515,-0.254089,-0.545550,-47.897972,9.831499,,,,,,,
1558973743.547682,0.160280,1.446122,-1.906372,0.086378,0.057003,-0.988859,0.019846,-0.992238,-0.122758,-0.134653,0.100240,-0.206542,0.417310,-47.881023,9.919922,,,,,,,
1558973743.567657,0.288397,1.440285,-2.031952,-0.207198,0.219521,-0.780415,0.037014,-0.991496,-0.124766,-0.052441,0.152674,-0.189031,1.785291,-47.840111,9.965338,,,,,,,
1558973743.587672,0.391248,1.432665,-2.131918,-0.026461,0.151982,-0.778782,0.052508,-0.990475,-0.127288,-0.050112,0.161221,-0.181489,2.298766,-47.847034,9.825907,,,,,,,
1558973743.607649,0.515545,1.428164,-2.255179,0.267369,0.100559,-0.912495,0.070081,-0.989845,-0.123673,-0.053586,0.161720,-0.156723,2.837993,-47.820503,9.814100,,,,,,,
1558973743.627623,0.639154,1.424086,-2.376408,0.292087,0.235935,-0.772385,0.087201,-0.989257,-0.117328,-0.003888,0.088287,-0.085569,4.056141,-47.651016,10.202936,,,,,,,
1558973743.647626,0.724924,1.417701,-2.458414,0.006561,0.220715,-0.643574,0.101118,-0.988304,-0.114152,0.006884,0.081642,-0.059233,4.536376,-47.566620,10.392754,,,,,,,
1558973743.667611,0.764323,1.406727,-2.493403,-0.297887,0.267925,-0.536601,0.113035,-0.986571,-0.117903,-0.036650,0.218947,-0.089235,5.085853,-47.515835,10.370680,,,,,,,
1558973743.687597,0.797703,1.397397,-2.520026,-0.053801,0.403122,-0.452903,0.123490,-0.985004,-0.120488,-0.057115,0.200962,-0.120998,5.622391,-47.508438,10.124636,,,,,,,
1558973743.707556,0.848592,1.392068,-2.563776,0.143013,0.352356,-0.487396,0.133396,-0.984070,-0.117519,-0.014317,0.226868,-0.080891,5.709485,-47.498341,10.123276,,,,,,,
1558973743.727566,0.897798,1.385355,-2.609000,0.064717,0.156106,-0.525637,0.144177,-0.982855,-0.114930,0.031040,0.254477,-0.057540,6.276554,-47.380039,10.339642,,,,,,,
1558973743.747529,0.937446,1.377835,-2.648333,0.087637,0.002714,-0.529223,0.154573,-0.981441,-0.113496,-0.001222,0.311107,-0.039931,6.866193,-47.277325,10.434650,,,,,,,
1558973743.767507,0.982605,1.371523,-2.693630,0.243290,0.093916,-0.488722,0.164689,-0.980211,-0.109838,-0.074617,0.354906,-0.032191,6.991022,-47.254425,10.455438,,,,,,,
1558973743.787520,1.035162,1.367155,-2.742775,0.315117,0.276494,-0.426061,0.173913,-0.979337,-0.103219,-0.026925,0.369504,-0.016135,7.664385,-47.076981,10.778990,,,,,,,
1558973743.807504,1.081524,1.364164,-2.784289,0.271218,0.276979,-0.255268,0.181094,-0.978727,-0.096424,0.031415,0.359007,-0.000576,7.839340,-47.009346,10.947038,,,,,,,
1558973743.827476,1.104719,1.363660,-2.803796,0.102340,0.156601,-0.060109,0.183722,-0.978624,-0.092420,0.042215,0.361909,0.031522,8.139407,-46.853329,11.388029,,,,,,,
1558973743.847474,1.121603,1.362981,-2.818719,0.177898,0.105320,-0.158763,0.185855,-0.978484,-0.089593,-0.077380,0.327819,0.035333,8.168470,-46.818005,11.511827,,,,,,,
1558973743.867459,1.155608,1.361174,-2.851009,0.291993,0.132097,-0.229948,0.190411,-0.978110,-0.083936,-0.100689,0.308874,0.045651,8.219255,-46.789143,11.592732,,,,,,,
1558973743.887443,1.188437,1.359860,-2.881458,0.239823,0.166316,-0.148521,0.194256,-0.977835,-0.078120,-0.007824,0.224219,0.114818,8.509083,-46.615387,12.073660,,,,,,,
1558973743.907428,1.208359,1.359915,-2.898342,0.111879,0.167195,-0.009821,0.195723,-0.977847,-0.074216,0.006120,0.174075,0.133893,8.557928,-46.561970,12.244024,,,,,,,
1558973743.927414,1.212012,1.360907,-2.898947,-0.012823,0.154223,0.066826,0.195085,-0.978054,-0.073160,0.007933,0.168438,0.134638,8.549346,-46.543507,12.319995,,,,,,,
1558973743.947380,1.213411,1.362633,-2.896655,0.036281,0.210032,0.097293,0.193605,-0.978412,-0.072296,-0.027727,0.088291,0.108963,8.377981,-46.556446,12.388656,,,,,,,
1558973743.967383,1.221424,1.364287,-2.900235,0.073664,0.221373,0.037643,0.192657,-0.978753,-0.070188,-0.014633,0.072381,0.098158,8.275358,-46.558304,12.450475,,,,,,,
1558973743.987368,1.229760,1.365143,-2.905039,0.038369,0.168703,0.033908,0.192446,-0.978928,-0.068300,0.018430,0.026489,0.093233,8.176709,-46.542927,12.572557,,,,,,,
1558973744.007348,1.229727,1.367773,-2.900833,-0.005346,0.224147,0.202024,0.190017,-0.979461,-0.067445,0.009721,0.011764,0.075181,8.039153,-46.554829,12.617116,,,,,,,
1558973744.027337,1.264917,1.372714,-2.931223,0.038200,0.168888,0.157758,0.187655,-0.980446,-0.059259,0.006208,0.018242,0.054422,7.852330,-46.580082,12.641550,,,,,,,
1558973744.047322,1.274850,1.375501,-2.938802,0.143483,0.111168,0.098569,0.185620,-0.980990,-0.056596,0.030856,0.000827,0.062226,7.674463,-46.484791,13.093447,,,,,,,
1558973744.067307,1.279945,1.378136,-2.942330,0.001712,0.068628,0.134348,0.183429,-0.981498,-0.054908,0.028089,-0.040139,0.058997,7.550408,-46.473236,13.206103,,,,,,,
1558973744.087291,1.297655,1.381460,-2.958309,-0.109156,0.024847,0.155194,0.181230,-0.982129,-0.050771,0.017820,-0.047290,0.047810,7.475865,-46.486706,13.201096,,,,,,,
1558973744.107264,1.282728,1.383132,-2.942942,-0.125083,0.013226,0.102755,0.178877,-0.982443,-0.053003,-0.029295,-0.008463,0.014948,7.289459,-46.480904,13.325220,,,,,,,
1558973744.127261,1.265526,1.387218,-2.924044,-0.108884,0.097747,0.133478,0.174109,-0.983197,-0.054865,-0.008475,0.003338,-0.005178,7.054823,-46.544628,13.228722,,,,,,,
1558973744.147218,1.256636,1.389732,-2.913920,-0.014471,0.002131,0.141179,0.171263,-0.983653,-0.055647,0.011125,0.014460,-0.009538,6.977067,-46.567253,13.190248,,,,,,,
1558973744.167207,1.255594,1.393242,-2.914852,0.037326,-0.140945,0.069390,0.167921,-0.984279,-0.054755,-0.012999,-0.000051,0.007391,6.808044,-46.596779,13.174316,,,,,,,
1558973744.187215,1.249613,1.393924,-2.910687,-0.077249,-0.036803,0.038265,0.166954,-0.984399,-0.055546,-0.040917,-0.009330,0.008107,6.732669,-46.597893,13.209063,,,,,,,
1558973744.207174,1.234135,1.394050,-2.893569,-0.145967,0.121098,0.068548,0.165957,-0.984421,-0.058082,-0.037707,-0.000885,-0.007897,6.712154,-46.617287,13.150927,,,,,,,
1558973744.227171,1.216899,1.395140,-2.873971,-0.011895,0.093928,0.041706,0.163925,-0.984612,-0.060562,-0.012420,0.014123,-0.014893,6.581466,-46.676315,13.006825,,,,,,,
1558973744.247170,1.223120,1.395508,-2.879838,0.074070,-0.012315,-0.019031,0.163958,-0.984676,-0.059418,0.007002,-0.009296,0.010605,6.513843,-46.695244,12.972878,,,,,,,
1558973744.267134,1.225876,1.395943,-2.882711,-0.003644,0.013552,0.042011,0.163718,-0.984752,-0.058821,0.012369,-0.016514,0.010054,6.523607,-46.685154,13.004254,,,,,,,
1558973744.287140,1.222928,1.396315,-2.878786,-0.036577,0.051837,0.081851,0.163200,-0.984817,-0.059178,-0.000236,-0.004411,-0.009776,6.492235,-46.688789,13.006896,,,,,,,
1558973744.307125,1.214012,1.398734,-2.868518,-0.022632,0.079228,0.070384,0.160432,-0.985234,-0.059799,-0.016343,-0.009258,-0.003922,6.407740,-46.706429,12.985456,,,,,,,
1558973744.327109,1.204633,1.401084,-2.857227,-0.026849,0.097235,0.081232,0.157702,-0.985633,-0.060472,-0.015063,0.007560,-0.007567,6.214784,-46.744499,12.942179,,,,,,,
1558973744.347094,1.194583,1.401754,-2.845911,0.026259,0.037680,0.025187,0.156472,-0.985746,-0.061811,0.006385,0.013594,-0.010699,6.067575,-46.775818,12.898806,,,,,,,
1558973744.367053,1.205061,1.400552,-2.856267,0.066602,0.003640,0.022753,0.158217,-0.985543,-0.060592,0.014359,-0.003348,0.004790,6.134514,-46.767712,12.896523,,,,,,,
1558973744.387064,1.213353,1.402514,-2.863860,0.049668,0.058779,0.079853,0.156903,-0.985874,-0.058601,-0.006329,0.008899,0.008796,6.146690,-46.745544,12.970877,,,,,,,
1558973744.407043,1.220445,1.405601,-2.869475,0.045542,0.073517,0.025545,0.154455,-0.986386,-0.056442,-0.013693,0.013425,0.010833,5.988030,-46.734642,13.083899,,,,,,,
1558973744.427024,1.229152,1.405071,-2.876922,0.010409,0.058862,-0.002384,0.155434,-0.986299,-0.055270,0.017342,0.006029,0.009540,5.977726,-46.711670,13.170357,,,,,,,
1558973744.447019,1.232997,1.404462,-2.879316,-0.031118,0.075001,0.041507,0.156212,-0.986198,-0.054871,0.025810,0.006096,0.010590,5.968704,-46.711006,13.176807,,,,,,,
1558973744.467003,1.231360,1.404391,-2.875877,-0.021526,0.086605,0.059773,0.156187,-0.986187,-0.055150,0.021425,0.018154,-0.000148,5.978646,-46.709373,13.178096,,,,,,,
1558973744.486961,1.233039,1.403937,-2.876342,0.043357,0.040711,-0.007878,0.156702,-0.986111,-0.055036,0.013266,0.033902,-0.007708,5.964955,-46.713982,13.167949,,,,,,,
1558973744.506973,1.242511,1.403963,-2.885432,0.079532,0.030994,-0.017551,0.157192,-0.986116,-0.053541,0.015766,0.027726,-0.006563,5.967129,-46.706436,13.193703,,,,,,,
1558973744.526958,1.248357,1.404280,-2.890180,0.039087,0.071498,0.067147,0.157206,-0.986168,-0.052522,0.017415,0.023201,0.001421,5.982001,-46.678761,13.284610,,,,,,,
1558973744.546943,1.250913,1.405589,-2.891442,0.023054,0.053621,0.072300,0.156114,-0.986384,-0.051714,0.008101,0.012217,0.003115,5.909652,-46.676407,13.325191,,,,,,,
1558973744.566928,1.253659,1.406575,-2.893920,0.041115,-0.006894,0.020512,0.155332,-0.986546,-0.050982,0.008837,0.015248,0.001330,5.872694,-46.676888,13.339830,,,,,,,
1558973744.586913,1.261702,1.406366,-2.902329,0.062433,-0.014458,-0.014777,0.155933,-0.986512,-0.049794,-0.006168,0.006180,0.009831,5.875472,-46.656776,13.408784,,,,,,,
1558973744.606887,1.272809,1.407267,-2.913597,0.032649,-0.009018,-0.015815,0.155627,-0.986659,-0.047798,-0.003054,-0.000219,0.014168,5.863695,-46.640587,13.470146,,,,,,,
1558973744.626882,1.275426,1.407295,-2.917003,0.028238,-0.050202,-0.004468,0.155724,-0.986663,-0.047382,0.007667,-0.004090,0.012501,5.869138,-46.624657,13.522800,,,,,,,
1558973744.646841,1.292126,1.409100,-2.934346,0.021904,-0.021582,0.026764,0.154782,-0.986956,-0.044285,-0.014569,0.004717,0.027226,5.895569,-46.604923,13.579211,,,,,,,
1558973744.666839,1.299257,1.411040,-2.941438,-0.000389,0.004989,0.046221,0.153250,-0.987266,-0.042667,-0.008535,0.005744,0.017200,5.796131,-46.573235,13.729909,,,,,,,
1558973744.686812,1.297781,1.412028,-2.939560,-0.035454,0.018899,0.035650,0.152246,-0.987423,-0.042630,-0.004709,0.005016,0.012265,5.796131,-46.573235,13.729909,,,,,,,
1558973744.706818,1.302058,1.412431,-2.943224,-0.056717,0.021109,0.024977,0.152044,-0.987486,-0.041873,0.007715,0.003615,0.016055,5.705858,-46.570477,13.776988,,,,,,,
1558973744.726807,1.299321,1.412389,-2.939700,-0.063079,0.041268,0.053989,0.151969,-0.987480,-0.042300,0.006234,0.013221,0.009509,5.684759,-46.573483,13.775545,,,,,,,
1558973744.746779,1.292708,1.413341,-2.932077,-0.035443,0.040103,0.078556,0.150781,-0.987630,-0.043046,0.006598,0.008732,0.002351,5.684759,-46.573483,13.775545,,,,,,,
1558973744.766773,1.288511,1.413738,-2.927475,-0.023829,-0.004405,0.043972,0.150223,-0.987692,-0.043569,0.007690,-0.008463,0.001318,5.590270,-46.597370,13.733370,,,,,,,
1558973744.786762,1.284846,1.414285,-2.923939,-0.044058,-0.004294,0.047160,0.149544,-0.987777,-0.043967,0.003029,-0.008347,0.008322,5.558492,-46.612976,13.693275,,,,,,,
1558973744.806746,1.275541,1.414956,-2.914591,-0.072871,-0.016795,0.068369,0.148494,-0.987881,-0.045164,0.009968,0.006772,0.006513,5.534971,-46.619083,13.681982,,,,,,,
1558973744.826731,1.265728,1.415021,-2.905861,-0.009145,-0.073196,0.039053,0.147982,-0.987892,-0.046599,0.003614,0.009834,-0.009324,5.492191,-46.650578,13.591574,,,,,,,
1558973744.846716,1.264185,1.415980,-2.905585,0.026045,-0.049053,0.049988,0.147007,-0.988040,-0.046542,-0.002613,0.014636,-0.002683,5.485687,-46.656521,13.573802,,,,,,,
1558973744.866700,1.263218,1.416971,-2.905589,0.007943,-0.047892,0.056390,0.146029,-0.988192,-0.046387,0.006407,0.002917,0.006211,5.450311,-46.660061,13.575891,,,,,,,
1558973744.886686,1.259498,1.417566,-2.903015,-0.012326,-0.062589,0.053029,0.145296,-0.988283,-0.046750,0.001189,0.001741,-0.004229,5.428990,-46.660912,13.581488,,,,,,,
1558973744.906650,1.247846,1.419017,-2.892196,-0.035664,-0.023311,0.084350,0.143381,-0.988504,-0.047985,-0.011484,0.013330,-0.009037,5.392541,-46.675873,13.544558,,,,,,,
1558973744.926655,1.239124,1.420773,-2.883342,-0.030287,0.006299,0.112396,0.141316,-0.988768,-0.048668,-0.010899,0.017897,-0.005684,5.302042,-46.700146,13.496534,,,,,,,
1558973744.946640,1.230114,1.422781,-2.874077,-0.038705,0.014729,0.065495,0.139000,-0.989066,-0.049276,-0.013374,0.011786,-0.001841,5.169811,-46.724037,13.465099,,,,,,,
1558973744.966618,1.220494,1.423702,-2.863541,-0.035353,0.058032,0.054169,0.137663,-0.989201,-0.050298,-0.009764,0.009450,-0.010355,5.105688,-46.740063,13.433918,,,,,,,
1558973744.986583,1.212011,1.424560,-2.853808,-0.022594,0.055857,0.058429,0.136437,-0.989326,-0.051166,0.000068,0.008278,-0.003948,5.019784,-46.766415,13.374445,,,,,,,
1558973745.006588,1.207290,1.424922,-2.848369,-0.042965,0.014751,0.065491,0.135859,-0.989379,-0.051682,0.014028,0.000442,0.002656,4.947132,-46.783501,13.341721,,,,,,,
1558973745.026573,1.197563,1.425522,-2.838217,-0.049295,0.027452,0.054931,0.134798,-0.989466,-0.052785,0.000090,0.012049,-0.003444,4.907362,-46.801418,13.293484,,,,,,,
1558973745.046537,1.191008,1.426433,-2.829988,-0.042635,0.115165,0.065384,0.133611,-0.989598,-0.053333,-0.011160,0.015431,-0.004833,4.875620,-46.810211,13.274179,,,,,,,
1558973745.066529,1.179748,1.427120,-2.815851,-0.047856,0.139480,0.049599,0.132373,-0.989696,-0.054575,-0.005787,0.039501,-0.022650,4.730652,-46.846256,13.199271,,,,,,,
1558973745.086535,1.172553,1.426775,-2.806666,-0.021458,0.066379,0.030769,0.132292,-0.989647,-0.055658,0.015642,0.024467,-0.024816,4.687669,-46.867081,13.140553,,,,,,,
1558973745.106519,1.169423,1.427370,-2.803483,0.004798,-0.033090,0.050123,0.131575,-0.989732,-0.055842,0.032167,0.026307,-0.018972,4.666908,-46.871212,13.133189,,,,,,,
1558973745.126504,1.170147,1.428045,-2.804858,0.012289,-0.021504,0.049171,0.131001,-0.989828,-0.055487,-0.002262,-0.012277,0.007055,4.634771,-46.871426,13.143816,,,,,,,
1558973745.146489,1.167616,1.428392,-2.801784,-0.024698,0.046293,0.017760,0.130544,-0.989878,-0.055683,-0.014486,-0.017859,0.003544,4.602176,-46.875484,13.140792,,,,,,,
1558973745.166474,1.165692,1.428656,-2.799270,0.000715,0.004933,0.016317,0.130196,-0.989915,-0.055831,-0.000572,-0.020507,-0.000764,4.587028,-46.879475,13.131837,,,,,,,
1558973745.186459,1.165265,1.428845,-2.799646,0.005820,-0.066989,0.003889,0.130001,-0.989942,-0.055813,0.026539,-0.023776,0.006222,4.569460,-46.881580,13.130464,,,,,,,
1558973745.206444,1.161705,1.429166,-2.797785,-0.016638,-0.084796,0.033594,0.129509,-0.989987,-0.056149,0.021827,-0.023608,0.015118,4.579075,-46.882751,13.122928,,,,,,,
1558973745.226423,1.154663,1.430383,-2.791508,-0.073909,-0.015773,0.044887,0.128009,-0.990158,-0.056572,-0.010959,-0.028259,0.015877,4.564688,-46.890926,13.098713,,,,,,,
1558973745.246400,1.136629,1.430159,-2.773004,-0.141901,0.025810,0.046298,0.127169,-0.990127,-0.058965,-0.010775,0.003722,-0.013438,4.486972,-46.921120,13.017179,,,,,,,
1558973745.266398,1.118264,1.430082,-2.753894,-0.100424,0.021386,0.061236,0.126133,-0.990116,-0.061324,-0.005344,0.013081,-0.020708,4.447181,-46.951191,12.922075,,,,,,,
1558973745.286360,1.105976,1.430555,-2.741483,-0.056866,-0.005270,0.059948,0.124951,-0.990182,-0.062659,-0.000622,0.030344,-0.032724,4.401407,-46.974529,12.852736,,,,,,,
1558973745.306367,1.089839,1.430783,-2.725397,-0.015373,-0.007592,0.067432,0.123724,-0.990214,-0.064563,0.001245,0.013591,-0.023755,4.354076,-47.009647,12.739958,,,,,,,
1558973745.326328,1.086449,1.431158,-2.722828,-0.006922,-0.057414,0.001835,0.123176,-0.990266,-0.064809,0.011315,0.020189,-0.022624,4.289583,-47.023445,12.710882,,,,,,,
1558973745.346327,1.083696,1.430929,-2.720988,0.031414,-0.038544,0.031939,0.123197,-0.990235,-0.065254,0.008761,0.013733,-0.014534,4.289583,-47.023445,12.710882,,,,,,,
1558973745.366324,1.086805,1.431839,-2.725147,0.052644,-0.062989,0.017843,0.122602,-0.990361,-0.064451,0.000628,0.017674,-0.009447,4.303283,-47.025982,12.696866,,,,,,,
1558973745.386283,1.096588,1.432597,-2.736305,0.114464,-0.052789,-0.012972,0.122559,-0.990466,-0.062906,-0.021317,0.007723,0.002176,4.307733,-47.003719,12.777524,,,,,,,
1558973745.406293,1.113353,1.434418,-2.753839,0.112504,-0.007346,-0.025348,0.121978,-0.990715,-0.060046,-0.023772,-0.007515,0.005663,4.307733,-47.003719,12.777524,,,,,,,
1558973745.426279,1.118555,1.434437,-2.758605,-0.016171,0.039866,-0.006849,0.122271,-0.990718,-0.059402,-0.000521,-0.018773,0.016982,4.300383,-46.954796,12.958603,,,,,,,
1558973745.446264,1.115684,1.434200,-2.755024,-0.016248,0.020854,0.002578,0.122311,-0.990685,-0.059856,0.009571,-0.013786,0.015102,4.297926,-46.955807,12.955765,,,,,,,
1558973745.466248,1.120979,1.433838,-2.760601,-0.014281,-0.036260,-0.013984,0.122950,-0.990636,-0.059364,0.014242,-0.011119,0.018760,4.318009,-46.948158,12.976784,,,,,,,
1558973745.486234,1.114599,1.433148,-2.754818,-0.070657,-0.021157,-0.008546,0.123182,-0.990541,-0.060448,0.007113,-0.009535,0.014870,4.345501,-46.956501,12.937356,,,,,,,
1558973745.506217,1.105096,1.432766,-2.744886,-0.101399,0.031902,0.022899,0.122940,-0.990489,-0.061786,-0.005371,-0.003148,-0.003812,4.344503,-46.966507,12.901331,,,,,,,
1558973745.526203,1.091150,1.432368,-2.729853,-0.096029,0.048794,0.028403,0.122416,-0.990434,-0.063676,-0.004481,-0.003035,-0.006682,4.312574,-46.994514,12.809721,,,,,,,
1558973745.546188,1.072867,1.432262,-2.710555,-0.061977,0.047562,0.031623,0.121324,-0.990419,-0.065954,-0.007463,0.009401,-0.009944,4.249936,-47.032215,12.691740,,,,,,,
1558973745.566154,1.063837,1.431711,-2.701279,-0.026009,-0.022398,0.026710,0.121200,-0.990343,-0.067311,0.012024,0.017794,-0.012202,4.223903,-47.059830,12.597700,,,,,,,
1558973745.586158,1.061030,1.431194,-2.699908,0.020748,-0.088321,-0.009095,0.121458,-0.990271,-0.067901,0.006594,0.015891,-0.010758,4.218625,-47.063225,12.586798,,,,,,,
1558973745.606143,1.061861,1.431486,-2.701948,0.028332,-0.040773,0.006313,0.121262,-0.990312,-0.067659,-0.006592,0.013124,-0.006391,4.262550,-47.063011,12.572795,,,,,,,
1558973745.626121,1.063859,1.431970,-2.704462,-0.003542,-0.024758,0.001103,0.120978,-0.990379,-0.067184,-0.000921,-0.001976,0.005752,4.256598,-47.055401,12.603262,,,,,,,
1558973745.646112,1.060155,1.431241,-2.701283,-0.045023,-0.025634,-0.023495,0.121358,-0.990278,-0.067985,-0.005055,0.004789,0.008674,4.262662,-47.056797,12.595976,,,,,,,
1558973745.666097,1.056233,1.430953,-2.697389,-0.028964,0.013428,0.001448,0.121338,-0.990238,-0.068600,-0.004151,0.019855,-0.006687,4.286019,-47.069084,12.542052,,,,,,,
1558973745.686082,1.053125,1.430352,-2.694037,0.027408,0.003629,0.008872,0.121641,-0.990154,-0.069272,0.006731,0.021602,-0.016147,4.298239,-47.080006,12.496778,,,,,,,
1558973745.706056,1.057393,1.431128,-2.698500,0.050791,-0.000701,0.022729,0.121267,-0.990262,-0.068375,0.010080,0.022443,-0.012924,4.293294,-47.076393,12.512094,,,,,,,
1558973745.726033,1.059289,1.432224,-2.700061,0.015653,0.014341,0.062347,0.120450,-0.990414,-0.067613,0.007694,0.002820,0.000658,4.251716,-47.062637,12.577847,,,,,,,
1558973745.746038,1.060295,1.433587,-2.700658,-0.026991,0.018874,0.116804,0.119340,-0.990602,-0.066832,0.021850,-0.011046,0.021529,4.205514,-47.054367,12.624269,,,,,,,
1558973745.766005,1.047971,1.434793,-2.687447,-0.054542,0.037983,0.075327,0.117472,-0.990766,-0.067701,0.008490,-0.008074,0.028044,4.147951,-47.063198,12.610364,,,,,,,
1558973745.785981,1.046727,1.436020,-2.685529,-0.024683,0.023988,0.010092,0.116335,-0.990931,-0.067239,-0.004412,-0.001058,0.008874,4.025249,-47.080879,12.584113,,,,,,,
1558973745.805992,1.047305,1.435815,-2.685642,-0.041660,0.022965,-0.027299,0.116550,-0.990904,-0.067273,-0.002780,-0.007570,0.012174,4.013249,-47.081451,12.585795,,,,,,,
1558973745.825972,1.042522,1.435073,-2.679345,-0.146849,0.098620,0.009641,0.116862,-0.990804,-0.068201,0.000493,-0.009502,0.025110,4.018716,-47.082352,12.580674,,,,,,,
1558973745.845948,1.026913,1.434087,-2.661138,-0.162824,0.109319,0.039624,0.116618,-0.990670,-0.070522,0.005604,0.009621,0.000926,3.960568,-47.116432,12.471075,,,,,,,
1558973745.865948,1.010971,1.431927,-2.643521,-0.111863,0.056158,0.011394,0.117292,-0.990373,-0.073508,0.013628,0.012682,-0.008096,3.944352,-47.154514,12.331477,,,,,,,
1558973745.885908,1.000668,1.429466,-2.632823,-0.043920,-0.009770,-0.012674,0.118581,-0.990029,-0.076028,0.015803,0.014367,-0.015326,3.987676,-47.179504,12.221465,,,,,,,
1558973745.905915,0.999017,1.427525,-2.632471,0.004829,-0.091470,-0.048652,0.120071,-0.989754,-0.077263,0.008652,0.011269,-0.010353,4.079700,-47.195030,12.130800,,,,,,,
1558973745.925902,1.001089,1.426655,-2.636372,0.017675,-0.062977,-0.034490,0.120956,-0.989630,-0.077479,0.001405,0.014120,-0.008459,4.171591,-47.194420,12.101892,,,,,,,
1558973745.945888,0.995591,1.427226,-2.631212,-0.008781,0.010177,0.020641,0.120054,-0.989711,-0.077835,-0.012067,0.002956,-0.004516,4.171642,-47.195396,12.098075,,,,,,,
1558973745.965872,0.988646,1.427652,-2.623830,-0.037555,0.013542,0.049477,0.119158,-0.989772,-0.078435,0.000334,-0.000294,-0.000621,4.110647,-47.208218,12.068899,,,,,,,
1558973745.985857,0.978613,1.428312,-2.613669,-0.027998,0.002910,0.041911,0.117823,-0.989866,-0.079262,-0.009150,0.006407,-0.002327,4.056038,-47.222721,12.030581,,,,,,,
1558973746.005842,0.969353,1.428464,-2.604403,-0.018439,-0.007727,0.031140,0.116960,-0.989888,-0.080265,-0.001863,0.012623,-0.012203,4.010262,-47.234474,11.999744,,,,,,,
1558973746.025819,0.965431,1.428376,-2.601026,0.015577,-0.037554,-0.003283,0.116716,-0.989875,-0.080772,-0.001878,0.001045,-0.003975,3.991008,-47.248444,11.951065,,,,,,,
1558973746.045812,0.966375,1.428594,-2.602944,-0.000387,-0.040654,-0.011866,0.116614,-0.989906,-0.080539,-0.006003,-0.005272,0.001148,4.005159,-47.244915,11.960277,,,,,,,
1558973746.065797,0.958483,1.428596,-2.595345,-0.038604,0.002921,0.013078,0.115974,-0.989906,-0.081456,-0.008964,-0.000358,-0.007075,3.992430,-47.249817,11.945167,,,,,,,
1558973746.085783,0.947291,1.428209,-2.583932,-0.013006,0.014397,0.002533,0.115366,-0.989852,-0.082973,-0.006693,0.012206,-0.020589,3.953691,-47.270760,11.874977,,,,,,,
1558973746.105762,0.947217,1.427657,-2.583875,0.009340,-0.005863,-0.037146,0.115803,-0.989773,-0.083300,-0.001957,-0.000187,-0.017255,3.952550,-47.278008,11.846452,,,,,,,
1558973746.125752,0.946930,1.426906,-2.583799,-0.018315,0.003803,-0.031737,0.116382,-0.989666,-0.083768,-0.003894,-0.009388,-0.015506,3.977900,-47.279602,11.831633,,,,,,,
1558973746.145657,0.943215,1.425603,-2.580094,-0.040732,-0.015106,-0.031937,0.117114,-0.989478,-0.084957,0.010434,-0.013391,-0.028386,4.026229,-47.293102,11.761103,,,,,,,
1558973746.165631,0.942389,1.424405,-2.579875,-0.040728,-0.023594,-0.053371,0.118003,-0.989304,-0.085750,0.006097,-0.017898,-0.037358,4.058444,-47.297359,11.732852,,,,,,,
1558973746.185627,0.936929,1.422894,-2.574214,-0.097037,0.022196,-0.025219,0.118738,-0.989082,-0.087279,0.001303,-0.022865,-0.053362,4.098784,-47.301823,11.700821,,,,,,,
1558973746.205612,0.930303,1.421043,-2.567396,-0.084313,-0.010698,-0.065027,0.119624,-0.988808,-0.089157,0.017324,-0.027000,-0.073105,4.144273,-47.329792,11.570972,,,,,,,
1558973746.225589,0.928311,1.418641,-2.565871,-0.096016,-0.023369,-0.097187,0.121347,-0.988447,-0.090818,0.007666,-0.049578,-0.074068,4.226131,-47.341007,11.495234,,,,,,,
1558973746.245582,0.906432,1.413757,-2.543654,-0.192692,0.044813,-0.079530,0.123131,-0.987695,-0.096426,0.006935,-0.050742,-0.075357,4.294000,-47.355568,11.409792,,,,,,,
1558973746.265567,0.891408,1.409784,-2.527351,-0.234176,0.054544,-0.079470,0.124720,-0.987065,-0.100730,0.017492,-0.023494,-0.100640,4.378322,-47.433357,11.048906,,,,,,,
1558973746.285526,0.878640,1.405562,-2.512799,-0.218040,0.102012,-0.087544,0.126631,-0.986380,-0.104973,0.001543,-0.024820,-0.121376,4.428410,-47.465851,10.888245,,,,,,,
1558973746.305538,0.844127,1.398815,-2.475619,-0.201919,0.163267,-0.064523,0.127905,-0.985248,-0.113699,-0.009253,-0.005948,-0.133371,4.482912,-47.504551,10.695445,,,,,,,
1558973746.325522,0.836939,1.395195,-2.464339,-0.175118,0.219142,-0.068238,0.129732,-0.984622,-0.117004,-0.014971,0.028201,-0.153809,4.509436,-47.603611,10.233914,,,,,,,
1558973746.345508,0.836638,1.392945,-2.459066,-0.071764,0.256675,-0.051781,0.131341,-0.984226,-0.118526,-0.022759,0.054172,-0.171970,4.516854,-47.622356,10.143007,,,,,,,
1558973746.365472,0.811674,1.386566,-2.429461,0.013467,0.266734,-0.092186,0.132893,-0.983078,-0.126087,-0.024739,0.093490,-0.181103,4.515642,-47.629833,10.108393,,,,,,,
1558973746.385449,0.832661,1.386569,-2.444205,0.148974,0.370690,-0.076135,0.135508,-0.983078,-0.123268,-0.032129,0.089035,-0.189598,4.548107,-47.686924,9.820560,,,,,,,
1558973746.405463,0.833138,1.384238,-2.437210,0.214088,0.432714,-0.072285,0.137262,-0.982648,-0.124744,-0.013208,0.074323,-0.171856,4.520527,-47.710812,9.716734,,,,,,,
1558973746.425440,0.867292,1.385857,-2.463069,0.255686,0.440896,-0.109541,0.140228,-0.982947,-0.118955,-0.012085,0.069648,-0.163394,4.514943,-47.686260,9.839092,,,,,,,
1558973746.445423,0.894605,1.384370,-2.482577,0.277955,0.417521,-0.111885,0.144564,-0.982673,-0.115996,0.025067,0.041480,-0.116579,4.541553,-47.591991,10.273655,,,,,,,
1558973746.465418,0.924988,1.385725,-2.505154,0.162893,0.413983,-0.054358,0.146958,-0.982923,-0.110749,0.000640,0.042600,-0.087829,4.599102,-47.570129,10.349047,,,,,,,
1558973746.485387,0.945357,1.386459,-2.516587,0.080055,0.487401,-0.021692,0.148599,-0.983058,-0.107311,-0.018899,0.059443,-0.082646,4.579269,-47.552296,10.439401,,,,,,,
1558973746.505364,0.965532,1.386533,-2.526160,0.082552,0.573979,-0.077447,0.150673,-0.983072,-0.104250,-0.061134,0.101449,-0.082426,4.469467,-47.521400,10.625996,,,,,,,
1558973746.525372,0.992375,1.386031,-2.539828,0.076707,0.737844,-0.079086,0.153831,-0.982979,-0.100438,-0.046592,0.099328,-0.070476,4.420724,-47.493793,10.768866,,,,,,,
1558973746.545334,1.010585,1.385957,-2.541916,-0.030719,0.811496,0.024027,0.155695,-0.982966,-0.097659,-0.007990,0.110560,-0.055890,4.332224,-47.481476,10.858763,,,,,,,
1558973746.565320,1.017075,1.385780,-2.534036,-0.056806,0.640374,0.008489,0.156474,-0.982933,-0.096738,-0.010493,0.195366,-0.063037,4.089901,-47.497383,10.883162,,,,,,,
1558973746.585328,1.039199,1.385069,-2.543594,0.137285,0.692021,-0.114709,0.159178,-0.982802,-0.093607,-0.094252,0.204528,-0.052282,3.996689,-47.491867,10.941708,,,,,,,
1558973746.605312,1.078190,1.385467,-2.565945,0.188126,0.947583,-0.038536,0.162361,-0.982876,-0.087146,-0.114036,0.188122,-0.003629,3.951567,-47.457127,11.107540,,,,,,,
1558973746.625298,1.115823,1.387146,-2.584351,0.219965,0.928421,-0.017341,0.164042,-0.983184,-0.080250,-0.020533,0.160903,0.050877,3.705445,-47.403259,11.418051,,,,,,,
1558973746.645254,1.164438,1.387430,-2.620323,0.335938,0.505796,-0.197455,0.167492,-0.983236,-0.072073,0.021626,0.131658,0.056006,3.602334,-47.355400,11.647343,,,,,,,
1558973746.665245,1.208591,1.386062,-2.655952,0.183668,0.528917,-0.114079,0.171767,-0.982985,-0.065086,-0.019134,0.119734,0.074211,3.646723,-47.286293,11.911310,,,,,,,
1558973746.685253,1.209698,1.387921,-2.638881,-0.289807,1.105969,0.293568,0.170129,-0.983325,-0.064250,-0.137033,0.115268,0.076000,3.471242,-47.245461,12.123893,,,,,,,
1558973746.705234,1.178997,1.392138,-2.583161,-0.368430,1.183650,0.364713,0.164243,-0.984083,-0.067859,-0.111509,0.222975,0.004062,2.843894,-47.356697,11.850189,,,,,,,
1558973746.725222,1.172762,1.394509,-2.555771,-0.064335,0.958634,0.103364,0.161666,-0.984502,-0.067977,-0.108046,0.246648,0.000701,2.548887,-47.405022,11.723425,,,,,,,
1558973746.745209,1.183312,1.395388,-2.548066,-0.090117,0.885829,0.099444,0.161573,-0.984655,-0.065941,-0.098813,0.215094,0.009758,2.053563,-47.442268,11.669875,,,,,,,
1558973746.765171,1.171463,1.398706,-2.517459,-0.196769,0.938557,0.350760,0.157769,-0.985229,-0.066580,-0.129922,0.291976,0.009741,1.661895,-47.485203,11.557062,,,,,,,
1558973746.785179,1.169472,1.406155,-2.495305,0.127958,0.987688,0.418752,0.150876,-0.986477,-0.064025,-0.175824,0.328671,0.024199,1.375419,-47.511227,11.487520,,,,,,,
1558973746.805164,1.210896,1.414011,-2.519986,0.379832,0.771491,0.217234,0.146140,-0.987734,-0.054991,-0.157447,0.304629,0.156401,0.522367,-47.464169,11.749521,,,,,,,
1558973746.825149,1.229309,1.420508,-2.522198,-0.058688,0.880863,0.425053,0.141078,-0.988728,-0.050141,-0.100383,0.239201,0.106980,0.101742,-47.409504,11.979154,,,,,,,
1558973746.845118,1.193444,1.433590,-2.465387,-0.113110,1.072167,0.932906,0.127153,-0.990602,-0.050396,-0.091111,0.270586,0.103909,-0.240473,-47.421310,11.930341,,,,,,,
1558973746.865119,1.183303,1.452487,-2.433909,0.362607,1.013561,0.876140,0.109282,-0.993010,-0.044601,-0.180617,0.343458,0.153228,-1.894807,-47.401634,11.860291,,,,,,,
1558973746.885074,1.250686,1.468210,-2.484326,0.552927,0.783716,0.520701,0.097204,-0.994743,-0.032224,-0.186880,0.302574,0.237180,-2.618187,-47.292934,12.152993,,,,,,,
1558973746.905087,1.312696,1.481518,-2.531653,0.303481,0.755692,0.696395,0.086207,-0.996017,-0.022758,-0.048274,0.219436,0.239280,-3.142460,-47.169514,12.503331,,,,,,,
1558973746.925051,1.321026,1.503043,-2.523977,0.263454,0.810625,1.243524,0.065601,-0.997706,-0.016735,-0.017521,0.233301,0.273677,-4.553425,-46.962254,12.844656,,,,,,,
1558973746.945041,1.381750,1.531115,-2.571763,0.531617,0.493276,1.315436,0.038964,-0.999213,-0.007455,-0.033807,0.234534,0.294977,-5.624418,-46.798618,13.016419,,,,,,,
1558973746.965021,1.767876,1.553850,-2.952339,0.470540,0.239484,1.026829,0.016617,-0.999856,0.003318,-0.147675,0.192453,0.393014,-6.634636,-46.575615,13.336613,,,,,,,
1558973746.984999,-2.670474,1.561519,1.494401,0.096871,0.587203,1.102458,-0.004209,-0.999957,0.008264,-0.202761,0.029956,0.328848,-8.221433,-46.176014,13.833132,,,,,,,
1558973747.005014,-1.780532,1.538812,0.620088,-0.100871,0.847809,1.505161,-0.031278,-0.999489,0.006658,-0.083254,0.083122,0.260691,-9.569407,-45.958820,13.688857,,,,,,,
1558973747.024986,-1.703359,1.507536,0.556157,0.284295,0.479031,1.524361,-0.062664,-0.998000,0.008356,-0.022770,0.052550,0.288275,-9.569407,-45.958820,13.688857,,,,,,,
1558973747.044965,-1.774228,1.479436,0.630592,0.628157,0.025422,1.217082,-0.089351,-0.995830,0.018432,-0.085285,0.028483,0.357011,-11.939230,-45.410816,13.655904,,,,,,,
1558973747.064969,-1.840804,1.455065,0.696026,0.551375,-0.073720,1.092225,-0.111289,-0.993311,0.030801,-0.141015,-0.084128,0.326438,-13.572755,-44.698059,14.458056,,,,,,,
1558973747.084954,-1.839376,1.428714,0.695890,0.239727,0.145075,1.407958,-0.136528,-0.989923,0.037576,-0.109779,-0.115713,0.306738,-14.063505,-44.469189,14.692881,,,,,,,
1558973747.104939,-1.831999,1.397419,0.690489,0.553079,-0.002255,1.531713,-0.166658,-0.985008,0.044549,-0.015806,-0.153313,0.326163,-15.987377,-43.693562,15.048200,,,,,,,
