timestamp(unix),attitude_roll(radians),attitude_pitch(radians),attitude_yaw(radians),rotation_rate_x(radians/s),rotation_rate_y(radians/s),rotation_rate_z(radians/s),gravity_x(G),gravity_y(G),gravity_z(G),user_acc_x(G),user_acc_y(G),user_acc_z(G),magnetic_field_x(microteslas),magnetic_field_y(microteslas),magnetic_field_z(microteslas),latitude(degree),longitude(degree),altitude(meter),speed(m/s),course(degree),timestamp(unix),User Mark
1558973687.531998,0.066127,1.504518,-1.662525,0.055104,0.004991,0.081721,0.004376,-0.997804,-0.066085,0.015323,0.007601,0.000320,-5.407414,-46.137718,11.011357,,,,,,,
1558973687.551953,0.031878,1.506737,-1.627794,0.128543,0.015219,0.110705,0.002040,-0.997949,-0.063982,-0.004039,0.001504,-0.031431,-5.454664,-46.124672,11.042685,,,,,,,
1558973687.571961,-0.004987,1.509553,-1.590250,0.211701,0.031617,0.059683,-0.000305,-0.998125,-0.061203,-0.015152,0.010683,-0.003280,-5.613242,-46.063679,11.216434,,,,,,,
1558973687.591951,-0.017577,1.513798,-1.577017,0.201119,0.034791,0.024473,-0.001001,-0.998376,-0.056959,-0.009344,0.002649,0.007993,-5.680547,-46.024502,11.342648,,,,,,,
1558973687.611929,-0.004899,1.516746,-1.589653,0.109562,-0.021981,-0.092518,-0.000265,-0.998540,-0.054024,-0.026484,0.023335,0.005104,-5.702199,-45.988487,11.477097,,,,,,,
1558973687.631907,0.042231,1.518450,-1.637542,0.033988,-0.036431,-0.125814,0.002209,-0.998630,-0.052275,0.004612,-0.013150,0.031676,-5.569064,-45.969109,11.619209,,,,,,,
1558973687.651904,0.069994,1.518318,-1.665490,-0.021355,0.008389,-0.034679,0.003668,-0.998623,-0.052325,0.010599,-0.012241,0.025927,-5.493789,-45.967525,11.661230,,,,,,,
1558973687.671865,0.067542,1.517387,-1.662739,-0.058731,0.005602,0.010107,0.003603,-0.998574,-0.053261,0.027632,0.006265,0.013832,-5.470317,-45.974285,11.645615,,,,,,,
1558973687.691871,0.079738,1.515887,-1.675098,-0.064073,-0.013439,-0.018907,0.004371,-0.998493,-0.054707,0.016991,0.013431,-0.002025,-5.471519,-45.995213,11.562114,,,,,,,
1558973687.711857,0.081548,1.515014,-1.677304,-0.023680,-0.024199,-0.004031,0.004542,-0.998445,-0.055568,0.006826,0.010331,-0.009938,-5.430651,-46.013020,11.510393,,,,,,,
1558973687.731832,0.082506,1.515492,-1.678900,0.056129,-0.033077,-0.005120,0.004555,-0.998471,-0.055088,0.003898,0.015775,-0.010799,-5.426188,-46.014935,11.504873,,,,,,,
1558973687.751805,0.089060,1.517344,-1.685997,0.125366,-0.020763,-0.009217,0.004752,-0.998572,-0.053214,0.000116,0.001975,0.006766,-5.405516,-45.995674,11.591287,,,,,,,
1558973687.771810,0.104011,1.520655,-1.701344,0.113667,-0.022830,-0.018856,0.005204,-0.998743,-0.049850,0.003143,-0.008337,0.016311,-5.386219,-45.963665,11.726448,,,,,,,
1558973687.791793,0.119486,1.523061,-1.717433,0.081712,-0.034305,-0.029668,0.005688,-0.998861,-0.047377,-0.001156,-0.011790,0.016645,-5.369032,-45.946026,11.803185,,,,,,,
1558973687.811778,0.132199,1.524951,-1.730845,0.035975,-0.029856,-0.042473,0.006041,-0.998949,-0.045431,-0.007353,-0.013120,0.012960,-5.321451,-45.910931,11.960279,,,,,,,
1558973687.831735,0.142398,1.525735,-1.741481,-0.017239,-0.009346,-0.038057,0.006393,-0.998985,-0.044589,-0.007888,-0.016579,0.013629,-5.308021,-45.898148,12.015166,,,,,,,
1558973687.851746,0.145321,1.525662,-1.744017,-0.040555,0.036276,-0.005609,0.006534,-0.998982,-0.044643,-0.004016,-0.010830,0.011974,-5.290782,-45.898121,12.022870,,,,,,,
1558973687.871730,0.130146,1.525492,-1.727582,-0.062804,0.079770,0.021482,0.005877,-0.998974,-0.044905,-0.010058,-0.012363,0.015730,-5.321939,-45.899929,12.002203,,,,,,,
1558973687.891692,0.103732,1.524380,-1.699320,-0.094720,0.093706,0.039741,0.004805,-0.998923,-0.046151,-0.008619,-0.001626,0.007302,-5.379893,-45.899899,11.976440,,,,,,,
1558973687.911699,0.083051,1.522056,-1.676795,-0.128785,0.092826,0.038638,0.004042,-0.998812,-0.048553,0.002336,-0.004117,0.000198,-5.433626,-45.910610,11.910986,,,,,,,
1558973687.931684,0.060497,1.519485,-1.651926,-0.134042,0.124603,0.064561,0.003101,-0.998684,-0.051196,-0.001163,0.005627,-0.003736,-5.531209,-45.947502,11.722298,,,,,,,
1558973687.951659,0.017338,1.516209,-1.606045,-0.120124,0.139294,0.042296,0.000946,-0.998510,-0.054552,-0.015747,0.002005,-0.013029,-5.656573,-45.973503,11.559402,,,,,,,
1558973687.971651,0.009882,1.514130,-1.596019,-0.075438,0.123172,0.020825,0.000560,-0.998395,-0.056633,-0.003047,-0.008594,-0.010674,-5.656573,-45.973503,11.559402,,,,,,,
1558973687.991636,0.003052,1.512762,-1.587178,-0.025583,0.080664,0.043945,0.000177,-0.998316,-0.058001,0.007101,-0.005666,-0.011106,-5.755105,-46.007664,11.373362,,,,,,,
1558973688.011601,-0.003433,1.511361,-1.579583,-0.016096,0.042526,0.020099,-0.000204,-0.998234,-0.059400,-0.000437,0.018376,-0.017245,-5.816010,-46.022678,11.281264,,,,,,,
1558973688.031604,0.003820,1.510631,-1.586071,0.006315,0.034927,-0.035474,0.000230,-0.998191,-0.060128,0.001281,0.012580,-0.025459,-5.826231,-46.029442,11.248340,,,,,,,
1558973688.051588,0.026805,1.510019,-1.608699,0.089245,-0.002534,-0.054985,0.001628,-0.998154,-0.060718,0.009435,0.014999,-0.041226,-5.797954,-46.047764,11.187776,,,,,,,
1558973688.071560,0.059674,1.511712,-1.642170,0.205181,-0.041234,-0.080887,0.003522,-0.998255,-0.058945,0.011432,0.008204,-0.014755,-5.693180,-46.048080,11.240171,,,,,,,
1558973688.091556,0.097385,1.516079,-1.680878,0.243425,-0.063629,-0.078937,0.005318,-0.998503,-0.054432,0.008446,0.009627,-0.013134,-5.617535,-46.022106,11.383703,,,,,,,
1558973688.111515,0.143571,1.520952,-1.728338,0.177464,-0.059074,-0.091758,0.007129,-0.998758,-0.049311,-0.004428,-0.008871,0.026515,-5.485049,-45.968483,11.661577,,,,,,,
1558973688.131499,0.183891,1.523102,-1.769464,0.091346,-0.015245,-0.065784,0.008718,-0.998863,-0.046873,0.000544,-0.002755,0.029707,-5.416780,-45.941441,11.799249,,,,,,,
1558973688.151479,0.195871,1.524362,-1.781123,0.059477,0.041062,0.013735,0.009034,-0.998922,-0.045530,0.009780,-0.006495,0.028852,-5.364485,-45.926651,11.880428,,,,,,,
1558973688.171486,0.195719,1.525499,-1.780028,0.044537,0.040117,0.036133,0.008806,-0.998974,-0.044417,0.021834,0.029355,0.001204,-5.401919,-45.907566,11.937088,,,,,,,
1558973688.191478,0.190649,1.526814,-1.774658,0.079483,-0.001107,0.017575,0.008332,-0.999033,-0.043171,0.021606,0.027948,-0.000530,-5.410655,-45.896721,11.974785,,,,,,,
1558973688.211446,0.197211,1.528699,-1.781583,0.100703,-0.029782,0.001303,0.008246,-0.999114,-0.041269,0.033792,0.015288,0.004327,-5.422062,-45.875557,12.050462,,,,,,,
1558973688.231422,0.227529,1.530727,-1.812929,0.086734,-0.063513,0.014845,0.009036,-0.999197,-0.039027,0.028897,0.006186,0.017970,-5.415956,-45.844746,12.169882,,,,,,,
1558973688.251431,0.224452,1.532013,-1.811217,0.047349,-0.061185,0.019107,0.008630,-0.999248,-0.037802,0.016547,0.006557,0.021414,-5.368044,-45.830929,12.242927,,,,,,,
1558973688.271415,0.223265,1.533001,-1.810972,0.013332,-0.044083,0.026716,0.008366,-0.999286,-0.036848,0.010310,0.002948,0.017287,-5.360910,-45.813999,12.309254,,,,,,,
1558973688.291399,0.209218,1.533211,-1.797795,-0.009014,-0.045034,0.019215,0.007804,-0.999294,-0.036756,-0.007377,-0.000721,-0.005252,-5.370581,-45.805744,12.335728,,,,,,,
1558973688.311384,0.195411,1.532624,-1.784676,-0.031267,-0.026991,-0.009456,0.007410,-0.999272,-0.037437,-0.012674,-0.002239,-0.009453,-5.380501,-45.807728,12.324038,,,,,,,
1558973688.331368,0.193061,1.531275,-1.782668,-0.072704,-0.009883,-0.024271,0.007581,-0.999219,-0.038777,-0.010465,0.000501,-0.007869,-5.389594,-45.820637,12.271977,,,,,,,
1558973688.351352,0.182791,1.528796,-1.772329,-0.113179,0.013739,-0.000626,0.007632,-0.999118,-0.041288,-0.000873,-0.001446,-0.010027,-5.373378,-45.851025,12.165086,,,,,,,
1558973688.371335,0.170414,1.525787,-1.759368,-0.140777,0.035015,-0.006850,0.007631,-0.998987,-0.044343,-0.001466,0.002390,-0.015883,-5.378984,-45.875916,12.068404,,,,,,,
1558973688.391306,0.173360,1.522853,-1.761664,-0.140754,0.025448,-0.043242,0.008267,-0.998851,-0.047206,-0.000591,0.012340,-0.020985,-5.378201,-45.916245,11.914408,,,,,,,
1558973688.411285,0.178012,1.519950,-1.766165,-0.100397,0.000935,-0.035970,0.009000,-0.998708,-0.050021,-0.003323,0.014531,-0.012876,-5.336042,-45.961517,11.757769,,,,,,,
1558973688.431273,0.174623,1.519612,-1.762886,0.010262,0.000399,-0.004924,0.008889,-0.998690,-0.050385,-0.012368,0.014544,0.022049,-5.331523,-45.972424,11.717113,,,,,,,
1558973688.451248,0.167828,1.522061,-1.755433,0.060331,0.032975,0.043473,0.008138,-0.998813,-0.048033,-0.002645,0.000400,0.024092,-5.354029,-45.961327,11.750319,,,,,,,
1558973688.471229,0.140490,1.524741,-1.727134,0.027454,0.073329,0.053443,0.006447,-0.998940,-0.045586,-0.002251,0.021919,0.030663,-5.450044,-45.918358,11.873532,,,,,,,
1558973688.491240,0.143973,1.524717,-1.729871,-0.006713,0.007863,-0.020879,0.006609,-0.998939,-0.045586,0.012495,-0.002801,0.004342,-5.469453,-45.905922,11.912652,,,,,,,
1558973688.511196,0.195839,1.525014,-1.781768,0.033715,0.003455,-0.064700,0.008906,-0.998952,-0.044892,0.024435,-0.005503,0.019013,-5.425527,-45.912571,11.907103,,,,,,,
1558973688.531210,0.213421,1.524916,-1.799200,-0.035496,0.009142,-0.039078,0.009714,-0.998948,-0.044823,0.019339,-0.003280,0.030938,-5.340878,-45.911171,11.950686,,,,,,,
1558973688.551195,0.225036,1.523061,-1.810469,-0.131331,0.014981,-0.004935,0.010648,-0.998861,-0.046514,0.015643,-0.018839,0.014730,-5.332457,-45.914330,11.942303,,,,,,,
1558973688.571179,0.200842,1.519841,-1.786036,-0.193180,-0.001552,0.031157,0.010161,-0.998702,-0.049910,-0.003691,0.001754,-0.009295,-5.305234,-45.956676,11.790583,,,,,,,
1558973688.591163,0.162430,1.515329,-1.747398,-0.220734,0.028162,0.013272,0.008965,-0.998462,-0.054708,-0.032891,0.008258,-0.017481,-5.334704,-46.012676,11.556550,,,,,,,
1558973688.611148,0.147389,1.511467,-1.731048,-0.169451,0.084970,0.012789,0.008708,-0.998241,-0.058652,-0.047664,0.014232,-0.034884,-5.391522,-46.049557,11.381956,,,,,,,
1558973688.631132,0.137304,1.508498,-1.719037,-0.039479,0.089478,-0.050053,0.008521,-0.998060,-0.061672,-0.027854,0.026609,-0.049747,-5.413829,-46.076771,11.260626,,,,,,,
1558973688.651115,0.168526,1.508691,-1.749579,0.063583,0.003229,-0.110584,0.010410,-0.998072,-0.061187,-0.002506,0.018778,-0.044526,-5.430051,-46.104588,11.138265,,,,,,,
1558973688.671100,0.209972,1.512204,-1.791304,0.264632,-0.019962,-0.116028,0.012205,-0.998284,-0.057272,-0.003432,-0.001991,0.004553,-5.307631,-46.083961,11.281715,,,,,,,
1558973688.691058,0.294828,1.517274,-1.878206,0.278219,-0.122650,-0.173585,0.015545,-0.998568,-0.051189,0.001438,0.013079,0.005840,-5.240735,-46.058613,11.415709,,,,,,,
1558973688.711067,0.365771,1.520486,-1.951141,0.094138,-0.066606,-0.098461,0.017987,-0.998735,-0.046964,-0.006375,-0.030181,0.049344,-4.984785,-45.998104,11.768841,,,,,,,
1558973688.731040,0.388769,1.520443,-1.974011,-0.016273,0.054575,-0.030128,0.019078,-0.998733,-0.046576,-0.009343,-0.030931,0.052008,-4.924718,-45.980663,11.861923,,,,,,,
1558973688.751027,0.381907,1.519254,-1.965005,-0.088496,0.122664,0.011036,0.019201,-0.998672,-0.047808,-0.007223,-0.002381,0.032595,-4.918708,-45.989162,11.831434,,,,,,,
1558973688.771003,0.376507,1.517719,-1.957492,-0.101387,0.079371,-0.004337,0.019506,-0.998592,-0.049337,0.015757,0.008571,0.014319,-4.962274,-46.016335,11.706924,,,,,,,
1558973688.790992,0.377511,1.516250,-1.957860,-0.045154,0.006085,-0.042361,0.020097,-0.998513,-0.050681,0.020766,0.007470,0.009300,-4.948972,-46.028465,11.664808,,,,,,,
1558973688.810961,0.393798,1.515682,-1.974767,0.007928,-0.042834,-0.054531,0.021136,-0.998482,-0.050869,0.012937,0.015343,0.002362,-4.906672,-46.041531,11.631066,,,,,,,
1558973688.830974,0.420820,1.515859,-2.002620,0.036582,-0.033404,-0.039507,0.022431,-0.998491,-0.050119,0.014037,0.004671,0.006006,-4.837461,-46.042477,11.656288,,,,,,,
1558973688.850952,0.434072,1.516159,-2.016449,0.017415,-0.026934,-0.021311,0.022967,-0.998508,-0.049546,0.012540,0.006320,0.001389,-4.787511,-46.038681,11.691820,,,,,,,
1558973688.870942,0.439367,1.516044,-2.022225,-0.008127,-0.022564,-0.015951,0.023278,-0.998501,-0.049527,0.010413,0.009274,0.001401,-4.762352,-46.037094,11.708356,,,,,,,
1558973688.890927,0.453268,1.515480,-2.036618,-0.002797,-0.028963,-0.035227,0.024211,-0.998470,-0.049706,0.011479,0.008160,-0.000389,-4.730644,-46.041733,11.702972,,,,,,,
1558973688.910911,0.465952,1.515441,-2.050209,0.025863,-0.052363,-0.032225,0.024857,-0.998468,-0.049429,0.012497,0.003092,0.002798,-4.682025,-46.045719,11.706827,,,,,,,
1558973688.930895,0.482222,1.515398,-2.067361,0.021637,-0.035407,-0.017120,0.025678,-0.998466,-0.049055,0.011386,0.003776,-0.003542,-4.624905,-46.045769,11.729313,,,,,,,
1558973688.950879,0.487788,1.515050,-2.073255,-0.002806,-0.008807,0.014075,0.026113,-0.998447,-0.049219,0.004633,0.007297,-0.003592,-4.590910,-46.045818,11.742453,,,,,,,
1558973688.970851,0.478992,1.514525,-2.064749,-0.019902,-0.022441,0.025674,0.025922,-0.998417,-0.049913,0.002048,0.003498,-0.005018,-4.589516,-46.052341,11.717398,,,,,,,
1558973688.990848,0.467464,1.514473,-2.053826,-0.009370,-0.032003,0.006343,0.025367,-0.998414,-0.050254,-0.006736,0.006105,-0.000268,-4.597887,-46.056187,11.698991,,,,,,,
1558973689.010832,0.455515,1.514739,-2.042283,0.002452,-0.008848,-0.017979,0.024648,-0.998429,-0.050316,-0.018133,0.004365,-0.000313,-4.623999,-46.055386,11.691858,,,,,,,
1558973689.030791,0.444180,1.514860,-2.030634,0.002608,0.036595,-0.022879,0.024024,-0.998436,-0.050482,-0.004920,0.003365,-0.007577,-4.665487,-46.050663,11.693967,,,,,,,
1558973689.050801,0.451379,1.514405,-2.036918,-0.003768,0.044041,-0.014272,0.024585,-0.998410,-0.050717,0.005032,0.001981,-0.007267,-4.663864,-46.054119,11.681030,,,,,,,
1558973689.070784,0.458795,1.513461,-2.043770,0.006760,0.009103,-0.014600,0.025378,-0.998357,-0.051378,0.009900,0.001790,-0.013899,-4.644543,-46.063862,11.650256,,,,,,,
1558973689.090758,0.460330,1.512897,-2.045384,0.026924,-0.006852,-0.010466,0.025707,-0.998324,-0.051843,-0.002407,0.001483,-0.010016,-4.610761,-46.075367,11.618136,,,,,,,
1558973689.110753,0.466174,1.513049,-2.051426,0.024779,-0.016370,-0.021235,0.025941,-0.998333,-0.051557,-0.002443,0.003170,-0.009371,-4.604515,-46.074070,11.625748,,,,,,,
1558973689.130734,0.473038,1.512834,-2.058910,0.017302,-0.031153,-0.037397,0.026392,-0.998321,-0.051568,-0.003214,0.006393,-0.007255,-4.593561,-46.075829,11.623139,,,,,,,
1558973689.150722,0.483145,1.512628,-2.069359,0.032188,-0.001610,-0.037127,0.027007,-0.998309,-0.051480,0.004075,0.005908,-0.005297,-4.548302,-46.077404,11.634662,,,,,,,
1558973689.170681,0.499120,1.512824,-2.085021,0.040757,0.021621,-0.021951,0.027733,-0.998320,-0.050872,0.005927,0.007719,-0.007645,-4.521736,-46.075428,11.652845,,,,,,,
1558973689.190685,0.515339,1.512625,-2.100862,0.029018,0.016409,-0.014539,0.028652,-0.998309,-0.050588,0.013721,0.014101,-0.008372,-4.492120,-46.075920,11.662339,,,,,,,
1558973689.210661,0.548824,1.511760,-2.134477,0.035278,-0.022737,-0.017050,0.030780,-0.998258,-0.050337,0.029355,0.010709,-0.001879,-4.406065,-46.080036,11.678879,,,,,,,
1558973689.230641,0.563776,1.511947,-2.150278,0.034106,-0.049136,-0.003425,0.031430,-0.998269,-0.049713,0.020557,0.013299,-0.001526,-4.359172,-46.078476,11.702595,,,,,,,
1558973689.250618,0.577144,1.512899,-2.164385,0.032050,-0.021623,0.009647,0.031573,-0.998324,-0.048492,-0.001147,0.004596,0.008408,-4.309918,-46.067783,11.762807,,,,,,,
1558973689.270627,0.574520,1.513579,-2.161599,0.003414,0.019781,0.030306,0.031077,-0.998364,-0.048005,-0.003473,0.005764,0.006913,-4.325371,-46.058521,11.793361,,,,,,,
1558973689.290609,0.560838,1.513976,-2.147430,-0.020016,0.019917,0.038830,0.030206,-0.998386,-0.048090,-0.007257,0.003620,0.007563,-4.362723,-46.052406,11.803467,,,,,,,
1558973689.310584,0.546495,1.514618,-2.133284,-0.018079,-0.027703,0.003134,0.029180,-0.998422,-0.047971,-0.014822,0.000635,0.010342,-4.414167,-46.049919,11.794065,,,,,,,
1558973689.330580,0.542484,1.514812,-2.130043,-0.007442,-0.035174,-0.007605,0.028888,-0.998433,-0.047923,-0.016788,-0.002162,0.013575,-4.417226,-46.049553,11.794332,,,,,,,
1558973689.350545,0.537544,1.515114,-2.125168,-0.013660,0.018775,-0.001754,0.028496,-0.998450,-0.047805,-0.022682,-0.003839,0.014296,-4.447341,-46.040287,11.819173,,,,,,,
1558973689.370521,0.532049,1.514738,-2.118883,-0.044440,0.040058,-0.014386,0.028423,-0.998429,-0.048284,0.006245,0.006806,-0.000102,-4.469375,-46.043449,11.798525,,,,,,,
1558973689.390532,0.538404,1.513821,-2.125035,-0.023320,-0.016090,-0.024516,0.029199,-0.998377,-0.048888,0.015433,-0.007680,0.005370,-4.451155,-46.055828,11.757003,,,,,,,
1558973689.410517,0.559614,1.514004,-2.147225,0.028713,-0.058656,-0.032357,0.030133,-0.998388,-0.048104,0.006046,-0.008662,0.014870,-4.400113,-46.057308,11.770412,,,,,,,
1558973689.430501,0.571270,1.514461,-2.159648,-0.015882,-0.016113,-0.013835,0.030445,-0.998414,-0.047366,-0.004047,0.002366,0.011233,-4.348167,-46.047016,11.829844,,,,,,,
1558973689.450486,0.560433,1.513502,-2.148456,-0.090265,0.031871,0.004715,0.030439,-0.998359,-0.048504,-0.003003,0.003150,0.010204,-4.345825,-46.051331,11.813896,,,,,,,
1558973689.470449,0.547818,1.512180,-2.135143,-0.062699,0.027503,0.011116,0.030511,-0.998283,-0.050009,0.007788,-0.003976,0.000251,-4.358358,-46.068233,11.743179,,,,,,,
1558973689.490454,0.542563,1.511342,-2.129918,-0.020283,-0.023462,0.007458,0.030680,-0.998233,-0.050885,0.006262,0.000186,-0.005572,-4.356598,-46.084602,11.679433,,,,,,,
1558973689.510437,0.533633,1.510606,-2.121880,-0.046948,-0.043418,-0.001296,0.030598,-0.998189,-0.051790,-0.000767,0.005986,-0.007704,-4.347094,-46.090565,11.659426,,,,,,,
1558973689.530422,0.505963,1.509954,-2.094415,-0.055292,0.013719,0.008856,0.029469,-0.998150,-0.053187,-0.026967,0.010555,-0.003942,-4.360020,-46.103981,11.601407,,,,,,,
1558973689.550406,0.486907,1.509463,-2.074692,-0.027512,0.037859,-0.007971,0.028680,-0.998120,-0.054172,-0.013574,0.014675,-0.006131,-4.422409,-46.114689,11.535048,,,,,,,
1558973689.570376,0.487883,1.508263,-2.075105,-0.024353,0.021968,-0.020933,0.029294,-0.998045,-0.055201,0.007923,0.013411,-0.013113,-4.430611,-46.123669,11.495924,,,,,,,
1558973689.590374,0.491565,1.507164,-2.078506,-0.018041,0.011402,0.004593,0.030015,-0.997976,-0.056060,0.014373,0.000112,-0.006882,-4.397406,-46.139427,11.445304,,,,,,,
1558973689.610345,0.489905,1.506811,-2.076654,-0.002122,0.008184,0.029129,0.030087,-0.997954,-0.056421,0.010837,0.001997,-0.004401,-4.388323,-46.147568,11.415960,,,,,,,
1558973689.630323,0.480850,1.506883,-2.067633,-0.005480,-0.015053,0.032148,0.029542,-0.997958,-0.056626,0.001617,0.008914,-0.002166,-4.401450,-46.148048,11.408945,,,,,,,
1558973689.650319,0.474943,1.507139,-2.062398,0.014697,-0.041623,0.006286,0.029090,-0.997975,-0.056573,-0.003333,0.004338,-0.000968,-4.414620,-46.148716,11.401170,,,,,,,
1558973689.670312,0.472027,1.508293,-2.060307,0.043467,-0.035441,0.001032,0.028401,-0.998047,-0.055633,-0.018529,-0.007507,0.009536,-4.424644,-46.139286,11.435398,,,,,,,
1558973689.690276,0.475073,1.509333,-2.063802,0.031863,-0.011094,-0.015826,0.028096,-0.998112,-0.054623,-0.018468,-0.009716,0.010464,-4.437747,-46.127594,11.477421,,,,,,,
1558973689.710280,0.484352,1.510029,-2.073338,0.009561,-0.008906,-0.044648,0.028278,-0.998154,-0.053744,-0.009921,-0.011230,0.011935,-4.448854,-46.113476,11.529736,,,,,,,
1558973689.730264,0.496952,1.510266,-2.085948,0.004279,0.005930,-0.038103,0.028840,-0.998169,-0.053175,-0.004761,-0.007660,0.010497,-4.433943,-46.107281,11.560190,,,,,,,
1558973689.750224,0.517424,1.510206,-2.106427,-0.003207,-0.008842,-0.046793,0.029953,-0.998165,-0.052627,0.004624,-0.002537,0.006561,-4.376388,-46.104523,11.593105,,,,,,,
1558973689.770233,0.533072,1.509419,-2.122633,-0.023495,-0.034124,-0.059863,0.031171,-0.998117,-0.052828,0.005648,-0.001990,0.007402,-4.333665,-46.108303,11.594118,,,,,,,
1558973689.790217,0.548699,1.508470,-2.138822,-0.033131,-0.019253,-0.040453,0.032487,-0.998058,-0.053142,0.010360,-0.006596,0.005886,-4.275086,-46.113701,11.594393,,,,,,,
1558973689.810201,0.549528,1.506930,-2.139516,-0.071356,0.021150,-0.016610,0.033334,-0.997961,-0.054427,0.005667,0.008017,-0.008683,-4.199708,-46.132584,11.546726,,,,,,,
1558973689.830183,0.533670,1.504828,-2.122708,-0.108546,0.056273,0.014658,0.033534,-0.997825,-0.056754,0.009481,0.007178,-0.018563,-4.191031,-46.144878,11.500660,,,,,,,
1558973689.850166,0.511640,1.502175,-2.099709,-0.085224,0.030791,0.020837,0.033572,-0.997646,-0.059788,0.006971,0.012051,-0.027371,-4.207972,-46.190670,11.309036,,,,,,,
1558973689.870153,0.501144,1.500827,-2.089229,-0.027824,-0.011851,-0.019028,0.033588,-0.997553,-0.061315,-0.004047,0.014719,-0.026774,-4.209650,-46.208820,11.234035,,,,,,,
1558973689.890126,0.498568,1.500001,-2.086768,-0.012868,0.006043,-0.016709,0.033824,-0.997495,-0.062125,-0.009257,0.022230,-0.021463,-4.198435,-46.221073,11.187717,,,,,,,
1558973689.910103,0.486249,1.499212,-2.074093,-0.006435,0.028230,-0.000475,0.033423,-0.997439,-0.063232,-0.009803,0.018038,-0.017334,-4.202944,-46.236271,11.123036,,,,,,,
1558973689.930107,0.486663,1.499047,-2.073803,0.020225,0.037584,-0.013176,0.033527,-0.997427,-0.063364,-0.005634,0.014364,-0.013265,-4.217056,-46.240429,11.100380,,,,,,,
1558973689.950065,0.496686,1.499339,-2.083270,0.054189,0.024692,-0.029211,0.034022,-0.997448,-0.062770,0.001104,0.009808,-0.001820,-4.218031,-46.241009,11.097601,,,,,,,
1558973689.970067,0.518466,1.500255,-2.104549,0.061669,0.029927,-0.036629,0.034928,-0.997513,-0.061221,0.008010,0.004868,0.010699,-4.186492,-46.228848,11.160033,,,,,,,
1558973689.990060,0.537104,1.500837,-2.122627,0.035009,0.024814,-0.015348,0.035766,-0.997554,-0.060060,0.013505,0.006831,0.009126,-4.160769,-46.219517,11.208195,,,,,,,
1558973690.010021,0.554875,1.501309,-2.140083,0.023214,0.004813,-0.001671,0.036579,-0.997587,-0.059014,0.015148,0.008283,0.015481,-4.124134,-46.211212,11.255884,,,,,,,
1558973690.030002,0.575768,1.502581,-2.161252,0.048684,-0.023873,-0.010468,0.037113,-0.997674,-0.057173,0.005734,0.001092,0.025908,-4.089807,-46.196201,11.329777,,,,,,,
1558973690.049986,0.596931,1.503872,-2.182936,0.023148,-0.022687,-0.013681,0.037590,-0.997761,-0.055309,0.005440,0.001912,0.023311,-4.061513,-46.174564,11.427736,,,,,,,
1558973690.069995,0.597404,1.503808,-2.183428,-0.058743,0.011608,0.013273,0.037653,-0.997757,-0.055345,0.002554,0.001602,0.024751,-4.048208,-46.168182,11.458216,,,,,,,
1558973690.089980,0.581698,1.503127,-2.166993,-0.107654,0.041506,0.043413,0.037152,-0.997711,-0.056497,0.003375,0.005020,0.003549,-4.072305,-46.175316,11.420851,,,,,,,
1558973690.109938,0.553409,1.501245,-2.137875,-0.103528,0.027749,0.048711,0.036526,-0.997582,-0.059122,0.007938,0.009774,-0.015326,-4.116216,-46.198154,11.312256,,,,,,,
1558973690.129949,0.531904,1.500004,-2.116390,-0.049368,-0.019070,0.031224,0.035874,-0.997495,-0.060961,-0.004594,0.007642,-0.016096,-4.132424,-46.211990,11.249632,,,,,,,
1558973690.149933,0.515782,1.499826,-2.100769,0.008148,-0.019410,0.006712,0.034974,-0.997483,-0.061686,-0.015657,0.005158,-0.011541,-4.169114,-46.229027,11.165798,,,,,,,
1558973690.169890,0.503373,1.499849,-2.088508,-0.000311,-0.001396,0.006880,0.034195,-0.997484,-0.062094,-0.015106,-0.001615,-0.012872,-4.201287,-46.230103,11.149277,,,,,,,
1558973690.189902,0.488987,1.499619,-2.073994,-0.021563,0.012463,0.011268,0.033406,-0.997468,-0.062782,-0.018284,-0.000411,-0.007073,-4.233536,-46.233379,11.123467,,,,,,,
1558973690.209886,0.474604,1.499680,-2.059120,0.000849,0.027132,0.003955,0.032472,-0.997472,-0.063203,-0.018037,0.000463,-0.006179,-4.286348,-46.236469,11.090336,,,,,,,
1558973690.229870,0.473402,1.499992,-2.057686,0.033798,0.002617,-0.016537,0.032254,-0.997494,-0.062965,-0.008344,-0.000812,-0.005150,-4.317262,-46.234955,11.084673,,,,,,,
1558973690.249854,0.485012,1.500609,-2.069669,0.055027,-0.027128,-0.041360,0.032696,-0.997538,-0.062041,-0.005154,0.001246,0.002929,-4.310029,-46.229527,11.110081,,,,,,,
1558973690.269839,0.507381,1.501858,-2.092860,0.064493,-0.041969,-0.036064,0.033470,-0.997625,-0.060206,0.001671,-0.009867,0.018672,-4.258874,-46.213924,11.194410,,,,,,,
1558973690.289822,0.525746,1.503156,-2.111792,0.026223,-0.015304,-0.010216,0.033920,-0.997713,-0.058461,0.001099,-0.015623,0.023198,-4.227986,-46.197395,11.274052,,,,,,,
1558973690.309807,0.526961,1.503875,-2.112857,-0.026918,0.016710,0.006063,0.033630,-0.997762,-0.057799,-0.006378,-0.009090,0.021895,-4.223687,-46.183392,11.332884,,,,,,,
1558973690.329792,0.530667,1.504010,-2.116446,-0.020581,-0.010844,-0.019819,0.033776,-0.997771,-0.057559,0.001685,-0.012483,0.019885,-4.235628,-46.180977,11.338259,,,,,,,
1558973690.349763,0.547742,1.503790,-2.134198,-0.013190,-0.042636,-0.047877,0.034868,-0.997756,-0.057161,0.013105,-0.009965,0.012422,-4.206500,-46.176666,11.366625,,,,,,,
1558973690.369759,0.570724,1.502583,-2.158126,-0.034527,-0.054140,-0.040535,0.036823,-0.997674,-0.057358,0.037823,-0.034979,0.007187,-4.123654,-46.181957,11.375488,,,,,,,
1558973690.389717,0.566523,1.501640,-2.155172,-0.050631,-0.077250,-0.000198,0.037087,-0.997610,-0.058306,0.061821,-0.090601,-0.028990,-4.041513,-46.197029,11.343741,,,,,,,
1558973690.409708,0.547282,1.500647,-2.138604,-0.086132,-0.176376,0.030854,0.036474,-0.997541,-0.059855,0.047419,-0.109652,-0.043630,-4.032241,-46.206440,11.308653,,,,,,,
1558973690.429708,0.527000,1.498680,-2.122624,-0.128869,-0.240721,-0.033764,0.036239,-0.997401,-0.062278,0.034638,-0.120016,-0.080865,-4.013068,-46.225304,11.238146,,,,,,,
1558973690.449683,0.528416,1.495499,-2.129617,-0.117118,-0.283244,-0.154806,0.037927,-0.997166,-0.064967,-0.016641,-0.123393,-0.128469,-3.872089,-46.266373,11.117979,,,,,,,
1558973690.469681,0.546717,1.492434,-2.153901,-0.057519,-0.282486,-0.145143,0.040697,-0.996931,-0.066871,-0.025057,-0.122926,-0.130395,-3.709638,-46.293495,11.060312,,,,,,,
1558973690.489644,0.568446,1.489885,-2.180018,-0.071010,-0.186257,-0.165585,0.043509,-0.996728,-0.068113,-0.051840,-0.101126,-0.175417,-3.514028,-46.316200,11.029083,,,,,,,
1558973690.509620,0.587268,1.485899,-2.201856,-0.139932,-0.120414,-0.201310,0.046985,-0.996398,-0.070589,-0.074756,-0.068314,-0.220411,-3.266671,-46.355949,10.937745,,,,,,,
1558973690.529631,0.614932,1.480865,-2.230607,-0.134217,-0.031756,-0.268787,0.051812,-0.995959,-0.073358,-0.075463,-0.063077,-0.246176,-3.099970,-46.389053,10.845544,,,,,,,
1558973690.549611,0.652761,1.475735,-2.268302,-0.082669,0.085235,-0.313535,0.057652,-0.995485,-0.075404,-0.087101,-0.021300,-0.231038,-2.841990,-46.432564,10.729396,,,,,,,
1558973690.569602,0.699993,1.470059,-2.312850,-0.093027,0.151814,-0.358815,0.064787,-0.994930,-0.076919,-0.022260,0.027996,-0.248948,-2.489942,-46.477058,10.623680,,,,,,,
1558973690.589586,0.743936,1.463719,-2.355294,-0.080489,0.068204,-0.385228,0.072373,-0.994273,-0.078638,-0.015503,0.062861,-0.215033,-2.254646,-46.505257,10.552594,,,,,,,
1558973690.609571,0.792839,1.457751,-2.403709,0.013094,0.028564,-0.411157,0.080356,-0.993617,-0.079169,-0.042347,0.092540,-0.221215,-1.907297,-46.536331,10.483885,,,,,,,
1558973690.629555,0.862295,1.453158,-2.472986,0.219726,0.050684,-0.443877,0.089122,-0.993089,-0.076371,-0.054805,0.109162,-0.190490,-1.420739,-46.536945,10.558108,,,,,,,
1558973690.649538,0.946449,1.450498,-2.554754,0.317061,0.223623,-0.375949,0.097368,-0.992773,-0.070153,-0.067400,0.123937,-0.171638,-1.134249,-46.503471,10.738735,,,,,,,
1558973690.669522,1.016452,1.447747,-2.618159,0.180336,0.435847,-0.306766,0.104359,-0.992439,-0.064608,-0.022526,0.152046,-0.119611,-0.849365,-46.445320,11.013190,,,,,,,
1558973690.689493,1.058488,1.444303,-2.652357,0.066068,0.356219,-0.236087,0.109960,-0.992010,-0.061841,-0.020513,0.134512,-0.098361,-0.635982,-46.410580,11.172866,,,,,,,
1558973690.709471,1.090271,1.440364,-2.677832,0.054270,0.317131,-0.263162,0.115333,-0.991506,-0.060121,-0.055290,0.112600,-0.037505,-0.484592,-46.401531,11.217951,,,,,,,
1558973690.729457,1.123033,1.436933,-2.701665,0.057026,0.554039,-0.161601,0.120307,-0.991054,-0.057784,-0.054877,0.125590,-0.053484,-0.365000,-46.392883,11.258198,,,,,,,
1558973690.749456,1.135897,1.436959,-2.701161,-0.038524,0.741993,0.081410,0.121017,-0.991057,-0.056220,-0.033370,0.203154,-0.060250,-0.429179,-46.385071,11.288063,,,,,,,
1558973690.769438,1.138314,1.438396,-2.687907,-0.023617,0.740850,0.076072,0.119859,-0.991248,-0.055330,-0.037782,0.217078,-0.057218,-0.489870,-46.387054,11.277433,,,,,,,
1558973690.789429,1.171910,1.438071,-2.710539,0.241904,0.447356,-0.167813,0.121947,-0.991205,-0.051398,-0.032546,0.200586,-0.040460,-0.826189,-46.390572,11.243310,,,,,,,
1558973690.809395,1.239571,1.436852,-2.770077,0.372873,0.462536,-0.159021,0.126285,-0.991043,-0.043429,-0.082889,0.280472,-0.037580,-0.741465,-46.312897,11.564827,,,,,,,
1558973690.829397,1.301911,1.438397,-2.821629,0.331564,0.613135,0.033496,0.127270,-0.991248,-0.035070,-0.126324,0.299231,-0.009516,-0.758988,-46.249996,11.812752,,,,,,,
1558973690.849382,1.359294,1.439976,-2.865444,0.259781,0.766682,-0.031286,0.127541,-0.991455,-0.027385,-0.091454,0.284073,-0.019414,-0.932667,-46.170929,12.105979,,,,,,,
1558973690.869366,1.396994,1.440606,-2.887038,0.066148,0.847135,0.076093,0.127866,-0.991537,-0.022450,-0.065580,0.374716,-0.063411,-1.149352,-46.106533,12.330698,,,,,,,
1558973690.889350,1.399581,1.445753,-2.869626,-0.119837,1.073698,0.372784,0.122894,-0.992192,-0.021249,-0.050278,0.452168,-0.117682,-1.562887,-46.105701,12.288260,,,,,,,
1558973690.909334,1.409223,1.453232,-2.857518,0.121833,1.066028,0.334468,0.115766,-0.993097,-0.018869,-0.084134,0.465158,-0.070883,-2.034595,-46.113209,12.190656,,,,,,,
1558973690.929298,1.500365,1.458040,-2.928704,0.623248,0.984867,0.128037,0.112239,-0.993650,-0.007918,-0.068629,0.468961,0.009551,-2.668695,-46.020580,12.416273,,,,,,,
1558973690.949303,1.667041,1.461156,-3.078522,0.911014,0.813320,0.224849,0.108915,-0.993996,0.010515,-0.012601,0.461830,0.081862,-2.759534,-45.979980,12.546151,,,,,,,
1558973690.969258,1.856230,1.464005,3.028841,0.881688,0.697404,0.360375,0.102276,-0.994303,0.030013,-0.019787,0.462779,0.064180,-3.373475,-45.623344,13.649538,,,,,,,
1558973690.989265,2.061108,1.464641,2.837707,0.989423,0.802661,0.442610,0.093473,-0.994371,0.049895,-0.076658,0.394059,0.224794,-4.057927,-45.270264,14.605330,,,,,,,
1558973691.009255,2.299043,1.459652,2.616440,1.179179,0.915915,0.505769,0.082782,-0.993830,0.073822,-0.017489,0.321939,0.279022,-4.740155,-44.905220,15.499402,,,,,,,
1558973691.029225,2.513064,1.451565,2.417586,0.942147,0.763049,0.648248,0.069937,-0.992900,0.096217,0.062342,0.219860,0.277883,-5.302123,-44.591682,16.206450,,,,,,,
1558973691.049202,2.700040,1.447058,2.243095,0.627326,0.620218,0.866564,0.052744,-0.992354,0.111585,0.050665,0.153868,0.308336,-6.395967,-44.132401,17.047056,,,,,,,
1558973691.069189,2.887288,1.443535,2.065763,0.521532,0.580885,1.052941,0.031929,-0.991913,0.122836,0.015129,0.144974,0.324704,-7.148153,-43.888966,17.373590,,,,,,,
1558973691.089167,3.088670,1.436851,1.875682,0.503537,0.691167,1.226941,0.007064,-0.991043,0.133358,-0.016281,-0.009186,0.336597,-8.299555,-43.538536,17.739578,,,,,,,
1558973691.109169,-3.003588,1.427855,1.696126,0.309485,0.602365,1.243018,-0.019597,-0.989801,0.141101,-0.022654,0.072885,0.271283,-9.943670,-43.049973,18.083216,,,,,,,
1558973691.129100,-2.853803,1.419152,1.553909,0.191946,0.362700,1.014289,-0.042877,-0.988524,0.144851,-0.000290,0.083129,0.287934,-10.861929,-42.794983,18.160042,,,,,,,
1558973691.149080,-2.765630,1.406574,1.467198,0.528607,0.011747,0.765640,-0.060027,-0.986546,0.152067,-0.025316,-0.078075,0.380694,-11.807186,-42.489647,18.286608,,,,,,,
1558973691.169080,-2.721048,1.387971,1.421484,0.722384,0.006441,0.726241,-0.074225,-0.983334,0.165967,-0.100137,-0.273914,0.446734,-12.598108,-41.978161,18.928837,,,,,,,
1558973691.189064,-2.663444,1.373944,1.364564,0.130775,0.131271,0.836930,-0.089995,-0.980687,0.173649,-0.068727,-0.199474,0.408291,-13.076988,-41.657009,19.309723,,,,,,,
1558973691.209049,-2.575837,1.370847,1.277588,-0.473901,0.082544,0.762312,-0.106471,-0.980077,0.167672,-0.077321,-0.125453,0.354438,-13.820238,-41.418385,19.305378,,,,,,,
1558973691.229033,-2.499604,1.371264,1.199781,-0.365462,-0.051510,0.560398,-0.118686,-0.980159,0.158748,-0.069836,-0.290181,0.398106,-14.569803,-41.389660,18.809467,,,,,,,
1558973691.248996,-2.448104,1.366346,1.143295,-0.073671,-0.290717,0.664039,-0.129781,-0.979173,0.156133,-0.065288,-0.323302,0.400050,-14.680842,-41.382992,18.737671,,,,,,,
1558973691.269001,-2.387723,1.357833,1.074215,-0.255243,-0.367629,0.901242,-0.144666,-0.977409,0.154089,-0.177447,-0.216622,0.369761,-15.350533,-41.166172,18.678505,,,,,,,
1558973691.288985,-2.303175,1.350492,0.980810,-0.570260,-0.311954,0.976258,-0.162493,-0.975831,0.146115,-0.124448,-0.159682,0.289248,-16.137487,-40.959785,18.467726,,,,,,,
1558973691.308939,-2.217127,1.344366,0.886047,-0.592602,-0.364873,0.851887,-0.179219,-0.974474,0.135208,-0.065822,-0.210859,0.255890,-16.637709,-40.892601,18.170351,,,,,,,
1558973691.328954,-2.157680,1.337150,0.813359,-0.394461,-0.697992,0.733551,-0.192785,-0.972829,0.128212,-0.060068,-0.224437,0.256355,-17.172630,-40.812679,17.849525,,,,,,,
1558973691.348938,-2.121917,1.330039,0.759376,-0.336199,-0.862390,0.562268,-0.203134,-0.971158,0.124856,-0.168494,-0.194217,0.238593,-17.547287,-40.675880,17.797331,,,,,,,
1558973691.368906,-2.092882,1.326222,0.712716,-0.422967,-0.768067,0.423239,-0.209885,-0.970240,0.120754,-0.126418,-0.186696,0.208530,-17.628931,-40.636463,17.806690,,,,,,,
1558973691.388906,-2.056464,1.322742,0.659200,-0.512623,-0.815078,0.479303,-0.217127,-0.969392,0.114608,0.046488,-0.242308,0.156724,-17.712795,-40.636822,17.722446,,,,,,,
1558973691.408890,-2.028489,1.319633,0.609302,-0.439046,-1.147523,0.374753,-0.222951,-0.968624,0.109821,0.086720,-0.317936,0.175549,-17.772913,-40.656250,17.617393,,,,,,,
1558973691.428874,-2.019000,1.316469,0.572513,-0.299202,-1.367113,0.338599,-0.226743,-0.967833,0.109028,0.000455,-0.383165,0.268627,-17.667437,-40.666691,17.699192,,,,,,,
1558973691.448831,-2.007370,1.312813,0.533201,-0.476713,-1.246601,0.430360,-0.231201,-0.966906,0.107879,-0.060791,-0.383924,0.296586,-17.463800,-40.656700,17.922823,,,,,,,
1558973691.468831,-1.957109,1.308127,0.457752,-0.991822,-1.092340,0.700471,-0.240523,-0.965700,0.097833,-0.097413,-0.303007,0.224997,-17.440735,-40.710033,17.823957,,,,,,,
1558973691.488810,-1.881679,1.303220,0.356504,-1.194199,-1.164321,0.625952,-0.251721,-0.964415,0.080878,0.030163,-0.257738,0.123117,-17.587040,-40.810101,17.447378,,,,,,,
1558973691.508787,-1.826819,1.300793,0.272252,-0.910354,-1.428445,0.294816,-0.258040,-0.963770,0.067547,0.054168,-0.287832,0.074375,-17.654335,-41.002579,16.920168,,,,,,,
1558973691.528766,-1.812394,1.302009,0.224991,-0.443202,-1.615274,-0.009810,-0.257850,-0.964094,0.063537,0.009879,-0.400301,0.085648,-17.253944,-41.242462,16.749340,,,,,,,
1558973691.548780,-1.829404,1.306145,0.208380,-0.231221,-1.665321,-0.218311,-0.252875,-0.965184,0.066893,-0.082956,-0.504512,0.069551,-16.622520,-41.381073,17.043415,,,,,,,
1558973691.568764,-1.839498,1.314186,0.184129,-0.546223,-1.686048,-0.347799,-0.244696,-0.967256,0.067380,-0.093866,-0.502593,0.062961,-16.237890,-41.463833,17.212234,,,,,,,
1558973691.588749,-1.825469,1.325139,0.134997,-0.801554,-1.649852,-0.365807,-0.235351,-0.969978,0.061268,-0.107194,-0.509805,-0.024982,-14.931017,-41.926270,17.275192,,,,,,,
1558973691.608733,-1.806836,1.336838,0.083745,-0.647588,-1.503935,-0.498811,-0.225401,-0.972756,0.054214,-0.127183,-0.564094,-0.058319,-14.279659,-42.211727,17.130110,,,,,,,
1558973691.628697,-1.809200,1.352878,0.055799,-0.434069,-1.461140,-0.819592,-0.210082,-0.976350,0.051055,-0.187516,-0.616393,-0.072799,-13.573580,-42.482113,17.035467,,,,,,,
1558973691.648700,-1.808997,1.372666,0.026750,-0.613635,-1.399017,-0.904553,-0.191279,-0.980436,0.046445,-0.194799,-0.487276,-0.193982,-11.787376,-43.037865,16.969959,,,,,,,
1558973691.668680,-1.783417,1.394755,-0.026882,-0.761154,-1.325509,-1.039559,-0.171190,-0.984545,0.036957,-0.229750,-0.449354,-0.216660,-10.843427,-43.364010,16.767912,,,,,,,
1558973691.688660,-1.758855,1.421633,-0.076892,-0.600454,-1.150280,-1.339897,-0.145990,-0.988896,0.027783,-0.359518,-0.446392,-0.237393,-9.830750,-43.713326,16.482754,,,,,,,
1558973691.708632,-1.738975,1.451074,-0.115863,-0.484261,-0.806401,-1.404843,-0.117752,-0.992842,0.019992,-0.281113,-0.277880,-0.293445,-7.526634,-44.346619,15.997081,,,,,,,
1558973691.728638,-1.708897,1.478329,-0.158717,-0.397426,-0.552955,-1.257147,-0.091457,-0.995728,0.012711,-0.237004,-0.230072,-0.289750,-6.441084,-44.600697,15.762930,,,,,,,
1558973691.748597,-1.667345,1.504831,-0.213171,-0.359631,-0.762604,-1.365888,-0.065610,-0.997825,0.006354,-0.185977,-0.166253,-0.342979,-5.134564,-44.869144,15.478245,,,,,,,
1558973691.768605,-1.592954,1.537780,-0.308380,-0.313438,-1.148218,-1.781654,-0.033002,-0.999455,0.000731,-0.266559,0.027226,-0.362456,-3.132133,-45.155846,15.176255,,,,,,,
1558973691.788591,0.673354,1.566121,-2.595251,-0.169880,-0.846593,-1.731676,0.002915,-0.999989,-0.003654,-0.302414,0.045384,-0.353570,-1.162473,-45.315292,14.978387,,,,,,,
1558973691.808575,1.378488,1.538953,2.975375,-0.127861,-0.121953,-1.188747,0.031250,-0.999493,-0.006085,-0.228241,0.129757,-0.408939,0.086389,-45.358421,14.892477,,,,,,,
1558973691.828561,1.356449,1.518720,2.993448,-0.300358,-0.369146,-0.988399,0.050862,-0.998644,-0.011072,-0.227620,0.251360,-0.380407,1.389886,-45.404350,14.686484,,,,,,,
1558973691.848545,1.337993,1.493183,2.999192,-0.287050,-0.705918,-1.372762,0.075445,-0.996990,-0.017888,-0.357107,0.275096,-0.312022,2.243553,-45.441673,14.463760,,,,,,,
1558973691.868527,1.333876,1.467032,2.995627,-0.318330,-0.065879,-1.115763,0.100685,-0.994621,-0.024311,-0.404121,0.253487,-0.266140,3.314168,-45.447029,14.239492,,,,,,,
1558973691.888513,1.295521,1.450267,3.044676,-0.600551,0.806390,-0.534314,0.115711,-0.992745,-0.032682,-0.273106,0.413216,-0.243288,4.684926,-45.476414,13.752331,,,,,,,
1558973691.908496,1.223011,1.439094,3.136820,-0.742068,0.927970,-0.307990,0.123459,-0.991340,-0.044756,-0.182862,0.503547,-0.168638,4.811856,-45.622677,13.213519,,,,,,,
1558973691.928482,1.165827,1.427310,-3.075430,-0.613508,0.477892,-0.423231,0.131429,-0.989723,-0.056339,-0.098882,0.521706,-0.147381,4.873713,-45.738895,12.782009,,,,,,,
1558973691.948466,1.135081,1.413931,-3.036912,-0.501870,0.385174,-0.538267,0.141627,-0.987722,-0.065935,-0.159495,0.570775,-0.111753,5.252967,-45.863544,12.170506,,,,,,,
1558973691.968435,1.132578,1.399607,-3.021910,-0.337664,0.771108,-0.584621,0.154258,-0.985383,-0.072286,-0.020240,0.568772,-0.032359,5.564528,-45.902523,11.881668,,,,,,,
1558973691.988434,1.149431,1.391006,-3.021628,-0.101675,0.816850,-0.266903,0.163182,-0.983881,-0.073140,0.159114,0.454249,0.060002,5.870880,-45.912487,11.694274,,,,,,,
1558973692.008419,1.157110,1.386106,-3.018643,-0.182134,0.326893,-0.217207,0.168150,-0.982993,-0.073822,0.210954,0.427009,0.111404,5.952806,-45.908493,11.668489,,,,,,,
1558973692.028377,1.141631,1.378939,-3.000616,-0.336278,0.037990,-0.278817,0.173390,-0.981652,-0.079345,0.135967,0.441292,0.084503,6.075707,-45.928825,11.524237,,,,,,,
1558973692.048387,1.140516,1.372606,-2.999117,0.030945,0.035017,-0.268942,0.178949,-0.980424,-0.082130,0.105536,0.409105,0.095543,6.259891,-45.958206,11.306473,,,,,,,
1558973692.068366,1.176584,1.371718,-3.032868,0.379366,0.213127,-0.101473,0.182597,-0.980249,-0.075958,0.041860,0.282923,0.191589,6.564790,-45.884537,11.432078,,,,,,,
1558973692.088353,1.207479,1.373608,-3.060277,0.166101,0.156291,0.018456,0.183124,-0.980621,-0.069623,0.115781,0.151016,0.185467,6.553236,-45.800411,11.771019,,,,,,,
1558973692.108340,1.194978,1.373984,-3.045842,-0.280387,0.059427,0.118598,0.181897,-0.980695,-0.071771,0.065738,0.180295,0.126963,6.509793,-45.795338,11.814783,,,,,,,
1558973692.128325,1.161957,1.375435,-3.010098,-0.221763,0.131153,0.223961,0.178122,-0.980978,-0.077172,0.038996,0.167761,0.115502,6.309175,-45.903324,11.500361,,,,,,,
1558973692.148308,1.160132,1.378082,-3.006412,0.156139,0.054917,0.050575,0.175600,-0.981488,-0.076460,-0.005907,0.073132,0.127821,6.120008,-45.942596,11.445644,,,,,,,
1558973692.168293,1.180538,1.378164,-3.027182,0.130581,-0.025534,-0.118904,0.177049,-0.981504,-0.072830,0.011657,0.018521,0.125839,6.120392,-45.908607,11.581017,,,,,,,
1558973692.188276,1.223317,1.374015,-3.069748,-0.137819,-0.026066,-0.003830,0.183828,-0.980701,-0.066578,0.058451,0.012378,0.080433,6.240005,-45.877850,11.638934,,,,,,,
1558973692.208261,1.205105,1.374577,-3.051661,-0.122039,-0.028083,0.116808,0.182071,-0.980811,-0.069718,0.044445,0.015952,0.027039,6.424236,-45.804520,11.826015,,,,,,,
1558973692.228226,1.196865,1.376347,-3.043530,-0.010120,0.012537,0.106610,0.179874,-0.981154,-0.070581,0.025494,0.008361,0.008295,6.349732,-45.830658,11.764846,,,,,,,
1558973692.248219,1.189476,1.377851,-3.035008,-0.031350,0.067732,0.187191,0.177978,-0.981444,-0.071359,0.026673,0.016020,-0.022040,6.244088,-45.855618,11.724063,,,,,,,
1558973692.268214,1.181350,1.382372,-3.026135,0.047046,-0.018205,0.249422,0.173285,-0.982301,-0.071118,0.015374,0.005128,-0.042484,6.025253,-45.886223,11.718793,,,,,,,
1558973692.288178,1.183482,1.386597,-3.031134,0.164820,-0.193423,0.120789,0.169592,-0.983083,-0.069180,-0.005362,-0.003382,-0.052585,5.920197,-45.893208,11.744974,,,,,,,
1558973692.308155,1.197334,1.389502,-3.048598,0.201308,-0.126040,0.071284,0.167875,-0.983611,-0.065782,-0.077955,-0.041459,-0.044585,5.817235,-45.853901,11.948191,,,,,,,
1558973692.328166,1.206826,1.391656,-3.058861,0.063419,0.022662,0.068326,0.166511,-0.983997,-0.063431,-0.059807,-0.025051,-0.081878,5.784777,-45.828262,12.061762,,,,,,,
1558973692.348145,1.202172,1.393348,-3.052622,-0.048176,0.094126,0.107356,0.164660,-0.984297,-0.063605,-0.058978,-0.011583,-0.099420,5.732493,-45.822765,12.107535,,,,,,,
1558973692.368121,1.202958,1.394177,-3.051591,0.059464,0.079646,-0.009070,0.163949,-0.984443,-0.063183,-0.052987,-0.041268,-0.100270,5.587982,-45.845119,12.090452,,,,,,,
1558973692.388119,1.217601,1.393649,-3.064953,0.091493,0.078322,-0.075251,0.165344,-0.984350,-0.060955,-0.030441,-0.028742,-0.112400,5.615301,-45.817059,12.183800,,,,,,,
1558973692.408082,1.219889,1.393590,-3.064473,-0.075472,0.182970,0.048396,0.165538,-0.984340,-0.060596,-0.015635,-0.016286,-0.188046,5.630963,-45.802277,12.232055,,,,,,,
1558973692.428088,1.209114,1.394335,-3.048921,-0.106218,0.236032,0.081976,0.164190,-0.984471,-0.062117,-0.023412,0.017522,-0.220659,5.497427,-45.838947,12.155194,,,,,,,
1558973692.448071,1.209837,1.393971,-3.045395,0.008832,0.193981,-0.067805,0.164569,-0.984407,-0.062125,-0.038013,0.019121,-0.206903,5.415215,-45.857941,12.120407,,,,,,,
1558973692.468056,1.226779,1.392388,-3.058523,0.122910,0.228198,-0.111159,0.167065,-0.984127,-0.059853,-0.035702,0.002194,-0.180228,5.447022,-45.843040,12.162460,,,,,,,
1558973692.488039,1.248304,1.393138,-3.072991,0.109532,0.452630,0.073546,0.167615,-0.984260,-0.056010,-0.020077,-0.017495,-0.150869,9.348365,-46.178520,13.089078,,,,,,,
1558973692.508005,1.252914,1.396174,-3.066745,-0.073341,0.568968,0.183413,0.165032,-0.984792,-0.054302,-0.040566,0.015264,-0.133274,9.168827,-46.181999,13.203289,,,,,,,
1558973692.528008,1.247001,1.398373,-3.048991,-0.103015,0.582780,0.125868,0.162654,-0.985172,-0.054588,-0.037258,0.010364,-0.131447,8.932111,-46.220234,13.231742,,,,,,,
1558973692.547992,1.249137,1.400147,-3.039083,-0.032663,0.610945,0.122991,0.161112,-0.985475,-0.053688,-0.022105,-0.009307,-0.123024,8.525123,-46.287258,13.265885,,,,,,,
1558973692.567972,1.182074,1.402021,-2.959665,-0.110366,0.688728,0.267808,0.155444,-0.985791,-0.063664,-0.026232,0.011105,-0.123027,8.118260,-46.485268,12.821283,,,,,,,
1558973692.587962,1.168791,1.406274,-2.931433,-0.120887,0.733175,0.260882,0.150724,-0.986497,-0.064082,-0.067182,0.036561,-0.127904,7.780854,-46.544456,12.815740,,,,,,,
1558973692.607946,1.154947,1.408353,-2.903599,0.015586,0.699354,0.035396,0.147947,-0.986835,-0.065334,-0.057065,0.022754,-0.108143,7.315098,-46.611561,12.846143,,,,,,,
1558973692.627908,1.176712,1.408963,-2.911928,0.082616,0.681005,0.017124,0.148777,-0.986934,-0.061867,-0.042225,0.030787,-0.099601,7.084199,-46.638077,12.879258,,,,,,,
1558973692.647914,1.192761,1.410666,-2.914041,0.026198,0.716298,0.094287,0.148188,-0.987207,-0.058851,-0.045207,0.035470,-0.088106,6.982106,-46.630341,12.962757,,,,,,,
1558973692.667900,1.198332,1.412349,-2.904895,-0.007703,0.758731,0.077585,0.146966,-0.987473,-0.057420,-0.046090,0.045289,-0.074630,6.581436,-46.639732,13.137427,,,,,,,
1558973692.687883,1.214408,1.414239,-2.904331,0.061802,0.873644,0.120379,0.146121,-0.987770,-0.054399,-0.029544,0.065575,-0.053756,6.357972,-46.658096,13.182172,,,,,,,
1558973692.707866,1.234653,1.418712,-2.907056,0.103025,0.840842,0.242877,0.143020,-0.988458,-0.049972,0.000489,0.054284,-0.040498,6.099132,-46.657387,13.306411,,,,,,,
1558973692.727825,1.254157,1.423148,-2.913335,0.141639,0.551897,0.123769,0.139799,-0.989120,-0.045807,-0.031080,0.054107,-0.024445,5.475051,-46.653679,13.587852,,,,,,,
1558973692.747818,1.289439,1.423734,-2.939826,0.217143,0.428558,-0.097287,0.140771,-0.989206,-0.040686,-0.104211,0.075052,-0.026056,5.318160,-46.608379,13.803904,,,,,,,
1558973692.767819,1.331967,1.423226,-2.972915,0.229174,0.546947,-0.052371,0.142861,-0.989131,-0.034783,-0.107385,0.082713,-0.034446,5.318160,-46.608379,13.803904,,,,,,,
1558973692.787798,1.372079,1.424474,-3.000393,0.195397,0.680459,0.049239,0.142932,-0.989314,-0.028783,-0.064364,0.067119,-0.001231,5.217903,-46.501503,14.197021,,,,,,,
1558973692.807760,1.403379,1.425611,-3.018711,0.096284,0.625952,0.007000,0.142652,-0.989479,-0.024108,-0.059294,0.098015,-0.008698,4.881394,-46.428703,14.550570,,,,,,,
1558973692.827760,1.417155,1.425643,-3.020741,-0.022060,0.570556,0.009577,0.142940,-0.989484,-0.022136,-0.050976,0.096265,-0.004079,4.881394,-46.428703,14.550570,,,,,,,
1558973692.847737,1.421698,1.425791,-3.014180,-0.056252,0.534807,0.016681,0.142895,-0.989505,-0.021465,-0.047008,0.114520,0.020442,4.618346,-46.420422,14.662421,,,,,,,
1558973692.867716,1.418498,1.425801,-3.000301,-0.122152,0.560508,0.007266,0.142816,-0.989507,-0.021920,-0.081811,0.134312,0.020715,4.361619,-46.453518,14.636213,,,,,,,
1558973692.887697,1.413175,1.426512,-2.981219,-0.141937,0.744696,0.117913,0.142001,-0.989609,-0.022570,-0.066470,0.100296,0.006670,4.361619,-46.453518,14.636213,,,,,,,
1558973692.907708,1.394772,1.430737,-2.946970,-0.225139,0.780301,0.310363,0.137445,-0.990208,-0.024447,0.008994,0.239674,-0.042036,3.972491,-46.521225,14.531573,,,,,,,
1558973692.927694,1.388002,1.435220,-2.926049,0.035356,0.607433,0.133823,0.132910,-0.990824,-0.024569,-0.047262,0.191049,0.028323,3.257107,-46.629963,14.359991,,,,,,,
1558973692.947677,1.450988,1.433468,-2.981015,0.518437,0.367535,-0.262048,0.135915,-0.990585,-0.016362,-0.073019,0.128494,0.053914,3.257107,-46.629963,14.359991,,,,,,,
1558973692.967663,1.530893,1.431798,-3.051364,0.341161,0.658547,0.047010,0.138441,-0.990355,-0.005527,-0.109754,0.155288,0.049091,3.221596,-46.471382,14.872912,,,,,,,
1558973692.987647,1.541398,1.439845,-3.044024,-0.229162,0.974153,0.578059,0.130521,-0.991438,-0.003838,-0.074872,0.235411,0.009484,2.898059,-46.358810,15.285077,,,,,,,
1558973693.007631,1.521596,1.450742,-3.004530,-0.125756,0.958611,0.443470,0.119621,-0.992802,-0.005890,-0.107292,0.193379,0.067734,2.072567,-46.456295,15.122461,,,,,,,
1558973693.027616,1.567191,1.455406,-3.033125,0.337167,0.786622,0.151794,0.115134,-0.993350,-0.000415,-0.073645,0.203860,0.117267,1.319690,-46.470230,15.164027,,,,,,,
1558973693.047599,1.648086,1.458337,-3.100527,0.338801,0.654547,0.192169,0.111888,-0.993683,0.008665,-0.032024,0.302292,0.154650,1.224704,-46.445583,15.247284,,,,,,,
1558973693.067584,1.706277,1.462873,3.136923,0.165166,0.652404,0.269948,0.106727,-0.994182,0.014549,-0.083838,0.256114,0.182900,0.652376,-46.292217,15.740932,,,,,,,
1558973693.087569,1.748482,1.468882,3.109168,0.048323,0.777906,0.377820,0.100136,-0.994811,0.017982,-0.097252,0.257857,0.181725,0.427173,-46.264671,15.829376,,,,,,,
1558973693.107523,1.776094,1.479441,3.098247,-0.098744,0.839294,0.623849,0.089312,-0.995830,0.018598,0.003782,0.347316,0.154986,-0.644115,-46.239971,15.894078,,,,,,,
1558973693.127537,1.803362,1.491622,3.084618,-0.012238,0.556471,0.525123,0.076962,-0.996867,0.018228,0.023472,0.354152,0.156225,-1.069333,-46.251167,15.838487,,,,,,,
1558973693.147521,1.893675,1.495670,3.001845,0.433571,0.329509,0.167781,0.071178,-0.997179,0.023815,-0.059566,0.335177,0.256794,-1.952294,-46.200382,15.902359,,,,,,,
1558973693.167490,2.059168,1.495382,2.843536,0.514658,0.467817,0.346399,0.066534,-0.997158,0.035350,-0.006354,0.253124,0.281743,-2.142308,-46.071014,16.249414,,,,,,,
1558973693.187489,2.229292,1.506938,2.684980,-0.103181,0.656032,1.050218,0.050473,-0.997962,0.039051,0.047977,0.273032,0.238537,-2.712802,-45.907063,16.623886,,,,,,,
1558973693.207468,2.514908,1.528237,2.410551,-0.207255,0.505748,1.266495,0.024952,-0.999094,0.034461,0.105694,0.316599,0.165627,-4.273567,-45.876591,16.378229,,,,,,,
1558973693.227458,3.020108,1.532364,1.910713,0.457566,0.159129,0.828110,0.004656,-0.999262,0.038140,-0.010607,0.127710,0.243186,-5.417565,-45.764053,16.354597,,,,,,,
1558973693.247423,-2.965718,1.516236,1.614039,0.862885,0.032105,0.716183,-0.009542,-0.998512,0.053692,-0.020350,0.073448,0.289539,-5.796280,-45.630230,16.596897,,,,,,,
1558973693.267406,-2.768308,1.498236,1.416661,0.542123,0.010815,0.903629,-0.026438,-0.997369,0.067504,-0.081030,-0.036277,0.409333,-6.848425,-45.082447,17.659092,,,,,,,
1558973693.287410,-2.601279,1.483958,1.250333,0.274162,0.115866,0.940719,-0.044614,-0.996232,0.074374,-0.072726,-0.107482,0.391065,-7.668088,-44.804424,18.025965,,,,,,,
1558973693.307369,-2.445092,1.466097,1.097888,0.349809,0.260683,1.212281,-0.067046,-0.994524,0.080167,-0.045030,-0.119642,0.394091,-8.128029,-44.678867,18.135756,,,,,,,
1558973693.327379,-2.325342,1.442717,0.980847,0.363901,0.063107,1.319301,-0.093061,-0.991809,0.087489,0.067472,-0.189755,0.425298,-9.873264,-44.156506,18.544352,,,,,,,
1558973693.347363,-2.235136,1.420897,0.886845,0.120377,-0.245510,1.190169,-0.117578,-0.988786,0.092073,0.005914,-0.189940,0.434202,-10.976482,-43.785515,18.802053,,,,,,,
1558973693.367342,-2.159339,1.401656,0.804942,0.002286,-0.227987,1.183837,-0.140013,-0.985730,0.093451,-0.094210,-0.160617,0.444315,-11.665712,-43.565025,18.898975,,,,,,,
1558973693.387317,-2.082831,1.379689,0.723492,-0.080947,-0.191290,1.399786,-0.165586,-0.981794,0.093065,0.057721,-0.220323,0.337874,-12.915653,-43.191803,18.942690,,,,,,,
1558973693.407315,-2.016318,1.355759,0.648255,-0.135181,-0.501779,1.391432,-0.192555,-0.976968,0.091953,0.096562,-0.246405,0.301281,-13.759407,-42.937778,18.926117,,,,,,,
1558973693.427278,-1.975793,1.332892,0.590779,-0.110760,-0.912250,1.242323,-0.216602,-0.971834,0.092856,0.031070,-0.240767,0.311563,-14.508095,-42.680706,18.948454,,,,,,,
1558973693.447254,-1.949391,1.312249,0.543537,-0.182143,-0.968017,1.161658,-0.237570,-0.966763,0.094502,-0.181589,-0.196049,0.373150,-15.565008,-42.192757,19.200880,,,,,,,
1558973693.467268,-1.917603,1.293191,0.490112,-0.432402,-1.022798,1.111822,-0.257737,-0.961714,0.093150,-0.153121,-0.194047,0.349386,-16.018925,-41.984646,19.283539,,,,,,,
1558973693.487230,-1.875302,1.277046,0.421740,-0.766378,-1.284307,1.066345,-0.276223,-0.957165,0.086811,0.030877,-0.258289,0.183651,-16.421011,-41.840130,19.259418,,,,,,,
1558973693.507238,-1.840701,1.260453,0.354265,-0.639674,-1.590423,1.083802,-0.294329,-0.952229,0.081428,-0.026868,-0.397106,0.178490,-17.003214,-41.719326,19.014738,,,,,,,
1558973693.527221,-1.830337,1.244072,0.309733,-0.390196,-1.567734,0.874960,-0.310193,-0.947099,0.082366,-0.119143,-0.414916,0.216722,-17.246082,-41.566944,19.129381,,,,,,,
1558973693.547198,-1.825731,1.232933,0.270947,-0.550692,-1.616970,0.606380,-0.320759,-0.943465,0.083591,-0.164730,-0.367799,0.178265,-17.290056,-41.477142,19.283983,,,,,,,
1558973693.567190,-1.814181,1.225347,0.225588,-0.669589,-1.537132,0.564343,-0.328639,-0.940924,0.081603,-0.090672,-0.477564,0.103699,-17.129253,-41.510262,19.356092,,,,,,,
1558973693.587173,-1.803596,1.217098,0.180698,-0.632587,-1.607065,0.580786,-0.337026,-0.938098,0.079908,-0.025050,-0.523847,0.052233,-17.004911,-41.568047,19.341722,,,,,,,
1558973693.607158,-1.800318,1.210032,0.140843,-0.576419,-1.748173,0.420515,-0.343733,-0.935627,0.080309,-0.109575,-0.582622,0.072355,-16.877232,-41.604954,19.374170,,,,,,,
1558973693.627142,-1.801866,1.208245,0.105513,-0.621470,-1.665937,0.120189,-0.345234,-0.934995,0.081224,-0.231975,-0.600939,0.062468,-16.384407,-41.744305,19.497066,,,,,,,
1558973693.647108,-1.792655,1.210335,0.063202,-0.829267,-1.432376,0.071011,-0.344061,-0.935734,0.077610,-0.212183,-0.628414,-0.007557,-15.968946,-41.920364,19.464005,,,,,,,
1558973693.667111,-1.768218,1.212461,0.009360,-1.026690,-1.250564,0.088608,-0.343903,-0.936482,0.068790,-0.197280,-0.656703,-0.018955,-15.598562,-42.143867,19.280846,,,,,,,
1558973693.687095,-1.732933,1.218024,-0.056302,-1.266153,-1.376603,-0.218137,-0.340969,-0.938419,0.055773,-0.266361,-0.520428,-0.112109,-14.918036,-42.726936,18.521145,,,,,,,
1558973693.707072,-1.691757,1.232160,-0.129836,-1.330368,-1.368497,-0.679335,-0.329774,-0.943208,0.040085,-0.399733,-0.393049,-0.210144,-14.309784,-43.161068,17.986763,,,,,,,
1558973693.727065,-1.651187,1.250571,-0.198137,-1.084351,-1.085707,-0.849390,-0.313764,-0.949164,0.025278,-0.413134,-0.367959,-0.224878,-13.511618,-43.652187,17.409603,,,,,,,
1558973693.747048,-1.617630,1.270205,-0.252190,-0.775615,-0.823311,-1.006779,-0.295760,-0.955162,0.013862,-0.339066,-0.307290,-0.275321,-11.840930,-44.508415,16.430609,,,,,,,
1558973693.767009,-1.595918,1.295608,-0.294984,-0.606655,-1.098572,-1.414984,-0.271642,-0.962374,0.006825,-0.243464,-0.273008,-0.280675,-10.897482,-44.869972,16.096642,,,,,,,
1558973693.787018,-1.580811,1.328011,-0.334934,-0.479726,-1.136612,-1.668279,-0.240395,-0.970672,0.002408,-0.262229,-0.195923,-0.272458,-9.682449,-45.233318,15.854621,,,,,,,
1558973693.807002,-1.570891,1.358548,-0.362678,-0.234755,-0.652346,-1.409348,-0.210658,-0.977560,0.000020,-0.296056,-0.177286,-0.235051,-6.997905,-45.839592,15.522011,,,,,,,
1558973693.826986,-1.555619,1.382096,-0.384539,-0.250567,-0.116878,-1.048709,-0.187561,-0.982249,-0.002847,-0.185440,-0.044423,-0.299842,-5.695089,-46.063980,15.389848,,,,,,,
1558973693.846970,-1.503449,1.401932,-0.439560,-0.577462,-0.159597,-1.077138,-0.167682,-0.985776,-0.011310,-0.162091,0.007062,-0.313183,-4.982058,-46.218552,15.172211,,,,,,,
1558973693.866926,-1.406690,1.424655,-0.542663,-0.663788,-0.270389,-1.251227,-0.143665,-0.989340,-0.023790,-0.175350,0.098090,-0.322523,-3.581766,-46.570271,14.475940,,,,,,,
1558973693.886911,-1.305104,1.445484,-0.647879,-0.334227,-0.019307,-1.124712,-0.120599,-0.992159,-0.032818,-0.180533,0.098390,-0.313236,-2.681383,-46.755424,14.068111,,,,,,,
1558973693.906921,-1.219996,1.465726,-0.728295,-0.050809,0.405246,-1.079851,-0.098490,-0.994485,-0.036041,-0.222143,0.136041,-0.327637,-1.640514,-46.884762,13.794892,,,,,,,
1558973693.926898,-1.112126,1.484295,-0.830289,-0.154802,0.183829,-1.073513,-0.077465,-0.996261,-0.038252,-0.043919,0.084945,-0.272463,-0.524913,-46.935093,13.711058,,,,,,,
1558973693.946891,-0.879699,1.499555,-1.062388,-0.458629,0.027866,-1.116887,-0.054848,-0.997463,-0.045370,-0.096259,0.147106,-0.267237,0.236468,-46.985947,13.543853,,,,,,,
1558973693.966860,-0.560295,1.505886,-1.379670,-0.430474,0.239336,-0.971776,-0.034471,-0.997894,-0.054947,-0.229475,0.152679,-0.260834,1.012564,-47.065907,13.226748,,,,,,,
1558973693.986835,-0.243190,1.508539,-1.688332,-0.156840,0.599454,-0.932878,-0.014982,-0.998063,-0.060387,-0.281466,0.209443,-0.229133,2.280598,-47.165997,12.701941,,,,,,,
1558973694.006845,0.069904,1.507971,-1.988004,-0.147861,0.733625,-0.947601,0.004385,-0.998027,-0.062631,-0.136130,0.161418,-0.200446,2.982859,-47.145451,12.632498,,,,,,,
1558973694.026826,0.335941,1.497188,-2.240850,-0.480370,0.623356,-0.929705,0.024244,-0.997292,-0.069431,-0.136732,0.231865,-0.190227,3.339594,-47.138481,12.569116,,,,,,,
1558973694.046796,0.492229,1.480107,-2.386208,-0.493366,0.576985,-0.883183,0.042800,-0.995890,-0.079813,-0.140075,0.373347,-0.183706,4.409978,-47.206703,11.968733,,,,,,,
1558973694.066797,0.638306,1.467268,-2.519417,-0.012724,0.763718,-0.846846,0.061576,-0.994646,-0.082996,-0.111197,0.280580,-0.091840,5.108050,-47.196091,11.730664,,,,,,,
1558973694.086762,0.744216,1.460536,-2.606213,-0.032550,1.098534,-0.379231,0.074539,-0.993927,-0.080945,-0.035400,0.298447,-0.022967,5.486492,-47.129734,11.826180,,,,,,,
1558973694.106766,0.738996,1.453594,-2.577352,-0.583202,1.179162,0.005453,0.078760,-0.993140,-0.086431,0.052831,0.383810,-0.020899,5.470784,-47.144108,11.776039,,,,,,,
1558973694.126750,0.681809,1.442860,-2.497415,-0.706023,1.038110,-0.033364,0.080405,-0.991827,-0.099063,0.035638,0.450659,-0.047848,5.178751,-47.307182,11.241989,,,,,,,
1558973694.146734,0.689714,1.434707,-2.486972,-0.095319,0.826285,-0.291137,0.086329,-0.990754,-0.104660,0.105764,0.465836,-0.010010,5.088545,-47.396751,10.900745,,,,,,,
1558973694.166718,0.757614,1.434595,-2.542653,0.360257,0.510005,-0.259635,0.093307,-0.990739,-0.098641,0.140168,0.324784,0.058587,5.220914,-47.346432,11.055723,,,,,,,
1558973694.186702,0.812354,1.434817,-2.590208,0.103050,0.334925,-0.199594,0.098405,-0.990769,-0.093237,0.072906,0.373536,0.066046,5.348281,-47.254215,11.384495,,,,,,,
1558973694.206686,0.837529,1.432034,-2.608987,0.034902,0.334245,-0.186843,0.102768,-0.990388,-0.092576,0.077194,0.354051,0.135193,5.428911,-47.233368,11.432732,,,,,,,
1558973694.226672,0.890145,1.433754,-2.655692,0.450938,0.313139,-0.115180,0.106171,-0.990624,-0.085971,0.041198,0.198098,0.217471,5.532573,-47.166573,11.656612,,,,,,,
1558973694.246654,0.958945,1.437980,-2.719421,0.404899,0.244715,-0.088113,0.108402,-0.991193,-0.076064,0.061565,0.156354,0.263976,5.552012,-47.041466,12.142803,,,,,,,
1558973694.266639,0.998491,1.438182,-2.756803,0.111608,0.047448,-0.148956,0.111156,-0.991220,-0.071610,0.096241,0.151254,0.273605,5.569917,-46.991566,12.326420,,,,,,,
1558973694.286623,1.021402,1.436031,-2.779578,0.087134,0.036963,-0.177903,0.114586,-0.990933,-0.070158,-0.005303,0.122296,0.280928,5.766472,-46.920826,12.504210,,,,,,,
1558973694.306590,1.050119,1.435209,-2.806102,0.140665,0.174236,-0.081526,0.117260,-0.990822,-0.067244,-0.030071,0.068642,0.266493,5.885714,-46.873276,12.626401,,,,,,,
1558973694.326592,1.061978,1.435521,-2.813436,-0.027404,0.253478,0.011984,0.117779,-0.990864,-0.065698,-0.028835,0.045338,0.249338,5.891785,-46.853203,12.697866,,,,,,,
1558973694.346546,1.048350,1.433684,-2.795158,-0.207424,0.187738,-0.050714,0.118450,-0.990615,-0.068205,0.009770,0.066893,0.167479,5.806300,-46.872871,12.664610,,,,,,,
1558973694.366560,1.036263,1.430292,-2.781011,-0.121602,0.036037,-0.116156,0.120508,-0.990145,-0.071343,0.049994,0.043231,0.128167,5.848279,-46.911648,12.500670,,,,,,,
1558973694.386545,1.042188,1.427711,-2.787656,0.021800,-0.066223,-0.138373,0.123134,-0.989781,-0.071917,0.049351,0.028752,0.118074,5.935473,-46.915474,12.445086,,,,,,,
1558973694.406529,1.162543,1.425546,-2.908429,-0.027377,-0.079493,0.003437,0.132844,-0.989470,-0.057463,0.048949,0.018767,0.085630,6.449506,-46.657902,13.138326,,,,,,,
1558973694.426495,1.146932,1.425905,-2.894255,-0.104148,-0.089567,0.066270,0.131608,-0.989522,-0.059384,0.039336,0.014439,0.008282,6.430344,-46.680954,13.065619,,,,,,,
1558973694.446498,1.133327,1.426374,-2.883184,-0.024531,-0.161880,0.053897,0.130367,-0.989589,-0.060972,0.029057,0.017238,-0.009204,6.409182,-46.704662,12.991102,,,,,,,
1558973694.466482,1.132174,1.427187,-2.885679,0.049993,-0.179251,0.008949,0.129568,-0.989706,-0.060780,-0.014227,-0.017512,-0.010448,6.404377,-46.714298,12.958776,,,,,,,
1558973694.486459,1.133708,1.427160,-2.889934,0.003414,-0.114574,-0.021431,0.129686,-0.989702,-0.060593,-0.025437,-0.018309,-0.000458,6.459313,-46.700344,12.981779,,,,,,,
1558973694.506433,1.129514,1.426555,-2.887659,-0.038069,-0.104843,-0.021371,0.129972,-0.989615,-0.061392,-0.002928,-0.012811,-0.015115,6.482857,-46.699589,12.972765,,,,,,,
