timestamp(unix),attitude_roll(radians),attitude_pitch(radians),attitude_yaw(radians),rotation_rate_x(radians/s),rotation_rate_y(radians/s),rotation_rate_z(radians/s),gravity_x(G),gravity_y(G),gravity_z(G),user_acc_x(G),user_acc_y(G),user_acc_z(G),magnetic_field_x(microteslas),magnetic_field_y(microteslas),magnetic_field_z(microteslas),latitude(degree),longitude(degree),altitude(meter),speed(m/s),course(degree),timestamp(unix),User Mark
1558974012.718268,-0.298580,1.169513,-1.295742,-0.009293,0.033413,0.035363,-0.114900,-0.920560,-0.373318,-0.006865,0.008131,-0.002796,-8.976551,-44.630486,-0.096014,,,,,,,
1558974012.738276,-0.300420,1.169318,-1.292817,0.024773,0.047016,0.063279,-0.115640,-0.920484,-0.373277,-0.000968,0.006971,-0.001173,-9.014292,-44.622852,-0.107780,,,,,,,
1558974012.758261,-0.302391,1.169523,-1.289480,0.031253,0.063856,0.037822,-0.116319,-0.920564,-0.372869,-0.000884,-0.000990,-0.008311,-9.088095,-44.607910,-0.094432,,,,,,,
1558974012.778229,-0.301410,1.169442,-1.289081,0.002577,0.065002,-0.003828,-0.115976,-0.920533,-0.373054,0.001062,-0.003341,-0.004280,-9.105440,-44.604366,-0.096717,,,,,,,
1558974012.798233,-0.299881,1.170035,-1.289672,0.020619,0.038449,-0.025421,-0.115244,-0.920764,-0.372709,0.000422,-0.007214,0.010237,-9.097996,-44.605862,-0.107893,,,,,,,
1558974012.818218,-0.298095,1.171492,-1.291022,0.053634,0.028716,-0.056450,-0.114184,-0.921332,-0.371632,-0.000699,-0.002466,0.017079,-9.057312,-44.614243,-0.051148,,,,,,,
1558974012.838204,-0.296169,1.173056,-1.292546,0.037664,0.031985,-0.046823,-0.113047,-0.921939,-0.370472,-0.002813,-0.012082,-0.000805,-9.008379,-44.624176,0.002136,,,,,,,
1558974012.858162,-0.294923,1.173638,-1.292885,-0.016619,0.063019,0.017490,-0.112430,-0.922164,-0.370099,-0.001752,-0.029206,0.006910,-8.990762,-44.627724,0.017742,,,,,,,
1558974012.878156,-0.294765,1.173141,-1.291551,-0.076197,0.073906,0.020749,-0.112504,-0.921971,-0.370556,-0.002333,-0.008662,0.000973,-9.008524,-44.624146,0.017585,,,,,,,
1558974012.898159,-0.292963,1.171693,-1.292321,-0.106026,0.056059,-0.001866,-0.112222,-0.921410,-0.372035,-0.002265,-0.009300,0.009578,-9.019741,-44.621838,-0.060951,,,,,,,
1558974012.918135,-0.290804,1.169951,-1.293534,-0.093293,0.046488,0.004458,-0.111878,-0.920731,-0.373814,-0.003158,-0.005874,0.007725,-9.019657,-44.621780,-0.100028,,,,,,,
1558974012.938123,-0.290029,1.168602,-1.293551,-0.074111,0.052729,0.004534,-0.111944,-0.920204,-0.375090,-0.002589,0.002480,0.003829,-9.035508,-44.618187,-0.212202,,,,,,,
1558974012.958116,-0.286930,1.167156,-1.295472,-0.059077,0.071606,-0.042249,-0.111157,-0.919637,-0.376712,-0.005054,0.005743,-0.005979,-9.029346,-44.619011,-0.287551,,,,,,,
1558974012.978071,-0.283212,1.166199,-1.298095,-0.047405,0.065219,-0.031624,-0.110002,-0.919261,-0.377967,-0.004943,0.004954,-0.005715,-9.014489,-44.621738,-0.327324,,,,,,,
1558974012.998060,-0.282052,1.164610,-1.298359,-0.034801,0.037746,0.019371,-0.109970,-0.918634,-0.379497,-0.004029,0.022882,-0.002690,-8.996726,-44.624413,-0.434581,,,,,,,
1558974013.018071,-0.283404,1.164073,-1.296421,0.005576,0.022759,0.035275,-0.110620,-0.918422,-0.379821,0.001291,0.020900,0.013107,-9.037558,-44.615723,-0.477190,,,,,,,
1558974013.038051,-0.282954,1.165050,-1.295843,0.053734,0.071032,-0.029351,-0.110199,-0.918808,-0.379009,0.001282,0.014298,0.015102,-9.051802,-44.612923,-0.468893,,,,,,,
1558974013.058025,-0.280386,1.166092,-1.296997,0.039921,0.071078,-0.046443,-0.108960,-0.919219,-0.378371,-0.005191,0.003554,-0.004472,-9.016397,-44.620655,-0.412107,,,,,,,
1558974013.078029,-0.278678,1.166262,-1.298064,-0.007136,0.017460,-0.018167,-0.108271,-0.919286,-0.378406,-0.002538,0.003072,-0.002103,-8.991858,-44.625622,-0.410462,,,,,,,
1558974013.097987,-0.277765,1.165308,-1.299292,-0.060532,-0.026628,-0.000482,-0.108166,-0.918910,-0.379348,-0.001041,-0.003118,-0.004045,-8.983389,-44.627083,-0.435742,,,,,,,
1558974013.117993,-0.279593,1.163466,-1.298243,-0.100023,-0.034799,0.051724,-0.109326,-0.918182,-0.380776,-0.005146,-0.001557,0.005761,-9.005867,-44.621746,-0.511873,,,,,,,
1558974013.137959,-0.283322,1.161670,-1.294626,-0.095668,0.009621,0.085250,-0.111206,-0.917469,-0.381948,-0.010651,-0.007824,0.017873,-9.059675,-44.610325,-0.556101,,,,,,,
1558974013.157970,-0.285915,1.160369,-1.290900,-0.041088,0.079035,0.044321,-0.112533,-0.916951,-0.382803,-0.015092,-0.001583,0.022665,-9.125834,-44.596230,-0.602645,,,,,,,
1558974013.177955,-0.285837,1.161595,-1.289324,0.091089,0.108913,-0.009737,-0.112185,-0.917439,-0.381733,-0.002271,0.020924,0.035344,-9.194347,-44.581898,-0.621532,,,,,,,
1558974013.197911,-0.284914,1.165947,-1.286204,0.197623,0.134780,-0.008336,-0.110710,-0.919162,-0.378001,-0.004509,-0.017529,0.022608,-9.194483,-44.583916,-0.451624,,,,,,,
1558974013.217927,-0.285401,1.168090,-1.283888,0.069526,0.041428,0.024832,-0.110339,-0.920004,-0.376057,-0.000638,-0.003824,-0.027737,-9.192109,-44.585091,-0.378007,,,,,,,
1558974013.237907,-0.286207,1.166795,-1.283158,-0.114848,-0.023133,0.028337,-0.110979,-0.919495,-0.377110,0.000703,-0.004836,-0.054210,-9.211136,-44.581585,-0.324504,,,,,,,
1558974013.257880,-0.286306,1.164549,-1.283462,-0.081823,-0.014849,0.029511,-0.111599,-0.918610,-0.379079,-0.004780,0.002030,0.008275,-9.249056,-44.572613,-0.452876,,,,,,,
1558974013.277883,-0.287471,1.164011,-1.281898,0.015203,0.035385,0.034340,-0.112180,-0.918397,-0.379423,-0.005709,0.008974,0.016630,-9.263222,-44.569370,-0.481829,,,,,,,
1558974013.297869,-0.288822,1.164464,-1.279395,0.053630,0.060528,0.018597,-0.112575,-0.918577,-0.378872,-0.004308,0.019712,-0.004062,-9.320862,-44.557434,-0.474196,,,,,,,
1558974013.317845,-0.289187,1.165455,-1.277940,0.057835,0.041469,0.012012,-0.112453,-0.918968,-0.377958,-0.002400,0.015113,-0.011614,-9.331440,-44.555511,-0.445786,,,,,,,
1558974013.337839,-0.289555,1.166245,-1.276749,0.058883,0.034055,0.005536,-0.112385,-0.919279,-0.377221,-0.001537,0.007734,-0.007026,-9.340592,-44.553997,-0.403254,,,,,,,
1558974013.357826,-0.289249,1.167075,-1.276380,0.029082,0.027845,-0.010562,-0.112052,-0.919605,-0.376524,-0.002801,0.014027,-0.010515,-9.343876,-44.553631,-0.365553,,,,,,,
1558974013.377790,-0.288615,1.166991,-1.276730,0.002361,0.001581,0.003045,-0.111835,-0.919573,-0.376669,-0.001019,-0.011717,-0.008616,-9.336326,-44.555222,-0.364487,,,,,,,
1558974013.397795,-0.289857,1.166491,-1.275486,-0.034966,0.000786,0.047849,-0.112434,-0.919376,-0.376970,-0.001824,-0.010678,-0.001677,-9.344300,-44.553490,-0.372377,,,,,,,
1558974013.417768,-0.293198,1.165111,-1.271979,-0.029686,0.000799,0.075613,-0.114059,-0.918832,-0.377807,-0.001038,0.022149,0.003997,-9.381285,-44.545570,-0.389152,,,,,,,
1558974013.437748,-0.294421,1.164589,-1.270332,0.006707,0.027979,0.001167,-0.114661,-0.918626,-0.378126,-0.000177,0.008744,0.005750,-9.473303,-44.525597,-0.442199,,,,,,,
1558974013.457729,-0.292943,1.165559,-1.271206,0.052560,0.035082,-0.036096,-0.113844,-0.919009,-0.377442,-0.000353,0.000567,0.002778,-9.473303,-44.525597,-0.442199,,,,,,,
1558974013.477735,-0.291730,1.166579,-1.271751,0.047178,0.025624,-0.018041,-0.113117,-0.919410,-0.376682,0.000293,0.002601,-0.006390,-9.439014,-44.533333,-0.394154,,,,,,,
1558974013.497723,-0.290531,1.166762,-1.272939,0.008693,-0.019611,-0.008897,-0.112617,-0.919483,-0.376655,0.006049,0.002597,-0.005928,-9.410161,-44.539650,-0.369401,,,,,,,
1558974013.517696,-0.289776,1.166875,-1.274237,0.000196,-0.025949,-0.035656,-0.112303,-0.919527,-0.376641,0.006025,0.005235,0.001199,-9.410161,-44.539650,-0.369401,,,,,,,
1558974013.537667,-0.287177,1.166955,-1.277672,-0.006172,-0.035479,-0.069918,-0.111302,-0.919558,-0.376861,-0.000682,0.001742,-0.002076,-9.367346,-44.548634,-0.373989,,,,,,,
1558974013.557679,-0.286199,1.168410,-1.279640,0.023722,-0.009210,-0.068574,-0.110556,-0.920129,-0.375686,-0.004770,0.004861,0.044570,-9.280311,-44.566891,-0.368159,,,,,,,
1558974013.577663,-0.284283,1.171251,-1.281583,0.116451,0.017756,-0.087459,-0.109102,-0.921238,-0.373386,-0.006224,-0.001308,0.024692,-9.253508,-44.572933,-0.306863,,,,,,,
1558974013.597650,-0.283557,1.172157,-1.282655,0.045959,-0.028302,-0.033504,-0.108598,-0.921590,-0.372664,-0.009749,-0.003047,-0.027284,-9.171839,-44.590569,-0.161604,,,,,,,
1558974013.617635,-0.284375,1.171534,-1.282702,-0.043568,-0.041508,0.010071,-0.109064,-0.921348,-0.373126,-0.006964,-0.004357,-0.016737,-9.171501,-44.590614,-0.170343,,,,,,,
1558974013.637620,-0.284007,1.170551,-1.283654,-0.042369,-0.009859,-0.024862,-0.109180,-0.920965,-0.374035,-0.005475,-0.004892,-0.004474,-9.181702,-44.588383,-0.201813,,,,,,,
1558974013.657607,-0.282753,1.170966,-1.284708,0.011037,0.042703,-0.029655,-0.108604,-0.921127,-0.373805,-0.000694,-0.005936,0.011164,-9.160477,-44.592571,-0.237760,,,,,,,
1558974013.677592,-0.279995,1.171817,-1.286920,0.031207,0.015079,-0.053392,-0.107356,-0.921458,-0.373349,0.015147,0.007609,0.003491,-9.132206,-44.598507,-0.210551,,,,,,,
1558974013.697576,-0.276704,1.172622,-1.290968,0.017197,-0.050425,-0.082858,-0.105924,-0.921770,-0.372987,0.009138,0.012713,-0.000304,-9.091275,-44.606918,-0.198545,,,,,,,
1558974013.717562,-0.275938,1.174173,-1.293308,0.038438,-0.057912,-0.065830,-0.105249,-0.922371,-0.371692,-0.006568,-0.006829,0.016071,-8.980600,-44.629528,-0.148024,,,,,,,
1558974013.737523,-0.274967,1.175655,-1.295356,0.045983,-0.031532,-0.069841,-0.104517,-0.922942,-0.370478,-0.009421,-0.010743,0.008418,-8.935076,-44.638863,-0.066907,,,,,,,
1558974013.757516,-0.273681,1.176506,-1.297436,0.010843,-0.027093,-0.051676,-0.103828,-0.923269,-0.369856,-0.010872,-0.009470,0.000578,-8.904425,-44.645012,-0.045721,,,,,,,
1558974013.777506,-0.273360,1.176371,-1.298415,-0.032794,-0.016266,-0.032388,-0.103743,-0.923218,-0.370009,-0.012331,-0.007126,-0.000017,-8.856432,-44.654579,-0.024804,,,,,,,
1558974013.797490,-0.272978,1.175610,-1.299160,-0.050911,-0.009788,-0.004581,-0.103791,-0.922925,-0.370726,-0.012328,-0.003803,0.005232,-8.858217,-44.654198,-0.050427,,,,,,,
1558974013.817470,-0.273198,1.174989,-1.299068,-0.032740,0.011252,-0.007567,-0.104027,-0.922686,-0.371254,-0.011314,-0.004423,0.007866,-8.857368,-44.654335,-0.071280,,,,,,,
1558974013.837469,-0.272729,1.174180,-1.299584,-0.033828,-0.001446,-0.020500,-0.104054,-0.922373,-0.372022,-0.006206,0.007639,-0.002886,-8.864973,-44.652748,-0.110315,,,,,,,
1558974013.857437,-0.271546,1.173522,-1.301116,-0.037051,-0.015187,-0.031311,-0.103776,-0.922119,-0.372729,-0.006301,0.007706,0.001650,-8.856805,-44.654259,-0.149309,,,,,,,
1558974013.877417,-0.270702,1.173221,-1.302545,-0.013666,-0.022700,-0.024958,-0.103536,-0.922003,-0.373084,-0.005000,0.003668,0.003897,-8.842615,-44.657021,-0.163647,,,,,,,
1558974013.897432,-0.269833,1.173298,-1.303789,0.001329,-0.002723,-0.042904,-0.103193,-0.922032,-0.373105,-0.005953,0.012212,0.002500,-8.817696,-44.661911,-0.172669,,,,,,,
1558974013.917416,-0.268077,1.173258,-1.305824,-0.012520,-0.004761,-0.040799,-0.102547,-0.922017,-0.373322,-0.006431,0.007557,-0.003112,-8.783801,-44.668560,-0.179719,,,,,,,
1558974013.937402,-0.267162,1.172912,-1.307319,-0.027539,-0.030017,-0.018632,-0.102290,-0.921883,-0.373723,-0.008077,0.005974,-0.005016,-8.767972,-44.671646,-0.185909,,,,,,,
1558974013.957387,-0.267719,1.172521,-1.307711,-0.014808,-0.044890,-0.023034,-0.102593,-0.921731,-0.374013,-0.003852,0.011651,0.008291,-8.759218,-44.673267,-0.207598,,,,,,,
1558974013.977356,-0.266693,1.173537,-1.309411,0.007701,-0.015468,-0.060102,-0.101963,-0.922125,-0.373215,0.001362,0.009664,0.012650,-8.725944,-44.679890,-0.182080,,,,,,,
1558974013.997340,-0.263380,1.174387,-1.313239,0.009938,-0.001800,-0.101607,-0.100522,-0.922453,-0.372794,-0.003024,0.011000,0.012137,-8.725944,-44.679890,-0.182080,,,,,,,
1558974014.017317,-0.259245,1.175623,-1.316863,0.051974,0.156530,-0.101124,-0.098687,-0.922930,-0.372104,-0.012611,0.032930,0.019199,-8.619898,-44.700611,-0.144066,,,,,,,
1558974014.037328,-0.255108,1.178674,-1.320175,0.059986,0.021253,-0.058641,-0.096436,-0.924100,-0.369783,0.017258,0.018216,0.038881,-8.503260,-44.723141,-0.055152,,,,,,,
1558974014.057307,-0.251277,1.182330,-1.324059,0.159043,0.000525,-0.142038,-0.094177,-0.925491,-0.366874,0.018768,0.038391,0.048225,-8.503260,-44.723141,-0.055152,,,,,,,
1558974014.077283,-0.242417,1.189011,-1.333476,0.300894,0.019655,-0.281605,-0.089437,-0.928001,-0.361684,0.019170,0.066703,0.053960,-8.205158,-44.777725,0.313623,,,,,,,
1558974014.097286,-0.230054,1.198393,-1.345938,0.464994,0.037709,-0.354969,-0.082970,-0.931455,-0.354269,-0.001869,0.077177,0.043219,-7.923660,-44.825043,0.631914,,,,,,,
1558974014.117244,-0.218346,1.210396,-1.357985,0.570284,0.021340,-0.328350,-0.076389,-0.935756,-0.344276,-0.014507,0.088344,0.024391,-7.764608,-44.849350,0.845324,,,,,,,
1558974014.137257,-0.209370,1.223613,-1.367365,0.634055,0.009436,-0.288910,-0.070719,-0.940335,-0.332820,-0.010199,0.095380,0.025553,-7.467969,-44.887543,1.343709,,,,,,,
1558974014.157217,-0.201752,1.237563,-1.375025,0.672363,0.021973,-0.252459,-0.065546,-0.944990,-0.320466,-0.014273,0.083219,0.023347,-7.084975,-44.915947,2.197471,,,,,,,
1558974014.177222,-0.196721,1.251960,-1.379645,0.694762,0.063168,-0.192259,-0.061268,-0.949601,-0.307416,-0.015194,0.077317,0.022656,-6.975224,-44.917274,2.500499,,,,,,,
1558974014.197213,-0.194776,1.266211,-1.380217,0.704190,0.050544,-0.118704,-0.058044,-0.953971,-0.294227,-0.018921,0.075126,-0.001259,-6.735333,-44.892971,3.424093,,,,,,,
1558974014.217198,-0.201017,1.280181,-1.373627,0.699489,-0.027466,0.005460,-0.057213,-0.958068,-0.280772,-0.018242,0.101912,-0.010884,-6.670943,-44.850121,4.053836,,,,,,,
1558974014.237183,-0.216143,1.293031,-1.360220,0.652067,-0.179343,0.061621,-0.058808,-0.961671,-0.267827,-0.016479,0.115815,-0.018519,-6.670943,-44.850121,4.053836,,,,,,,
1558974014.257169,-0.232776,1.304917,-1.348071,0.592287,-0.256274,0.005319,-0.060613,-0.964862,-0.255671,0.016820,0.055408,0.008661,-6.712627,-44.751282,4.973030,,,,,,,
1558974014.277134,-0.247722,1.314981,-1.337327,0.474187,-0.224956,0.035418,-0.062043,-0.967457,-0.245310,-0.003692,0.031651,-0.000478,-6.691739,-44.655811,5.791965,,,,,,,
1558974014.297140,-0.269895,1.322247,-1.320265,0.366147,-0.325667,0.165688,-0.065591,-0.969270,-0.237093,-0.009727,0.033983,-0.014784,-6.691739,-44.655811,5.791965,,,,,,,
1558974014.317126,-0.302600,1.326614,-1.294749,0.282741,-0.416056,0.217073,-0.072046,-0.970335,-0.230779,-0.008063,0.051955,0.013783,-6.884127,-44.522022,6.547250,,,,,,,
1558974014.337101,-0.331533,1.330484,-1.273172,0.260529,-0.392750,0.173504,-0.077469,-0.971264,-0.225045,-0.007766,0.015301,0.021523,-7.004683,-44.458569,6.843860,,,,,,,
1558974014.357096,-0.359511,1.333909,-1.252161,0.233976,-0.367218,0.189742,-0.082564,-0.972073,-0.219675,-0.011369,0.002011,0.020838,-7.053606,-44.428745,6.985777,,,,,,,
1558974014.377078,-0.395433,1.335897,-1.222966,0.155058,-0.371958,0.278251,-0.089655,-0.972538,-0.214784,-0.023000,-0.030911,0.006715,-7.278260,-44.327515,7.386883,,,,,,,
1558974014.397068,-0.430425,1.334891,-1.194461,0.049615,-0.359679,0.344478,-0.097523,-0.972303,-0.212406,-0.012966,-0.042239,0.009067,-7.496487,-44.265030,7.541742,,,,,,,
1558974014.417052,-0.463950,1.332399,-1.167880,0.020752,-0.405006,0.325871,-0.105671,-0.971718,-0.211183,-0.006923,-0.053795,0.005770,-7.496487,-44.265030,7.541742,,,,,,,
1558974014.437039,-0.495896,1.331144,-1.143208,0.068784,-0.393722,0.265161,-0.112943,-0.971421,-0.208772,0.000318,-0.134994,0.009096,-7.849191,-44.177673,7.693581,,,,,,,
1558974014.457023,-0.522537,1.329666,-1.124368,0.013457,-0.407243,0.218011,-0.119181,-0.971069,-0.206934,0.020059,-0.197861,-0.021444,-8.097388,-44.102535,7.865556,,,,,,,
1558974014.477009,-0.538792,1.326515,-1.115433,-0.134325,-0.388617,0.137997,-0.124098,-0.970311,-0.207595,-0.017260,-0.218196,-0.081056,-8.185280,-44.080883,7.895903,,,,,,,
1558974014.496971,-0.543991,1.322464,-1.118854,-0.217346,-0.428486,0.044664,-0.127209,-0.969324,-0.210308,-0.079075,-0.319540,-0.073780,-8.228001,-44.080154,7.855420,,,,,,,
1558974014.516980,-0.548967,1.318382,-1.121484,-0.157550,-0.342027,0.110666,-0.130317,-0.968312,-0.213046,-0.095253,-0.387416,-0.077771,-8.210392,-44.108734,7.712125,,,,,,,
1558974014.536952,-0.561956,1.315329,-1.113201,-0.020907,-0.183004,0.199844,-0.134648,-0.967545,-0.213837,-0.080165,-0.495376,-0.101013,-8.269006,-44.110146,7.641127,,,,,,,
1558974014.556937,-0.582040,1.314449,-1.092149,0.172518,0.067619,0.247239,-0.139384,-0.967322,-0.211801,-0.085363,-0.589166,-0.111121,-8.500955,-44.056061,7.698392,,,,,,,
1558974014.576936,-0.597030,1.316745,-1.074869,0.226489,0.180062,-0.003606,-0.141293,-0.967902,-0.207850,-0.025684,-0.601251,-0.100439,-8.668568,-43.993511,7.867347,,,,,,,
1558974014.596907,-0.574280,1.324839,-1.091398,0.216425,0.388450,-0.643276,-0.132268,-0.969905,-0.204426,-0.045542,-0.631139,-0.123654,-8.654320,-43.981876,7.947662,,,,,,,
1558974014.616891,-0.508402,1.336340,-1.150396,0.056383,0.442686,-0.987735,-0.113086,-0.972641,-0.202932,-0.059887,-0.693161,-0.131953,-7.859571,-44.102993,8.100694,,,,,,,
1558974014.636892,-0.424431,1.343209,-1.229115,-0.194392,0.286616,-0.915762,-0.092914,-0.974213,-0.205609,-0.056057,-0.607879,-0.148517,-7.061622,-44.254578,8.008352,,,,,,,
1558974014.656860,-0.346358,1.343117,-1.308431,-0.432200,-0.100900,-0.771259,-0.076625,-0.974193,-0.212313,-0.060200,-0.538167,-0.143293,-6.682691,-44.334068,7.893043,,,,,,,
1558974014.676862,-0.267787,1.336622,-1.390024,-0.655183,0.030134,-0.871616,-0.061397,-0.972706,-0.223770,-0.043187,-0.280696,-0.062760,-5.623841,-44.586407,7.272743,,,,,,,
1558974014.696849,-0.162101,1.329535,-1.496083,-0.552859,0.193836,-1.310905,-0.038561,-0.971037,-0.235796,-0.077238,-0.226839,-0.038115,-4.711982,-44.782352,6.693722,,,,,,,
1558974014.716823,-0.038938,1.324115,-1.617888,-0.350198,0.251747,-1.456457,-0.009506,-0.969728,-0.244002,-0.092087,-0.173521,-0.030946,-4.121304,-44.876324,6.449667,,,,,,,
1558974014.736820,0.070643,1.318094,-1.727868,-0.228673,0.056865,-1.290604,0.017648,-0.968240,-0.249398,-0.072183,-0.003302,-0.054130,-2.246166,-45.075893,5.965435,,,,,,,
1558974014.756796,0.147528,1.313962,-1.808974,-0.003122,-0.107519,-0.861735,0.037339,-0.967199,-0.251260,-0.107179,0.094244,-0.003897,-1.208350,-45.133213,5.831043,,,,,,,
1558974014.776790,0.197330,1.314631,-1.861332,0.217160,0.006977,-0.566860,0.049674,-0.967369,-0.248456,-0.123344,0.099144,0.007687,-0.837352,-45.139717,5.845744,,,,,,,
1558974014.796747,0.252573,1.314860,-1.918099,0.104801,0.019820,-0.856159,0.063262,-0.967427,-0.245120,-0.054427,0.000279,-0.048948,0.015126,-45.114483,6.095185,,,,,,,
1558974014.816761,0.327804,1.308139,-1.996874,-0.098554,-0.107388,-1.110572,0.083597,-0.965703,-0.245822,-0.008204,0.113851,-0.074155,0.918996,-45.102940,6.111326,,,,,,,
1558974014.836746,0.388753,1.296881,-2.064309,-0.247184,-0.245924,-0.970020,0.102530,-0.962719,-0.250318,-0.051672,0.141583,-0.066378,1.423139,-45.097893,6.051651,,,,,,,
1558974014.856732,0.431851,1.287111,-2.113502,-0.100332,-0.146968,-0.722329,0.117151,-0.960030,-0.254199,-0.094660,0.232262,0.039935,2.722436,-45.078529,5.743015,,,,,,,
1558974014.876712,0.474992,1.281966,-2.160261,0.144828,-0.057387,-0.744764,0.130262,-0.958578,-0.253300,-0.094984,0.145071,0.037983,3.204573,-45.050369,5.715148,,,,,,,
1558974014.896703,0.533854,1.276796,-2.220553,0.177692,0.126037,-0.961850,0.147458,-0.957092,-0.249461,-0.052990,0.153107,0.031336,3.715061,-44.999439,5.806617,,,,,,,
1558974014.916688,0.588638,1.268346,-2.275887,0.010022,0.029900,-0.809163,0.165380,-0.954610,-0.247729,-0.046103,0.249181,0.002795,4.950785,-44.852734,6.015779,,,,,,,
1558974014.936650,0.616950,1.261237,-2.304908,-0.044545,0.115302,-0.436848,0.176249,-0.952468,-0.248478,-0.074808,0.315932,0.081272,5.422437,-44.800201,6.000577,,,,,,,
1558974014.956659,0.637177,1.259044,-2.319433,0.090093,0.411014,-0.130698,0.182481,-0.951798,-0.246540,-0.119965,0.321808,0.086521,5.705146,-44.767159,5.985041,,,,,,,
1558974014.976645,0.646422,1.259195,-2.321316,-0.077539,0.326504,0.022100,0.184666,-0.951844,-0.244728,-0.026722,0.213029,0.043373,5.813563,-44.739239,6.088571,,,,,,,
1558974014.996617,0.635907,1.254624,-2.303613,-0.506929,0.255995,0.135319,0.184664,-0.950432,-0.250154,0.041425,0.350411,0.052935,5.708169,-44.771214,5.951740,,,,,,,
1558974015.016615,0.599829,1.247505,-2.264824,-0.661717,-0.084227,0.390309,0.179336,-0.948195,-0.262231,0.056107,0.428969,0.095132,5.563522,-44.837952,5.574392,,,,,,,
1558974015.036573,0.561464,1.243643,-2.228735,-0.295920,-0.252266,0.279026,0.171094,-0.946961,-0.272014,0.062411,0.533234,0.169536,5.313292,-44.921356,5.129215,,,,,,,
1558974015.056587,0.562303,1.245437,-2.234535,0.359583,-0.215205,-0.202671,0.170416,-0.947536,-0.270432,0.031335,0.521434,0.158357,5.088100,-44.979973,4.835417,,,,,,,
1558974015.076571,0.590343,1.251800,-2.269915,0.637177,-0.329903,-0.296432,0.174572,-0.949551,-0.260535,0.028141,0.526562,0.109030,5.281086,-44.924927,5.131168,,,,,,,
1558974015.096556,0.615291,1.258630,-2.304610,0.539822,-0.441316,-0.216435,0.177269,-0.951670,-0.250797,0.026939,0.541346,0.050082,5.505811,-44.850986,5.526612,,,,,,,
1558974015.116543,0.629078,1.264982,-2.328697,0.448017,-0.444816,-0.051057,0.177149,-0.953602,-0.243436,-0.032572,0.591114,0.067380,5.833881,-44.727032,6.158429,,,,,,,
1558974015.136500,0.637853,1.272349,-2.344548,0.432577,-0.226803,0.074865,0.175091,-0.955794,-0.236222,-0.076610,0.565841,0.091935,5.875850,-44.697235,6.332440,,,,,,,
1558974015.156507,0.642353,1.281511,-2.351258,0.412766,-0.010775,0.272296,0.170898,-0.958448,-0.228410,-0.038879,0.500333,0.114167,5.773588,-44.630302,6.875308,,,,,,,
1558974015.176500,0.635162,1.292634,-2.342463,0.348742,0.061829,0.534513,0.162916,-0.961562,-0.221038,0.023180,0.538710,0.086653,5.441609,-44.616364,7.227497,,,,,,,
1558974015.196468,0.609676,1.306221,-2.316621,0.366036,-0.090172,0.735925,0.149735,-0.965204,-0.214386,0.050002,0.545907,0.080811,5.184826,-44.621365,7.383695,,,,,,,
1558974015.216461,0.580478,1.321629,-2.290371,0.514667,-0.249633,0.650173,0.135240,-0.969118,-0.206204,0.049621,0.466967,0.089871,4.252834,-44.632828,7.892535,,,,,,,
1558974015.236455,0.571538,1.337068,-2.286805,0.673691,-0.269974,0.328744,0.125282,-0.972810,-0.194797,0.047310,0.437684,0.088550,3.898357,-44.599995,8.252948,,,,,,,
1558974015.256431,0.580907,1.350813,-2.302463,0.648125,-0.328146,0.213929,0.119752,-0.975901,-0.182419,-0.006058,0.392603,0.078949,3.671503,-44.508286,8.831799,,,,,,,
1558974015.276426,0.576033,1.363971,-2.305222,0.526211,-0.395875,0.439524,0.111857,-0.978688,-0.172216,-0.055369,0.364399,0.072759,3.457883,-44.391678,9.481047,,,,,,,
1558974015.296411,0.545986,1.379429,-2.282230,0.557873,-0.365018,0.688606,0.098764,-0.981745,-0.162549,-0.079935,0.354761,0.058194,3.051846,-44.324955,9.922315,,,,,,,
1558974015.316397,0.496606,1.397125,-2.238986,0.577945,-0.352245,0.818997,0.082329,-0.984957,-0.151926,-0.077538,0.373476,0.050516,2.772892,-44.289268,10.160690,,,,,,,
1558974015.336381,0.430780,1.414929,-2.181766,0.591351,-0.492929,0.798444,0.064824,-0.987877,-0.141054,-0.087346,0.264443,0.056200,1.824314,-44.162090,10.901815,,,,,,,
1558974015.356367,0.360669,1.431363,-2.118657,0.560133,-0.305775,0.730813,0.049047,-0.990295,-0.130040,-0.065679,0.065216,0.026860,1.248454,-44.054604,11.406187,,,,,,,
1558974015.376338,0.260637,1.444949,-2.022062,0.394320,-0.160922,0.883673,0.032345,-0.992092,-0.121276,-0.074322,0.046199,0.012664,0.955499,-44.000542,11.640753,,,,,,,
1558974015.396320,0.112733,1.456445,-1.876982,0.421557,-0.244406,0.993930,0.012836,-0.993469,-0.113378,-0.129474,0.190475,-0.055933,-0.154626,-43.864166,12.181087,,,,,,,
1558974015.416295,-0.075848,1.465517,-1.693712,0.431859,-0.346985,0.997228,-0.007963,-0.994463,-0.104783,-0.048891,0.017046,0.030839,-0.357441,-43.837147,12.273751,,,,,,,
1558974015.436308,-0.280469,1.470192,-1.494927,0.393747,-0.304574,0.950627,-0.027801,-0.994944,-0.096510,-0.060502,-0.177298,0.102766,-1.541172,-43.646748,12.847331,,,,,,,
1558974015.456281,-0.489439,1.470740,-1.289694,0.414356,-0.201138,0.921739,-0.046961,-0.994999,-0.088162,-0.103369,-0.156628,0.056469,-2.483453,-43.466839,13.301663,,,,,,,
1558974015.476262,-0.675457,1.468716,-1.107019,0.422956,-0.256413,0.743987,-0.063716,-0.994794,-0.079528,-0.099370,-0.082308,-0.019258,-2.670114,-43.427341,13.394196,,,,,,,
1558974015.496265,-0.819906,1.466405,-0.968034,0.393200,-0.329478,0.551088,-0.076180,-0.994556,-0.071096,-0.078468,-0.157665,-0.007563,-3.563128,-43.184570,13.959410,,,,,,,
1558974015.516252,-0.945938,1.462552,-0.849130,0.335551,-0.373548,0.565567,-0.087620,-0.994147,-0.063198,-0.113063,-0.300195,0.013790,-4.027182,-42.996254,14.407352,,,,,,,
1558974015.536224,-1.044685,1.456226,-0.754401,0.221368,-0.146783,0.542022,-0.098861,-0.993444,-0.057409,-0.147432,-0.356410,-0.021082,-4.121660,-42.960526,14.487009,,,,,,,
1558974015.556221,-1.100018,1.446823,-0.699513,-0.044358,-0.007915,0.582641,-0.110204,-0.992325,-0.056088,-0.132578,-0.357376,-0.072528,-4.756322,-42.788620,14.797956,,,,,,,
1558974015.576208,-1.116501,1.435129,-0.684450,-0.218196,-0.116962,0.561173,-0.121533,-0.990811,-0.059352,-0.148959,-0.329822,-0.098164,-5.352795,-42.752434,14.698464,,,,,,,
1558974015.596192,-1.133151,1.422702,-0.669541,-0.127653,-0.055994,0.653647,-0.133648,-0.989054,-0.062535,-0.036732,-0.494543,-0.017696,-5.819119,-42.744469,14.543605,,,,,,,
1558974015.616178,-1.162116,1.408341,-0.638599,-0.061223,0.140473,0.796510,-0.148422,-0.986833,-0.064276,-0.013032,-0.510115,-0.024835,-5.819119,-42.744469,14.543605,,,,,,,
1558974015.636164,-1.184369,1.393088,-0.613980,-0.147687,0.042545,0.742121,-0.163739,-0.984251,-0.066623,-0.006931,-0.438600,-0.076260,-6.803004,-42.639805,14.423401,,,,,,,
1558974015.656149,-1.187041,1.380538,-0.612235,-0.258369,-0.070367,0.478310,-0.175357,-0.981955,-0.070805,0.026691,-0.422723,-0.017803,-7.707753,-42.556808,14.211837,,,,,,,
1558974015.676114,-1.173778,1.372919,-0.626465,-0.268513,-0.035817,0.220262,-0.181298,-0.980486,-0.076015,0.032433,-0.426603,-0.008122,-7.707753,-42.556808,14.211837,,,,,,,
1558974015.696099,-1.156092,1.367849,-0.644965,-0.264059,-0.008484,0.135110,-0.184472,-0.979477,-0.081211,-0.019217,-0.363281,-0.006176,-8.088165,-42.596443,13.877790,,,,,,,
1558974015.716105,-1.138496,1.363491,-0.663019,-0.257671,-0.012762,0.124397,-0.186888,-0.978589,-0.086232,-0.040208,-0.266970,-0.041759,-8.258760,-42.671230,13.543508,,,,,,,
1558974015.736079,-1.121040,1.358699,-0.681120,-0.286349,0.018081,0.150293,-0.189576,-0.977592,-0.091519,-0.060256,-0.226296,-0.038044,-8.309380,-42.695728,13.434902,,,,,,,
1558974015.756056,-1.102437,1.352925,-0.699443,-0.312930,0.040459,0.178245,-0.192874,-0.976360,-0.097576,-0.042447,-0.133290,-0.055790,-8.513238,-42.771305,13.061703,,,,,,,
1558974015.776043,-1.074123,1.346325,-0.727430,-0.310789,0.006493,0.090374,-0.195696,-0.974912,-0.106066,-0.024091,-0.101123,-0.040022,-8.627681,-42.811375,12.853689,,,,,,,
1558974015.796016,-1.053212,1.343862,-0.748398,-0.226337,0.047051,-0.058640,-0.195521,-0.974361,-0.111322,0.011515,-0.061803,-0.015037,-8.709204,-42.900787,12.495604,,,,,,,
1558974015.816023,-1.036366,1.344801,-0.764740,-0.082464,0.044004,-0.177063,-0.192831,-0.974571,-0.114134,0.013632,-0.023323,-0.021654,-8.628448,-42.978012,12.284482,,,,,,,
1558974015.835998,-1.009183,1.348185,-0.790726,-0.018233,0.079353,-0.346432,-0.186865,-0.975324,-0.117575,-0.000726,-0.005221,-0.030023,-8.499268,-43.016541,12.239597,,,,,,,
1558974015.855983,-0.985067,1.354874,-0.813209,-0.036058,0.121596,-0.434656,-0.178535,-0.976779,-0.118438,-0.022958,0.009998,-0.043656,-8.202811,-43.114380,12.096779,,,,,,,
1558974015.875989,-0.946032,1.353057,-0.850505,-0.051191,0.086882,-0.374131,-0.175216,-0.976388,-0.126353,-0.040162,0.033899,-0.039770,-7.870357,-43.238346,11.873128,,,,,,,
1558974015.895965,-0.920943,1.356991,-0.874102,-0.111916,0.116944,-0.275668,-0.168932,-0.977231,-0.128384,-0.034147,0.024731,-0.025196,-7.797299,-43.302319,11.686709,,,,,,,
1558974015.915959,-0.895123,1.359336,-0.897487,-0.130985,0.167856,-0.225017,-0.163773,-0.977725,-0.131269,0.010224,-0.024960,-0.011691,-7.591010,-43.369629,11.572369,,,,,,,
1558974015.935945,-0.871393,1.359991,-0.918261,-0.155623,0.167079,-0.123618,-0.160122,-0.977863,-0.134705,0.001308,0.032321,-0.014907,-7.423275,-43.446560,11.391192,,,,,,,
1558974015.955929,-0.853705,1.358868,-0.933211,-0.145182,0.148137,-0.029838,-0.158541,-0.977627,-0.138238,0.024218,0.014416,0.006738,-7.387109,-43.494621,11.230177,,,,,,,
1558974015.975915,-0.837166,1.360464,-0.946847,-0.075981,0.148829,-0.031919,-0.155075,-0.977962,-0.139796,0.034805,0.009914,0.016093,-7.392686,-43.512028,11.158829,,,,,,,
1558974015.995901,-0.826614,1.361244,-0.954618,-0.016223,0.152610,-0.121518,-0.153030,-0.978124,-0.140908,0.037292,0.033178,0.016259,-7.268353,-43.552845,11.081004,,,,,,,
1558974016.015873,-0.811344,1.363559,-0.967002,-0.024616,0.157834,-0.191939,-0.149218,-0.978603,-0.141669,0.034838,0.015606,0.002066,-7.168383,-43.577896,11.047586,,,,,,,
1558974016.035872,-0.784027,1.366932,-0.991791,-0.074845,0.113759,-0.156109,-0.142961,-0.979292,-0.143353,0.032731,0.016691,0.001172,-7.101945,-43.594734,11.024050,,,,,,,
1558974016.055858,-0.769619,1.367139,-1.005667,-0.090264,-0.006541,-0.076132,-0.140740,-0.979333,-0.145253,0.024377,0.054147,0.007420,-6.841622,-43.668922,10.894304,,,,,,,
1558974016.075840,-0.763447,1.366644,-1.012472,-0.052069,-0.016161,-0.013202,-0.140175,-0.979233,-0.146469,0.025765,0.029557,0.033096,-6.794702,-43.691814,10.831682,,,,,,,
1558974016.095828,-0.759553,1.368076,-1.015946,-0.057189,0.049419,-0.000839,-0.138639,-0.979522,-0.145997,0.022168,0.017959,0.025178,-6.789183,-43.697926,10.810486,,,,,,,
1558974016.115802,-0.747065,1.367505,-1.027127,-0.099739,0.063401,0.009933,-0.137185,-0.979407,-0.148127,0.016137,0.047370,0.002345,-6.712898,-43.715775,10.785912,,,,,,,
1558974016.135799,-0.740093,1.366013,-1.033131,-0.096691,0.043381,0.063124,-0.137134,-0.979105,-0.150159,0.018466,0.039194,0.009335,-6.693254,-43.745533,10.676947,,,,,,,
1558974016.155771,-0.739278,1.364744,-1.033353,-0.043601,0.015665,0.092792,-0.137848,-0.978846,-0.151188,0.019989,0.030101,0.010838,-6.727390,-43.750614,10.634572,,,,,,,
1558974016.175691,-0.745536,1.363024,-1.026824,0.004213,0.003834,0.124746,-0.139934,-0.978493,-0.151559,0.002437,0.032753,0.003747,-6.760106,-43.753864,10.600377,,,,,,,
1558974016.195698,-0.757390,1.361398,-1.014288,0.028782,0.033312,0.132523,-0.142813,-0.978156,-0.151046,-0.003656,0.015067,0.004088,-6.906237,-43.731300,10.599300,,,,,,,
1558974016.215667,-0.762895,1.360393,-1.007607,0.015052,0.053425,0.103876,-0.144322,-0.977947,-0.150968,0.013661,0.001827,-0.005633,-7.012383,-43.709366,10.620068,,,,,,,
1558974016.235662,-0.757879,1.359015,-1.011577,-0.019042,0.026059,0.060876,-0.144489,-0.977658,-0.152669,0.009540,-0.004138,-0.004131,-7.098539,-43.711788,10.552654,,,,,,,
1558974016.255654,-0.760660,1.357639,-1.008656,-0.029823,-0.007684,0.077627,-0.145840,-0.977368,-0.153240,0.014965,-0.009250,0.002376,-7.140633,-43.712608,10.520794,,,,,,,
1558974016.275634,-0.763664,1.357096,-1.005863,-0.006456,-0.022602,0.079635,-0.146667,-0.977253,-0.153185,0.021255,0.006229,0.008776,-7.174605,-43.709721,10.509663,,,,,,,
1558974016.295609,-0.766243,1.357949,-1.003584,0.024430,-0.025958,0.063608,-0.146484,-0.977433,-0.152206,0.010039,0.015000,0.005081,-7.175423,-43.699867,10.550035,,,,,,,
1558974016.315611,-0.773530,1.357504,-0.996541,0.044678,-0.015483,0.071198,-0.147893,-0.977339,-0.151446,0.009785,0.005354,0.001162,-7.216372,-43.684635,10.585125,,,,,,,
1558974016.335571,-0.781729,1.357677,-0.988323,0.045787,-0.001746,0.072397,-0.149010,-0.977376,-0.150107,0.007958,-0.001735,0.008094,-7.247447,-43.667530,10.634336,,,,,,,
1558974016.355577,-0.789796,1.357976,-0.980074,0.024550,0.005739,0.055369,-0.150009,-0.977439,-0.148695,-0.002076,-0.011681,0.006315,-7.309875,-43.641285,10.699142,,,,,,,
1558974016.375538,-0.796838,1.357392,-0.972934,0.004323,-0.000515,0.043551,-0.151460,-0.977316,-0.148034,-0.010222,-0.004725,0.003731,-7.362340,-43.622589,10.739347,,,,,,,
1558974016.395518,-0.802637,1.356235,-0.967202,-0.003213,-0.013117,0.072252,-0.153129,-0.977070,-0.147939,-0.012322,0.007725,0.004109,-7.396173,-43.614674,10.748257,,,,,,,
1558974016.415539,-0.810901,1.355311,-0.959604,0.006189,-0.052226,0.106050,-0.155001,-0.976873,-0.147290,0.009768,0.004705,0.009289,-7.518760,-43.589470,10.765416,,,,,,,
1558974016.435524,-0.818352,1.354282,-0.953133,0.003045,-0.057560,0.062223,-0.156828,-0.976652,-0.146818,-0.002718,0.013594,0.002577,-7.570485,-43.572056,10.799610,,,,,,,
1558974016.455508,-0.823020,1.353468,-0.949516,-0.008566,-0.042750,0.029259,-0.158094,-0.976477,-0.146625,-0.010958,0.013449,0.002780,-7.594718,-43.566135,10.806490,,,,,,,
1558974016.475480,-0.831449,1.351794,-0.941749,-0.022341,-0.017290,0.043377,-0.160532,-0.976115,-0.146388,-0.023687,-0.004522,0.008388,-7.680883,-43.548965,10.814752,,,,,,,
1558974016.495479,-0.835183,1.350777,-0.937991,-0.002079,0.002716,0.062803,-0.161814,-0.975893,-0.146454,-0.005102,0.000307,0.005341,-7.754339,-43.536167,10.813885,,,,,,,
1558974016.515465,-0.838703,1.349758,-0.934761,-0.010776,-0.045840,0.077277,-0.163067,-0.975670,-0.146548,0.006512,-0.012351,-0.004377,-7.790001,-43.528191,10.820378,,,,,,,
1558974016.535450,-0.834089,1.348489,-0.940806,-0.072709,-0.105770,0.072378,-0.163307,-0.975391,-0.148131,0.020866,-0.000240,-0.016344,-7.827786,-43.530991,10.781776,,,,,,,
1558974016.555429,-0.832062,1.346185,-0.944844,-0.097036,-0.079287,0.025636,-0.164667,-0.974881,-0.149974,-0.006979,0.009030,0.000713,-7.824572,-43.550842,10.703653,,,,,,,
1558974016.575422,-0.833393,1.345037,-0.944522,-0.025490,-0.021562,0.002761,-0.165695,-0.974624,-0.150507,-0.017166,0.000961,0.007502,-7.850976,-43.559967,10.647059,,,,,,,
1558974016.595407,-0.839886,1.344106,-0.938323,0.052207,-0.014540,0.024247,-0.167344,-0.974416,-0.150034,-0.021697,0.006627,-0.004797,-7.903847,-43.547791,10.657729,,,,,,,
1558974016.615376,-0.845893,1.343840,-0.932149,0.060769,0.005515,0.036192,-0.168437,-0.974356,-0.149198,-0.003041,-0.009150,-0.009814,-7.965788,-43.530373,10.682732,,,,,,,
1558974016.635378,-0.847472,1.343633,-0.930673,0.020144,-0.036517,0.059243,-0.168823,-0.974309,-0.149065,0.013458,-0.017695,-0.017088,-7.992405,-43.519077,10.708847,,,,,,,
1558974016.655364,-0.847489,1.342805,-0.931528,-0.010770,-0.057522,0.040865,-0.169431,-0.974122,-0.149596,0.008313,-0.005889,-0.013016,-8.013882,-43.517937,10.697430,,,,,,,
1558974016.675332,-0.848330,1.342455,-0.931734,0.012730,-0.050305,0.001450,-0.169812,-0.974043,-0.149679,-0.000278,-0.005464,-0.005777,-8.013453,-43.522869,10.677654,,,,,,,
1558974016.695333,-0.849587,1.342933,-0.931135,0.026633,-0.029252,-0.009018,-0.169650,-0.974151,-0.149158,0.000476,-0.010132,-0.004879,-8.000597,-43.521427,10.693176,,,,,,,
1558974016.715318,-0.851540,1.342825,-0.929774,0.007379,-0.041784,0.025011,-0.170020,-0.974127,-0.148896,-0.006036,-0.008142,-0.005157,-7.989185,-43.520214,10.706625,,,,,,,
1558974016.735304,-0.854056,1.341313,-0.928142,-0.004543,-0.063782,0.116608,-0.171505,-0.973784,-0.149435,0.010860,-0.014345,-0.016062,-8.035883,-43.512123,10.704552,,,,,,,
1558974016.755290,-0.863022,1.338864,-0.920160,0.015583,-0.058488,0.193544,-0.174649,-0.973224,-0.149441,0.016476,-0.007580,-0.017154,-8.105339,-43.500889,10.697850,,,,,,,
1558974016.775275,-0.872049,1.337078,-0.911259,0.090302,-0.015608,0.149170,-0.177321,-0.972812,-0.148976,0.018340,-0.029278,-0.023494,-8.192933,-43.487801,10.684320,,,,,,,
1558974016.795260,-0.879847,1.338153,-0.902742,0.209770,0.017450,0.055624,-0.177671,-0.973060,-0.146923,0.021421,-0.132897,-0.061955,-8.290627,-43.450611,10.760016,,,,,,,
1558974016.815244,-0.897722,1.341755,-0.883884,0.307848,0.019969,-0.036091,-0.177528,-0.973884,-0.141538,0.024925,-0.176018,-0.077807,-8.314621,-43.407173,10.915679,,,,,,,
1558974016.835211,-0.913265,1.347087,-0.867217,0.308108,0.054705,-0.132914,-0.175594,-0.975081,-0.135586,0.010432,-0.369981,-0.083302,-8.257378,-43.334034,11.244778,,,,,,,
1558974016.855217,-0.920752,1.353863,-0.857503,0.277622,0.121292,-0.243337,-0.171340,-0.976562,-0.130266,-0.014115,-0.421052,-0.081191,-8.164042,-43.302799,11.431709,,,,,,,
1558974016.875181,-0.919499,1.362079,-0.856569,0.244742,0.093775,-0.382421,-0.164790,-0.978297,-0.125612,-0.030126,-0.514424,-0.062651,-8.026454,-43.284355,11.597784,,,,,,,
1558974016.895159,-0.904301,1.373420,-0.870492,0.236551,0.077588,-0.634547,-0.154131,-0.980584,-0.121234,-0.059141,-0.629279,0.029620,-7.513381,-43.296139,11.893744,,,,,,,
1558974016.915174,-0.865365,1.388903,-0.907414,0.207588,0.197796,-0.932361,-0.137719,-0.983503,-0.117284,-0.079292,-0.666552,0.053761,-7.069817,-43.331974,12.034373,,,,,,,
1558974016.935149,-0.793833,1.406092,-0.973273,0.127439,0.387294,-1.018158,-0.116912,-0.986467,-0.114956,-0.095399,-0.676329,0.050564,-6.503900,-43.388874,12.147963,,,,,,,
1558974016.955126,-0.706430,1.418767,-1.054213,-0.051775,0.363165,-0.817815,-0.098306,-0.988466,-0.115202,-0.070273,-0.594115,-0.011766,-5.365884,-43.525024,12.216683,,,,,,,
1558974016.975130,-0.603617,1.424473,-1.150818,-0.288315,0.339184,-0.721079,-0.082760,-0.989314,-0.120037,-0.080402,-0.542272,-0.017445,-4.924402,-43.607246,12.108932,,,,,,,
1558974016.995105,-0.485174,1.426947,-1.264252,-0.307514,0.289481,-0.804846,-0.066855,-0.989672,-0.126810,-0.068430,-0.410780,-0.048697,-4.510659,-43.709648,11.899090,,,,,,,
1558974017.015093,-0.358474,1.429110,-1.386437,-0.234978,0.309097,-0.862253,-0.049544,-0.989979,-0.132237,-0.063753,-0.406429,-0.043178,-3.557835,-43.909302,11.479679,,,,,,,
1558974017.035085,-0.208700,1.430777,-1.530858,-0.172879,0.310533,-1.098140,-0.028916,-0.990213,-0.136534,-0.060318,-0.348745,-0.075120,-2.811129,-44.018772,11.265594,,,,,,,
1558974017.055071,-0.028167,1.431226,-1.708580,-0.103782,0.194671,-1.289235,-0.003918,-0.990276,-0.139062,-0.059787,-0.325306,-0.060157,-2.346077,-44.065998,11.187131,,,,,,,
1558974017.075057,0.159830,1.427859,-1.896506,-0.071179,0.046427,-1.350416,0.022671,-0.989802,-0.140635,-0.095089,-0.262273,-0.020757,-0.695906,-44.158016,11.047764,,,,,,,
1558974017.095042,0.336305,1.419306,-2.075846,-0.119572,-0.121445,-1.391565,0.049801,-0.988547,-0.142458,-0.173000,-0.179055,-0.025862,0.513431,-44.177746,10.978664,,,,,,,
1558974017.115026,0.489222,1.404295,-2.234636,-0.217590,-0.197197,-1.500201,0.077884,-0.986171,-0.146292,-0.281315,-0.003759,-0.017328,1.474576,-44.180374,10.880638,,,,,,,
1558974017.135014,0.618494,1.383570,-2.367454,-0.297768,0.017782,-1.511019,0.107923,-0.982524,-0.151654,-0.365369,0.082439,0.017788,3.192090,-44.154892,10.612432,,,,,,,
1558974017.154977,0.699273,1.361802,-2.447779,-0.437437,0.125846,-1.126812,0.133545,-0.978240,-0.158784,-0.372528,0.151610,0.042024,4.132881,-44.127174,10.400953,,,,,,,
1558974017.174984,0.728683,1.342227,-2.475667,-0.612619,0.121009,-0.734104,0.150880,-0.973992,-0.169043,-0.292039,0.265602,0.052665,5.056883,-44.121498,10.009457,,,,,,,
1558974017.194969,0.725822,1.323532,-2.469119,-0.823502,0.199650,-0.484758,0.162454,-0.969586,-0.183063,-0.246576,0.353726,0.045917,5.755621,-44.193192,9.289927,,,,,,,
1558974017.214952,0.708410,1.304203,-2.446473,-0.970484,0.216414,-0.392898,0.171406,-0.964674,-0.200061,-0.189045,0.477537,0.085177,6.026943,-44.269676,8.737239,,,,,,,
1558974017.234941,0.685081,1.284827,-2.419481,-0.946619,0.070557,-0.301390,0.178487,-0.959389,-0.218439,-0.110387,0.494652,0.130305,6.332651,-44.384525,7.898077,,,,,,,
1558974017.254925,0.664994,1.268843,-2.399372,-0.709902,-0.116675,-0.269895,0.183503,-0.954757,-0.234019,0.017364,0.485092,0.154597,6.648964,-44.502121,6.915241,,,,,,,
1558974017.274910,0.655202,1.255757,-2.395404,-0.467906,-0.412059,-0.446555,0.188800,-0.950784,-0.245691,0.076016,0.562753,0.138238,6.861328,-44.537506,6.465357,,,,,,,
1558974017.294897,0.668111,1.241497,-2.418925,-0.250229,-0.463568,-0.907030,0.200335,-0.946269,-0.253851,0.042661,0.548534,0.145483,7.203583,-44.533604,6.110158,,,,,,,
1558974017.314882,0.699091,1.227198,-2.460607,-0.054065,-0.390667,-0.946746,0.216788,-0.941549,-0.257855,-0.045920,0.483754,0.138989,8.006134,-44.439056,5.791352,,,,,,,
1558974017.334867,0.717636,1.218264,-2.487068,-0.075739,-0.260794,-0.406359,0.227055,-0.938501,-0.260117,-0.010121,0.391825,0.094178,9.197134,-44.231518,5.608332,,,,,,,
1558974017.354852,0.709228,1.214004,-2.482447,-0.317799,-0.170018,0.073690,0.227462,-0.937022,-0.265049,0.018373,0.392863,0.087315,9.197134,-44.231518,5.608332,,,,,,,
1558974017.374839,0.683727,1.209312,-2.457504,-0.524151,-0.061981,0.204812,0.223404,-0.935373,-0.274168,0.050567,0.440164,0.081572,9.358812,-44.240292,5.260924,,,,,,,
1558974017.394799,0.664233,1.202555,-2.435437,-0.477400,0.158438,0.036135,0.221909,-0.932962,-0.283441,0.009338,0.450174,0.118662,9.153233,-44.358746,4.581236,,,,,,,
1558974017.414791,0.653031,1.197704,-2.417011,-0.346095,0.354622,0.217483,0.221467,-0.931205,-0.289500,-0.009477,0.444617,0.118891,9.128128,-44.382858,4.393981,,,,,,,
1558974017.434771,0.633216,1.198235,-2.388336,-0.266898,0.310300,0.545957,0.215395,-0.931398,-0.293433,0.053678,0.529375,0.101248,8.726776,-44.497791,4.032102,,,,,,,
1558974017.454751,0.606985,1.201484,-2.356142,-0.157889,0.107805,0.523821,0.205897,-0.932576,-0.296494,0.084508,0.558324,0.112275,8.326930,-44.586006,3.901078,,,,,,,
1558974017.474761,0.594756,1.204308,-2.343223,0.072161,-0.052600,0.091140,0.200780,-0.933591,-0.296808,0.095881,0.571378,0.134042,7.901512,-44.671898,3.802062,,,,,,,
1558974017.494738,0.603738,1.206424,-2.355021,0.289435,-0.144004,-0.188217,0.202316,-0.934348,-0.293365,-0.024322,0.579566,0.181426,7.900335,-44.661221,3.927816,,,,,,,
1558974017.514737,0.621882,1.211439,-2.378619,0.537241,-0.209782,-0.186512,0.204872,-0.936123,-0.285833,-0.053749,0.588848,0.173956,8.043440,-44.616222,4.142929,,,,,,,
1558974017.534698,0.646052,1.219896,-2.408442,0.701326,-0.155656,-0.170916,0.206947,-0.939064,-0.274468,-0.085350,0.594307,0.141014,8.222154,-44.538040,4.607253,,,,,,,
1558974017.554708,0.678201,1.229008,-2.442729,0.706396,0.092720,-0.167467,0.210285,-0.942157,-0.261000,-0.190693,0.515109,0.105955,8.429216,-44.413231,5.374142,,,,,,,
1558974017.574692,0.706992,1.237987,-2.468463,0.551286,0.297905,0.078864,0.212208,-0.945128,-0.248396,-0.198551,0.494841,0.094648,8.504280,-44.339642,5.843073,,,,,,,
1558974017.594677,0.716292,1.250012,-2.470828,0.463551,0.369863,0.534300,0.207031,-0.948988,-0.237822,-0.170227,0.407393,0.062819,8.342746,-44.297901,6.368868,,,,,,,
1558974017.614664,0.711863,1.266947,-2.458224,0.555817,0.365476,0.753199,0.195448,-0.954192,-0.226535,-0.050856,0.362868,0.024799,7.613043,-44.337025,6.981256,,,,,,,
1558974017.634649,0.706284,1.285190,-2.448595,0.616628,0.029910,0.636866,0.182852,-0.959491,-0.214341,0.004267,0.352298,0.013337,6.927670,-44.357967,7.539627,,,,,,,
1558974017.654634,0.709147,1.300712,-2.454681,0.680130,-0.219270,0.335590,0.173745,-0.963748,-0.202489,0.028648,0.361087,0.031438,6.663483,-44.351101,7.813190,,,,,,,
1558974017.674619,0.721655,1.317636,-2.474257,0.876278,-0.407231,0.443916,0.165464,-0.968126,-0.188028,0.040255,0.189744,0.071252,6.230879,-44.244884,8.719767,,,,,,,
1558974017.694587,0.725811,1.339874,-2.490370,0.994318,-0.678157,0.637864,0.151914,-0.973456,-0.171190,0.077258,0.068701,0.063600,5.843018,-44.140911,9.481930,,,,,,,
1558974017.714591,0.733324,1.360116,-2.512808,0.843548,-0.693655,0.346127,0.139977,-0.977889,-0.155371,0.084572,0.101714,0.064276,5.550090,-44.049416,10.065454,,,,,,,
1558974017.734576,0.750573,1.374170,-2.542087,0.667482,-0.512038,0.306083,0.133248,-0.980731,-0.142868,-0.111428,0.103442,0.085907,5.382427,-43.884506,10.846540,,,,,,,
1558974017.754555,0.737888,1.392265,-2.538560,0.638136,-0.439170,0.868340,0.119466,-0.984106,-0.131393,-0.098363,-0.051569,0.080536,5.183895,-43.809872,11.237887,,,,,,,
1558974017.774533,0.671788,1.415777,-2.481218,0.524605,-0.499387,1.199711,0.096096,-0.988009,-0.120849,-0.090389,-0.058119,0.068023,4.478430,-43.754272,11.746296,,,,,,,
1558974017.794508,0.573763,1.433958,-2.389315,0.250035,-0.255157,0.980825,0.074044,-0.990652,-0.114567,-0.153344,-0.047083,0.072438,3.789293,-43.734745,12.057407,,,,,,,
1558974017.814492,0.458542,1.446669,-2.277420,0.173569,-0.204028,0.974848,0.054803,-0.992306,-0.111019,-0.153420,-0.142078,0.005886,2.590447,-43.735722,12.367050,,,,,,,
1558974017.834476,0.290964,1.458319,-2.112880,0.200829,-0.233450,1.188117,0.032199,-0.993681,-0.107523,-0.115711,-0.157915,-0.002569,1.950453,-43.738445,12.474433,,,,,,,
1558974017.854481,0.071592,1.466612,-1.899319,0.184066,-0.467995,1.204009,0.007439,-0.994578,-0.103729,-0.092461,-0.152258,-0.014130,1.220402,-43.728973,12.599808,,,,,,,
1558974017.874459,-0.147139,1.470080,-1.691194,0.251336,-0.538548,0.910852,-0.014741,-0.994932,-0.099460,-0.109969,-0.248918,0.032412,-0.108212,-43.672626,12.851370,,,,,,,
1558974017.894439,-0.312935,1.475451,-1.530901,0.566020,-0.145307,0.623400,-0.029308,-0.995458,-0.090577,-0.126103,-0.324549,0.022600,-0.108212,-43.672626,12.851370,,,,,,,
1558974017.914446,-0.505001,1.482714,-1.337843,0.683439,0.021303,0.771356,-0.042560,-0.996123,-0.076988,-0.111127,-0.480424,-0.048394,-0.930676,-43.487686,13.432154,,,,,,,
1558974017.934431,-0.755312,1.476028,-1.090793,0.172432,-0.408624,1.283573,-0.064868,-0.995513,-0.068893,-0.069410,-0.452287,-0.082474,-2.030670,-43.207409,14.193791,,,,,,,
1558974017.954416,-0.908372,1.455030,-0.947274,-0.273690,-0.475101,1.205709,-0.091078,-0.993307,-0.071040,-0.096651,-0.449458,-0.043904,-2.030670,-43.207409,14.193791,,,,,,,
1558974017.974381,-0.981819,1.434951,-0.878600,-0.170063,-0.134544,0.995522,-0.112610,-0.990787,-0.075232,-0.166641,-0.524563,-0.001276,-3.878417,-43.149651,13.983324,,,,,,,
1558974017.994386,-1.044484,1.418966,-0.814789,0.012836,0.081020,0.886696,-0.130779,-0.988496,-0.075979,-0.117298,-0.511733,-0.012476,-4.686936,-43.091011,13.916373,,,,,,,
1558974018.014343,-1.089628,1.404068,-0.768713,-0.104518,-0.043237,0.788257,-0.147113,-0.986133,-0.076807,-0.050900,-0.459317,-0.057775,-5.259346,-43.025658,13.914022,,,,,,,
1558974018.034348,-1.103110,1.390265,-0.756557,-0.270332,-0.066999,0.572232,-0.160270,-0.983748,-0.080946,-0.037102,-0.452775,-0.025606,-6.031292,-42.975311,13.755529,,,,,,,
1558974018.054343,-1.097226,1.380572,-0.761755,-0.245963,0.103723,0.313380,-0.168271,-0.981962,-0.086233,-0.031864,-0.439333,-0.020273,-6.352965,-42.983791,13.583137,,,,,,,
1558974018.074310,-1.083698,1.375043,-0.772696,-0.210463,0.137101,0.138633,-0.171884,-0.980901,-0.091041,-0.019278,-0.333475,-0.047402,-6.633103,-43.010826,13.361839,,,,,,,
1558974018.094285,-1.068398,1.371945,-0.786084,-0.171072,0.096590,0.046459,-0.173133,-0.980294,-0.095123,0.001609,-0.223090,-0.014084,-6.795293,-43.058949,13.123213,,,,,,,
1558974018.114288,-1.057037,1.370366,-0.795670,-0.085863,0.095029,0.009145,-0.173389,-0.979981,-0.097844,0.002674,-0.224090,-0.003139,-6.838326,-43.085384,13.013642,,,,,,,
1558974018.134277,-1.049344,1.370359,-0.801626,-0.038923,0.094679,-0.060218,-0.172638,-0.979980,-0.099179,0.014724,-0.186677,0.004315,-6.864543,-43.105652,12.932458,,,,,,,
1558974018.154271,-1.038091,1.371953,-0.811209,-0.052661,0.087228,-0.143577,-0.170164,-0.980296,-0.100321,0.013258,-0.134328,-0.018392,-6.804438,-43.132942,12.873124,,,,,,,
1558974018.174232,-1.020784,1.373562,-0.827192,-0.119734,0.083351,-0.144735,-0.167058,-0.980612,-0.102427,0.005147,-0.102747,-0.019720,-6.723803,-43.161087,12.821033,,,,,,,
1558974018.194241,-1.001933,1.374197,-0.844783,-0.125107,0.088730,-0.099847,-0.164572,-0.980737,-0.105222,-0.023935,-0.056174,-0.032321,-6.624099,-43.210529,12.705879,,,,,,,
1558974018.214226,-0.988890,1.374719,-0.855741,-0.040887,0.136943,-0.077965,-0.162759,-0.980838,-0.107078,-0.044074,0.003543,-0.002159,-6.556727,-43.258156,12.578134,,,,,,,
1558974018.234200,-0.980001,1.377008,-0.861385,0.052018,0.188123,-0.161745,-0.159935,-0.981282,-0.107270,-0.036293,-0.004131,-0.001296,-6.523880,-43.270634,12.552258,,,,,,,
1558974018.254198,-0.976125,1.378616,-0.861464,0.097871,0.196279,-0.200058,-0.158211,-0.981590,-0.107005,-0.029533,0.017998,-0.008016,-6.533308,-43.271545,12.544212,,,,,,,
1558974018.274184,-0.965649,1.381236,-0.868437,0.082827,0.173164,-0.159719,-0.154966,-0.982087,-0.107193,-0.006762,0.022660,-0.017914,-6.440919,-43.272465,12.588737,,,,,,,
1558974018.294167,-0.949140,1.382059,-0.880788,-0.014936,0.228647,-0.156060,-0.152518,-0.982242,-0.109266,-0.012979,0.025806,-0.022357,-6.378549,-43.311337,12.486418,,,,,,,
1558974018.314153,-0.928726,1.380591,-0.896988,-0.105574,0.216547,-0.082576,-0.151410,-0.981965,-0.113220,-0.021517,0.031846,-0.019288,-6.341289,-43.324699,12.458998,,,,,,,
1558974018.334140,-0.931820,1.376912,-0.890343,-0.109121,0.191466,0.099759,-0.154659,-0.981263,-0.114904,-0.014851,0.024583,0.018637,-6.507748,-43.369347,12.215445,,,,,,,
1558974018.354098,-0.934866,1.374921,-0.883326,-0.066622,0.202992,0.182109,-0.156579,-0.980878,-0.115593,0.022745,0.042615,0.004692,-6.724674,-43.333912,12.223702,,,,,,,
1558974018.374110,-0.930087,1.373129,-0.883951,-0.060087,0.201751,0.080672,-0.157434,-0.980527,-0.117390,0.030085,0.046674,0.006261,-6.833581,-43.334457,12.161215,,,,,,,
1558974018.394095,-0.923278,1.371834,-0.886936,-0.058969,0.190027,0.019705,-0.157644,-0.980272,-0.119226,0.028021,0.039904,0.011956,-6.875924,-43.344627,12.100956,,,,,,,
1558974018.414082,-0.916905,1.372482,-0.890195,-0.017651,0.136983,0.035240,-0.156377,-0.980400,-0.119842,0.033681,0.018745,0.017928,-6.911682,-43.361050,12.021477,,,,,,,
1558974018.434067,-0.916200,1.371473,-0.888299,-0.017727,0.124334,0.058607,-0.157077,-0.980201,-0.120554,0.032199,0.015967,0.015253,-6.963016,-43.359447,11.997611,,,,,,,
1558974018.454052,-0.911340,1.371430,-0.890530,-0.068771,0.136219,0.051202,-0.156522,-0.980192,-0.121341,0.031034,0.018873,0.013950,-7.022874,-43.356918,11.971833,,,,,,,
1558974018.474039,-0.902998,1.369116,-0.896272,-0.145445,0.133472,0.066061,-0.157285,-0.979731,-0.124047,0.019483,0.015910,0.023324,-7.083211,-43.377163,11.862446,,,,,,,
1558974018.494023,-0.897874,1.367031,-0.899359,-0.156310,0.092395,0.125445,-0.158245,-0.979312,-0.126125,0.019329,0.013354,0.032329,-7.157070,-43.396156,11.748116,,,,,,,
1558974018.513994,-0.897629,1.366702,-0.898736,-0.104400,0.023448,0.146171,-0.158465,-0.979245,-0.126364,0.037707,0.011014,0.029684,-7.169572,-43.393036,11.752010,,,,,,,
1558974018.533994,-0.895597,1.367920,-0.900609,-0.029735,0.009125,0.017967,-0.157277,-0.979491,-0.125940,0.011281,0.029677,0.012384,-7.166862,-43.398499,11.733473,,,,,,,
1558974018.553965,-0.895409,1.369454,-0.900094,0.064331,0.066566,-0.115930,-0.156081,-0.979799,-0.125030,-0.006517,0.031389,0.014755,-7.154625,-43.398792,11.739866,,,,,,,
1558974018.573951,-0.909713,1.371470,-0.884091,0.149635,0.113698,-0.105792,-0.156294,-0.980200,-0.121572,-0.016985,0.008551,0.010992,-7.142410,-43.360161,11.889105,,,,,,,
1558974018.593951,-0.918796,1.373613,-0.872781,0.144057,0.085347,0.001766,-0.155722,-0.980622,-0.118873,-0.013818,-0.000564,-0.001443,-7.135758,-43.332001,11.995278,,,,,,,
1558974018.613935,-0.926817,1.374054,-0.863211,0.052360,0.060530,0.048432,-0.156324,-0.980709,-0.117360,-0.008334,-0.007328,-0.008769,-7.170810,-43.303261,12.077868,,,,,,,
1558974018.633908,-0.929355,1.373377,-0.860101,-0.020175,0.012280,0.042573,-0.157153,-0.980576,-0.117360,-0.017804,-0.017593,-0.014217,-7.247075,-43.277515,12.124537,,,,,,,
1558974018.653908,-0.930152,1.371781,-0.859505,-0.030933,-0.021487,0.043311,-0.158502,-0.980262,-0.118170,-0.015601,-0.011697,-0.007227,-7.274742,-43.278057,12.106028,,,,,,,
1558974018.673888,-0.930980,1.370811,-0.859319,-0.026730,-0.039484,0.039939,-0.159362,-0.980070,-0.118606,-0.007722,0.000577,-0.007172,-7.320735,-43.277996,12.078474,,,,,,,
1558974018.693865,-0.931229,1.369360,-0.859700,-0.051230,-0.031915,0.067751,-0.160533,-0.979780,-0.119416,-0.002599,0.012800,0.007203,-7.367875,-43.280910,12.039318,,,,,,,
1558974018.713864,-0.937158,1.368339,-0.854376,-0.006468,-0.018415,0.063645,-0.162044,-0.979575,-0.119054,0.005550,0.011436,0.014455,-7.428394,-43.274452,12.025320,,,,,,,
1558974018.733830,-0.942121,1.368736,-0.849096,0.048093,0.032975,-0.016964,-0.162318,-0.979655,-0.118019,0.002055,0.017238,0.016091,-7.444679,-43.265533,12.047332,,,,,,,
1558974018.753832,-0.943163,1.369703,-0.847084,0.060950,0.046609,-0.043513,-0.161674,-0.979849,-0.117294,-0.004067,0.008550,-0.005890,-7.437085,-43.246136,12.121447,,,,,,,
1558974018.773819,-0.942135,1.370264,-0.847380,0.012897,0.015197,-0.012890,-0.161109,-0.979961,-0.117137,-0.001489,0.001811,-0.010167,-7.424971,-43.242184,12.142954,,,,,,,
1558974018.793792,-0.940635,1.369908,-0.849064,-0.027740,-0.024701,0.024062,-0.161215,-0.979890,-0.117584,0.004599,-0.003158,-0.004685,-7.426242,-43.245735,12.129524,,,,,,,
1558974018.813791,-0.940320,1.369454,-0.849855,-0.038368,-0.017239,0.029462,-0.161537,-0.979799,-0.117897,0.009163,-0.004622,0.009376,-7.443944,-43.253929,12.089376,,,,,,,
1558974018.833754,-0.939452,1.369026,-0.850990,-0.040461,-0.010900,0.019911,-0.161773,-0.979713,-0.118285,0.001358,0.001030,0.002730,-7.437137,-43.255596,12.087605,,,,,,,
1558974018.853760,-0.937761,1.368301,-0.853247,-0.029907,-0.040559,0.015365,-0.162146,-0.979568,-0.118978,0.000845,0.006820,-0.001047,-7.443767,-43.259018,12.071274,,,,,,,
1558974018.873748,-0.942425,1.367265,-0.849104,0.006426,-0.004834,0.000793,-0.163519,-0.979359,-0.118817,-0.014688,0.020893,0.009259,-7.474700,-43.261166,12.044428,,,,,,,
1558974018.893724,-0.945202,1.368141,-0.845867,0.052368,0.031873,-0.030848,-0.163153,-0.979536,-0.117860,0.009680,-0.005190,-0.002410,-7.506648,-43.242821,12.090363,,,,,,,
1558974018.913718,-0.944920,1.369019,-0.845626,0.028829,0.004543,-0.011912,-0.162423,-0.979712,-0.117402,0.009103,-0.001291,-0.011351,-7.506648,-43.242821,12.090363,,,,,,,
1558974018.933705,-0.939032,1.369584,-0.852185,-0.004349,-0.060857,-0.038191,-0.161282,-0.979825,-0.118030,0.016843,0.002408,-0.013379,-7.436807,-43.250263,12.106876,,,,,,,
1558974018.953681,-0.934337,1.370923,-0.858509,-0.001185,-0.086296,-0.074734,-0.159671,-0.980092,-0.118006,0.003742,-0.001079,0.000299,-7.356269,-43.269768,12.086388,,,,,,,
1558974018.973674,-0.938385,1.371026,-0.856393,0.014643,-0.095785,-0.002209,-0.160066,-0.980112,-0.117299,-0.016356,0.003565,0.005208,-7.291714,-43.275455,12.105103,,,,,,,
1558974018.993660,-0.945195,1.370426,-0.851003,-0.006600,-0.050118,0.067609,-0.161338,-0.979993,-0.116550,0.002204,-0.017962,0.006153,-7.301721,-43.264107,12.139599,,,,,,,
1558974019.013618,-0.942518,1.369201,-0.854187,-0.036284,-0.026755,0.035778,-0.161996,-0.979748,-0.117687,0.004632,0.013028,-0.012455,-7.338906,-43.260643,12.129520,,,,,,,
1558974019.033629,-0.940231,1.368022,-0.857170,-0.050148,-0.039383,0.024969,-0.162660,-0.979512,-0.118739,0.001146,0.017918,-0.006307,-7.352579,-43.269596,12.089228,,,,,,,
1558974019.053617,-0.939386,1.367502,-0.858895,-0.028899,-0.050058,0.029153,-0.162970,-0.979407,-0.119176,0.009741,0.006003,0.007421,-7.359307,-43.278408,12.053534,,,,,,,
1558974019.073601,-0.940036,1.367246,-0.859234,-0.005464,-0.051259,0.015280,-0.163250,-0.979355,-0.119218,0.007931,0.013245,-0.004790,-7.361066,-43.280239,12.045900,,,,,,,
1558974019.093585,-0.939345,1.367269,-0.861087,-0.003329,-0.067185,-0.024374,-0.163150,-0.979360,-0.119318,0.006045,0.015126,-0.008535,-7.351624,-43.282639,12.043034,,,,,,,
1558974019.113544,-0.933678,1.367007,-0.867955,-0.017116,-0.062925,-0.052103,-0.162677,-0.979307,-0.120393,-0.010907,0.025571,-0.013488,-7.293343,-43.302784,12.005991,,,,,,,
1558974019.133557,-0.932577,1.366842,-0.870472,-0.010783,-0.065027,-0.021154,-0.162674,-0.979273,-0.120668,-0.021500,0.027339,-0.005797,-7.264511,-43.313179,11.985958,,,,,,,
1558974019.153533,-0.936427,1.366670,-0.867806,0.034961,-0.053575,0.022767,-0.163273,-0.979239,-0.120141,-0.008602,0.016165,0.001779,-7.272128,-43.312836,11.982583,,,,,,,
1558974019.173510,-0.941058,1.366533,-0.863478,0.042553,-0.011337,0.021043,-0.163936,-0.979211,-0.119463,-0.007145,-0.003074,-0.017943,-7.285925,-43.295399,12.037094,,,,,,,
1558974019.193514,-0.942046,1.365684,-0.862746,-0.019235,-0.020510,0.031582,-0.164727,-0.979038,-0.119790,-0.007087,0.004459,-0.021797,-7.307282,-43.290787,12.040747,,,,,,,
1558974019.213470,-0.939467,1.364223,-0.865645,-0.049002,-0.015091,0.016665,-0.165571,-0.978740,-0.121058,-0.016024,0.016749,-0.016912,-7.354820,-43.299873,11.978955,,,,,,,
1558974019.233477,-0.940547,1.362824,-0.864828,-0.011737,-0.003632,0.036024,-0.166808,-0.978452,-0.121686,-0.006867,0.006223,0.007077,-7.394773,-43.307377,11.927141,,,,,,,
1558974019.253470,-0.944084,1.362284,-0.860946,0.021321,0.018405,0.044803,-0.167665,-0.978340,-0.121405,-0.001539,0.001610,0.004279,-7.428858,-43.300037,11.932602,,,,,,,
1558974019.273432,-0.946166,1.361612,-0.858610,-0.000048,-0.002614,0.050990,-0.168451,-0.978201,-0.121440,0.006265,0.002478,-0.008779,-7.469089,-43.290955,11.940430,,,,,,,
1558974019.293427,-0.945505,1.360214,-0.859679,-0.037483,-0.038297,0.090120,-0.169479,-0.977909,-0.122352,0.011322,-0.007976,-0.011529,-7.523518,-43.287231,11.919739,,,,,,,
1558974019.313427,-0.947369,1.357837,-0.858739,-0.064130,-0.042365,0.103939,-0.171594,-0.977410,-0.123393,-0.001639,-0.009819,-0.003469,-7.586205,-43.289783,11.870640,,,,,,,
1558974019.333400,-0.951093,1.355509,-0.855699,-0.026860,-0.033030,0.115802,-0.173904,-0.976915,-0.124074,-0.007340,-0.025557,0.000768,-7.626697,-43.290016,11.843826,,,,,,,
1558974019.353379,-0.958681,1.353335,-0.848500,0.007170,-0.029995,0.144685,-0.176579,-0.976448,-0.123971,0.002369,-0.123512,-0.006553,-7.775380,-43.268051,11.827413,,,,,,,
1558974019.373382,-0.966310,1.351012,-0.841282,-0.006631,-0.022536,0.136204,-0.179385,-0.975944,-0.123909,-0.010785,-0.184151,-0.033638,-7.891023,-43.245468,11.833405,,,,,,,
1558974019.393338,-0.973217,1.348110,-0.834775,-0.036579,-0.042386,0.187237,-0.182577,-0.975308,-0.124260,-0.033381,-0.261112,-0.054787,-7.978685,-43.230835,11.828083,,,,,,,
1558974019.413347,-0.978477,1.344220,-0.829212,-0.071328,0.065587,0.171160,-0.186374,-0.974441,-0.125415,-0.047543,-0.366089,-0.062161,-8.181227,-43.204967,11.784174,,,,,,,
1558974019.433326,-0.972817,1.342003,-0.831998,-0.102641,0.184967,0.018537,-0.187447,-0.973941,-0.127684,-0.082084,-0.426267,-0.076021,-8.284698,-43.202274,11.721565,,,,,,,
1558974019.453326,-0.957922,1.341747,-0.843254,-0.105613,0.193246,-0.110572,-0.185728,-0.973883,-0.130605,-0.085192,-0.470224,-0.073115,-8.330650,-43.226284,11.599834,,,,,,,
1558974019.473311,-0.938670,1.344511,-0.859249,-0.053140,0.204323,-0.295127,-0.181007,-0.974506,-0.132565,-0.070641,-0.491268,-0.055057,-8.218552,-43.282845,11.468169,,,,,,,
1558974019.493294,-0.907915,1.350700,-0.884571,-0.024641,0.376211,-0.466418,-0.172087,-0.975877,-0.134354,-0.069551,-0.526092,-0.026565,-8.031974,-43.333706,11.408096,,,,,,,
1558974019.513281,-0.870846,1.358734,-0.913672,0.031026,0.438173,-0.539448,-0.160988,-0.977599,-0.135585,-0.076606,-0.512559,-0.020650,-7.711143,-43.411648,11.332911,,,,,,,
1558974019.533267,-0.822819,1.368996,-0.953263,0.032514,0.472738,-0.746240,-0.146931,-0.979707,-0.136327,-0.047496,-0.521697,-0.007625,-7.203500,-43.511734,11.283024,,,,,,,
1558974019.553252,-0.751186,1.381529,-1.016719,-0.010899,0.457891,-0.932187,-0.128406,-0.982142,-0.137507,-0.031369,-0.482778,-0.022786,-6.755859,-43.592560,11.247892,,,,,,,
1558974019.573237,-0.665059,1.393661,-1.095498,0.007076,0.418679,-0.937886,-0.108741,-0.984352,-0.138657,-0.029519,-0.412574,-0.037918,-6.046019,-43.713764,11.181251,,,,,,,
1558974019.593224,-0.566736,1.405233,-1.187384,0.023038,0.378302,-1.022604,-0.088482,-0.986326,-0.139041,-0.028019,-0.320895,-0.042783,-5.119867,-43.843056,11.137371,,,,,,,
1558974019.613209,-0.437355,1.416952,-1.311856,0.044365,0.301798,-1.215496,-0.064903,-0.988189,-0.138815,-0.050453,-0.206040,-0.031595,-4.471405,-43.915504,11.131168,,,,,,,
1558974019.633193,-0.277337,1.427261,-1.467916,0.106128,0.283421,-1.271140,-0.039164,-0.989717,-0.137577,-0.091649,-0.107696,-0.004376,-3.461431,-44.001392,11.151868,,,,,,,
