timestamp(unix),attitude_roll(radians),attitude_pitch(radians),attitude_yaw(radians),rotation_rate_x(radians/s),rotation_rate_y(radians/s),rotation_rate_z(radians/s),gravity_x(G),gravity_y(G),gravity_z(G),user_acc_x(G),user_acc_y(G),user_acc_z(G),magnetic_field_x(microteslas),magnetic_field_y(microteslas),magnetic_field_z(microteslas),latitude(degree),longitude(degree),altitude(meter),speed(m/s),course(degree),timestamp(unix),User Mark
1558971554.817795,0.088201,1.468061,-1.148208,-0.012330,0.093258,0.048356,0.009034,-0.994727,-0.102156,0.016311,0.041129,0.025161,-13.077819,-38.783295,-9.147035,,,,,,,
1558971554.837782,0.080479,1.469054,-1.139076,-0.016813,0.047909,0.101298,0.008165,-0.994829,-0.101239,0.010039,0.055360,0.047711,-13.066499,-38.791138,-9.129938,,,,,,,
1558971554.857768,0.056436,1.470217,-1.114614,0.015076,0.012794,0.057217,0.005664,-0.994946,-0.100250,-0.025943,0.024060,0.032425,-13.160008,-38.752583,-9.159328,,,,,,,
1558971554.877754,0.048978,1.470565,-1.106894,0.017203,0.004301,0.040055,0.004899,-0.994981,-0.099943,-0.022065,0.015367,0.019041,-13.221506,-38.743065,-9.110888,,,,,,,
1558971554.897741,0.038478,1.471134,-1.096108,0.023639,0.016977,0.064705,0.003828,-0.995038,-0.099425,-0.026212,-0.000034,0.019804,-13.244310,-38.737476,-9.101542,,,,,,,
1558971554.917727,0.014994,1.472223,-1.072287,0.001254,0.008644,0.068882,0.001476,-0.995146,-0.098403,-0.026363,-0.014498,0.025038,-13.353909,-38.711597,-9.051331,,,,,,,
1558971554.937692,0.004559,1.472002,-1.062014,-0.009421,-0.016721,0.033398,0.000450,-0.995124,-0.098633,-0.029991,-0.016519,0.019424,-13.391035,-38.697826,-9.055389,,,,,,,
1558971554.957687,-0.008864,1.472874,-1.048941,0.047019,-0.017040,0.018496,-0.000867,-0.995209,-0.097762,-0.009174,-0.012649,0.015869,-13.456825,-38.681252,-9.028626,,,,,,,
1558971554.977686,-0.017139,1.475397,-1.040741,0.093883,-0.003525,0.032543,-0.001632,-0.995453,-0.095241,-0.007782,-0.017258,0.024257,-13.474236,-38.688152,-8.972919,,,,,,,
1558971554.997651,-0.026678,1.477360,-1.031108,0.094961,0.007060,0.046524,-0.002489,-0.995638,-0.093267,-0.006789,-0.021879,0.025335,-13.499213,-38.696465,-8.899233,,,,,,,
1558971555.017645,-0.035534,1.478674,-1.021878,0.052468,0.025226,0.028514,-0.003268,-0.995760,-0.091934,0.001040,-0.023710,0.016448,-13.548696,-38.700977,-8.803915,,,,,,,
1558971555.037644,-0.029679,1.480051,-1.027391,0.049270,0.001918,-0.018690,-0.002689,-0.995885,-0.090581,0.012867,-0.014826,0.009420,-13.553740,-38.704575,-8.780301,,,,,,,
1558971555.057626,-0.013879,1.481004,-1.043380,0.055569,-0.013935,0.004647,-0.001244,-0.995971,-0.089663,0.035317,-0.002655,-0.006452,-13.524464,-38.724590,-8.737083,,,,,,,
1558971555.077602,-0.009537,1.481569,-1.047446,0.043925,0.028478,0.053084,-0.000850,-0.996022,-0.089105,0.019466,0.007557,-0.018728,-13.447211,-38.759991,-8.699266,,,,,,,
1558971555.097603,-0.025231,1.482331,-1.030592,0.033387,0.071907,0.076979,-0.002229,-0.996089,-0.088322,0.006440,0.010524,-0.023235,-13.492401,-38.748943,-8.678471,,,,,,,
1558971555.117562,-0.038547,1.481536,-1.015043,0.002693,0.134458,0.094635,-0.003435,-0.996019,-0.089076,0.007921,0.008974,-0.026387,-13.514938,-38.741177,-8.678092,,,,,,,
1558971555.137569,-0.064529,1.481795,-0.985158,0.042273,0.217833,0.147779,-0.005732,-0.996042,-0.088698,-0.006811,0.001123,-0.010713,-13.589828,-38.695454,-8.764705,,,,,,,
1558971555.157563,-0.101856,1.483655,-0.943070,0.168970,0.228805,0.155461,-0.008849,-0.996206,-0.086580,-0.009705,0.004354,-0.006575,-13.649054,-38.673397,-8.770036,,,,,,,
1558971555.177548,-0.136547,1.488378,-0.904622,0.303936,0.143478,0.117384,-0.011206,-0.996606,-0.081558,-0.042718,0.007867,0.005448,-13.743010,-38.657337,-8.693754,,,,,,,
1558971555.197536,-0.188867,1.495879,-0.850494,0.407056,0.068837,0.045225,-0.014052,-0.997195,-0.073516,-0.042497,0.008746,0.015685,-13.812792,-38.694572,-8.412972,,,,,,,
1558971555.217516,-0.215147,1.504377,-0.822901,0.443276,0.053772,-0.006137,-0.014170,-0.997795,-0.064841,0.011988,-0.004265,0.020056,-13.881521,-38.724812,-8.156829,,,,,,,
1558971555.237507,-0.236483,1.512497,-0.800973,0.372911,0.009711,-0.030103,-0.013651,-0.998301,-0.056645,0.028574,-0.006902,0.020116,-13.865684,-38.797726,-7.830770,,,,,,,
1558971555.257495,-0.233931,1.518711,-0.803548,0.201466,-0.003107,-0.015421,-0.012068,-0.998644,-0.050644,0.031844,-0.006163,0.006470,-13.794538,-38.890652,-7.487964,,,,,,,
1558971555.277453,-0.242438,1.520342,-0.795347,0.020383,-0.027483,0.011960,-0.012107,-0.998727,-0.048958,0.021904,-0.006583,0.002815,-13.790269,-38.909470,-7.397532,,,,,,,
1558971555.297467,-0.231854,1.518899,-0.807260,-0.141597,-0.085838,0.002729,-0.011920,-0.998654,-0.050485,0.008059,-0.007602,-0.002463,-13.786208,-38.913296,-7.384960,,,,,,,
1558971555.317453,-0.208163,1.514247,-0.832372,-0.290462,-0.048100,-0.023721,-0.011681,-0.998401,-0.055300,-0.020317,-0.001278,-0.007749,-13.795804,-38.880798,-7.536642,,,,,,,
1558971555.337412,-0.190753,1.508308,-0.849686,-0.280605,0.028987,-0.038986,-0.011840,-0.998048,-0.061316,-0.021424,0.011094,0.006217,-13.815719,-38.839806,-7.709534,,,,,,,
1558971555.357411,-0.166121,1.504088,-0.874297,-0.182812,-0.015930,-0.044676,-0.011023,-0.997776,-0.065742,-0.010691,0.027454,0.016929,-13.782440,-38.808502,-7.923772,,,,,,,
1558971555.377412,-0.153499,1.502290,-0.887184,-0.072009,0.000358,-0.072188,-0.010466,-0.997654,-0.067649,-0.009401,0.040379,0.014502,-13.760001,-38.789310,-8.055648,,,,,,,
1558971555.397370,-0.122484,1.503401,-0.918467,0.022617,-0.030778,-0.062805,-0.008228,-0.997730,-0.066840,0.021717,0.047367,0.029990,-13.703276,-38.804070,-8.081209,,,,,,,
1558971555.417383,-0.115844,1.504274,-0.926042,0.033145,-0.042383,-0.010593,-0.007683,-0.997788,-0.066028,0.013817,0.044862,0.034640,-13.646733,-38.838158,-8.012852,,,,,,,
1558971555.437371,-0.117845,1.503494,-0.924359,-0.090221,0.007996,0.023955,-0.007907,-0.997736,-0.066785,0.009921,0.032221,0.032301,-13.644854,-38.844074,-7.987298,,,,,,,
1558971555.457357,-0.129450,1.500472,-0.911823,-0.230676,0.062766,0.107642,-0.009071,-0.997528,-0.069678,-0.000970,0.017700,-0.001993,-13.676286,-38.811249,-8.092445,,,,,,,
1558971555.477313,-0.163347,1.493960,-0.875868,-0.346689,0.121687,0.225554,-0.012483,-0.997050,-0.075739,-0.010817,0.015909,-0.014929,-13.717197,-38.774887,-8.196833,,,,,,,
1558971555.497328,-0.213535,1.484798,-0.822228,-0.340110,0.196750,0.259378,-0.018202,-0.996304,-0.083941,-0.042177,0.004498,-0.038846,-13.978716,-38.574646,-8.685254,,,,,,,
1558971555.517316,-0.243780,1.478553,-0.787776,-0.136672,0.176465,0.132299,-0.022233,-0.995749,-0.089389,-0.016936,-0.004068,-0.021283,-14.111526,-38.462990,-8.961282,,,,,,,
1558971555.537271,-0.254678,1.479572,-0.776109,0.173619,-0.050516,-0.006284,-0.022951,-0.995842,-0.088159,-0.002394,-0.005013,-0.012487,-14.164724,-38.422913,-9.048860,,,,,,,
1558971555.557278,-0.257188,1.485203,-0.775541,0.232109,-0.093184,-0.060029,-0.021745,-0.996339,-0.082678,0.011003,-0.004531,0.019232,-14.164698,-38.472958,-8.833712,,,,,,,
1558971555.577275,-0.255943,1.488566,-0.777814,0.115221,-0.023842,-0.045580,-0.020794,-0.996621,-0.079462,0.017254,-0.004645,0.021677,-14.125439,-38.524487,-8.670506,,,,,,,
1558971555.597238,-0.252557,1.490056,-0.780872,0.058950,0.032514,-0.019462,-0.020154,-0.996742,-0.078094,0.020947,0.009056,0.028045,-14.094920,-38.554504,-8.586329,,,,,,,
1558971555.617238,-0.251727,1.493672,-0.781369,0.114146,-0.011094,-0.005959,-0.019191,-0.997027,-0.074619,0.019053,0.023074,0.045765,-14.072964,-38.575840,-8.526308,,,,,,,
1558971555.637233,-0.262618,1.496688,-0.771759,0.173491,-0.090678,-0.003470,-0.019221,-0.997255,-0.071501,0.003322,0.016527,0.052016,-14.049710,-38.625202,-8.339121,,,,,,,
1558971555.657212,-0.282257,1.500024,-0.754092,0.174484,-0.096974,0.030635,-0.019695,-0.997497,-0.067915,-0.006016,0.015090,0.043700,-14.057299,-38.639965,-8.257526,,,,,,,
1558971555.677188,-0.316753,1.503563,-0.721088,0.099036,-0.053223,0.042738,-0.020926,-0.997741,-0.063841,-0.014306,0.008086,0.024091,-14.128257,-38.672901,-7.977517,,,,,,,
1558971555.697193,-0.334642,1.503517,-0.703056,-0.030587,0.033115,0.069084,-0.022080,-0.997738,-0.063499,-0.006744,0.012401,0.001381,-14.170752,-38.666203,-7.934494,,,,,,,
1558971555.717158,-0.350325,1.501808,-0.686519,-0.059304,0.039605,0.066989,-0.023658,-0.997621,-0.064747,-0.011132,0.008608,-0.004971,-14.216000,-38.641739,-7.972647,,,,,,,
1558971555.737161,-0.359846,1.500989,-0.676498,-0.001871,0.006476,0.027215,-0.024561,-0.997564,-0.065283,-0.011358,0.015051,-0.005014,-14.266788,-38.611504,-8.028217,,,,,,,
1558971555.757150,-0.365002,1.501362,-0.671851,0.039593,-0.036112,-0.032946,-0.024765,-0.997590,-0.064808,-0.012574,0.018358,-0.001080,-14.287423,-38.606838,-8.013916,,,,,,,
1558971555.777124,-0.363714,1.502833,-0.673754,0.033241,-0.023385,-0.026423,-0.024159,-0.997691,-0.063468,-0.000438,0.022395,0.015647,-14.270880,-38.619373,-7.982949,,,,,,,
1558971555.797125,-0.364176,1.504689,-0.673695,-0.022098,-0.018860,-0.022155,-0.023529,-0.997816,-0.061728,0.004212,0.025419,0.026846,-14.248930,-38.643745,-7.903838,,,,,,,
1558971555.817095,-0.345122,1.505378,-0.693001,-0.092274,-0.006897,-0.044520,-0.022116,-0.997861,-0.061518,0.012915,0.030286,0.022074,-14.220375,-38.664478,-7.853696,,,,,,,
1558971555.837096,-0.315336,1.505082,-0.723049,-0.094513,-0.019498,0.003395,-0.020365,-0.997842,-0.062428,0.024485,0.036599,0.018971,-14.151116,-38.685146,-7.877003,,,,,,,
1558971555.857083,-0.299489,1.504865,-0.739480,-0.074417,-0.039621,0.048053,-0.019438,-0.997827,-0.062951,0.026198,0.028482,0.017099,-14.107883,-38.693798,-7.911951,,,,,,,
1558971555.877062,-0.305329,1.504203,-0.734811,-0.060748,-0.074517,0.086161,-0.020004,-0.997783,-0.063467,0.012145,0.006298,0.012121,-14.091700,-38.700397,-7.908515,,,,,,,
1558971555.897055,-0.336978,1.502401,-0.704645,-0.071429,-0.070182,0.120360,-0.022596,-0.997662,-0.064498,-0.010134,-0.013599,0.000732,-14.161283,-38.673763,-7.914526,,,,,,,
1558971555.917042,-0.364594,1.499760,-0.677868,-0.098951,-0.028801,0.136717,-0.025309,-0.997478,-0.066312,-0.028967,-0.024708,-0.008944,-14.306578,-38.608776,-7.970293,,,,,,,
1558971555.937028,-0.400607,1.496695,-0.642201,-0.062702,-0.020566,0.116544,-0.028871,-0.997256,-0.068172,-0.034498,-0.031400,-0.011189,-14.387312,-38.568531,-8.019670,,,,,,,
1558971555.957014,-0.417821,1.495488,-0.625590,-0.014784,-0.042044,0.058723,-0.030529,-0.997166,-0.068765,-0.044361,-0.041744,-0.008994,-14.494950,-38.519588,-8.060997,,,,,,,
1558971555.977001,-0.437950,1.494961,-0.606687,0.026688,-0.078277,0.007167,-0.032130,-0.997126,-0.068613,-0.036596,-0.035192,-0.005819,-14.552090,-38.497082,-8.065551,,,,,,,
1558971555.996987,-0.439296,1.495908,-0.607353,0.041566,-0.105903,-0.036859,-0.031821,-0.997197,-0.067715,-0.010751,-0.021815,-0.001758,-14.612233,-38.488224,-7.998785,,,,,,,
1558971556.016972,-0.436812,1.496641,-0.611455,0.009783,-0.060286,-0.037515,-0.031343,-0.997252,-0.067131,-0.007598,-0.018541,0.000572,-14.612233,-38.488224,-7.998785,,,,,,,
1558971556.036959,-0.427634,1.496564,-0.621530,-0.038069,-0.042056,-0.030973,-0.030757,-0.997246,-0.067486,0.005489,-0.000145,-0.001987,-14.594877,-38.507927,-7.935397,,,,,,,
1558971556.056931,-0.412889,1.495831,-0.636995,-0.058237,-0.028222,-0.039398,-0.030052,-0.997191,-0.068601,0.002312,0.002044,-0.004366,-14.564393,-38.513172,-7.965903,,,,,,,
1558971556.076916,-0.399294,1.495363,-0.651514,-0.027460,-0.054803,-0.035358,-0.029299,-0.997156,-0.069434,-0.000929,0.000483,-0.009515,-14.551065,-38.514580,-7.983415,,,,,,,
1558971556.096889,-0.393919,1.495065,-0.657943,0.003416,-0.046490,-0.022441,-0.029039,-0.997134,-0.069865,-0.008910,0.005801,-0.018056,-14.531449,-38.518089,-8.002202,,,,,,,
1558971556.116900,-0.388318,1.495063,-0.664167,-0.019909,-0.018888,-0.024331,-0.028648,-0.997134,-0.070028,-0.012917,0.007708,-0.015071,-14.524281,-38.522598,-7.993507,,,,,,,
1558971556.136880,-0.375545,1.494751,-0.677185,-0.035806,-0.008269,-0.047730,-0.027865,-0.997110,-0.070677,-0.010419,0.003870,-0.014894,-14.504952,-38.527283,-8.006010,,,,,,,
1558971556.156856,-0.361235,1.493747,-0.691564,-0.022967,0.007501,-0.059311,-0.027205,-0.997033,-0.072006,-0.005541,0.002358,-0.007142,-14.467714,-38.530933,-8.055655,,,,,,,
1558971556.176863,-0.351257,1.493818,-0.701621,-0.001762,-0.014797,-0.052033,-0.026460,-0.997039,-0.072206,-0.011671,0.004775,-0.001265,-14.439616,-38.537323,-8.075519,,,,,,,
1558971556.196847,-0.341242,1.494048,-0.712302,0.005650,-0.031765,-0.062864,-0.025659,-0.997056,-0.072252,-0.011114,0.011796,-0.002409,-14.427800,-38.541546,-8.076466,,,,,,,
1558971556.216837,-0.324813,1.493820,-0.729042,0.006785,0.001030,-0.040130,-0.024541,-0.997039,-0.072879,0.007604,0.018950,-0.013593,-14.381356,-38.559494,-8.073654,,,,,,,
1558971556.236822,-0.316548,1.493892,-0.736734,0.003678,0.039136,-0.015212,-0.023916,-0.997044,-0.073012,0.006338,0.018162,-0.007036,-14.353488,-38.566360,-8.090411,,,,,,,
1558971556.256807,-0.310169,1.494046,-0.742386,0.005806,0.034884,-0.023793,-0.023403,-0.997056,-0.073017,0.001827,0.017320,0.000996,-14.325101,-38.572720,-8.110371,,,,,,,
1558971556.276770,-0.307641,1.494655,-0.744247,0.034538,0.033680,-0.020578,-0.023034,-0.997103,-0.072496,-0.003119,0.012712,0.002047,-14.297107,-38.583450,-8.108746,,,,,,,
1558971556.296781,-0.307848,1.495805,-0.743492,0.061106,0.024040,-0.012108,-0.022702,-0.997190,-0.071399,-0.001178,0.011411,0.002169,-14.285651,-38.591877,-8.088799,,,,,,,
1558971556.316767,-0.314479,1.497176,-0.736021,0.083597,0.067265,-0.008472,-0.022752,-0.997291,-0.069947,-0.009414,0.009239,-0.000762,-14.284887,-38.601185,-8.045638,,,,,,,
1558971556.336744,-0.306983,1.495755,-0.745499,-0.156671,-0.159777,-0.001229,-0.022655,-0.997186,-0.071467,-0.021641,0.003304,0.264841,-14.277915,-38.605705,-8.036305,,,,,,,
1558971556.356735,-0.282046,1.490405,-0.772232,-0.334257,-0.104939,-0.002981,-0.022350,-0.996770,-0.077132,-0.028110,-0.012476,0.078764,-14.277635,-38.572563,-8.194390,,,,,,,
1558971556.376726,-0.266142,1.484706,-0.789246,-0.254312,-0.061989,0.018847,-0.022615,-0.996297,-0.082956,-0.000487,0.004521,0.016382,-14.284373,-38.545506,-8.309158,,,,,,,
1558971556.396713,-0.259591,1.481910,-0.796892,-0.084963,-0.049192,-0.017195,-0.022786,-0.996052,-0.085795,-0.016490,0.018757,-0.062322,-14.310521,-38.484200,-8.545002,,,,,,,
1558971556.416674,-0.256304,1.482751,-0.801680,0.111900,-0.077736,-0.035461,-0.022291,-0.996126,-0.085059,-0.000780,0.010409,-0.047387,-14.301480,-38.489429,-8.536571,,,,,,,
1558971556.436673,-0.259716,1.486276,-0.799895,0.184285,-0.081299,-0.042911,-0.021679,-0.996430,-0.081588,0.002835,0.010117,-0.036866,-14.295003,-38.505348,-8.475424,,,,,,,
1558971556.456646,-0.260345,1.488973,-0.800740,0.080015,-0.060650,-0.031053,-0.021039,-0.996654,-0.078978,-0.000476,0.009075,-0.004473,-14.269163,-38.563347,-8.252308,,,,,,,
1558971556.476640,-0.258079,1.489203,-0.803527,-0.022030,-0.004052,-0.003901,-0.020801,-0.996673,-0.078803,0.005787,0.010879,-0.012964,-14.265679,-38.568855,-8.232569,,,,,,,
1558971556.496621,-0.256177,1.488639,-0.805293,-0.024130,0.005474,-0.002744,-0.020794,-0.996627,-0.079387,0.004238,0.012740,-0.021275,-14.259219,-38.571381,-8.231936,,,,,,,
1558971556.516628,-0.252587,1.488819,-0.809304,0.023669,-0.036035,-0.025524,-0.020464,-0.996642,-0.079288,0.007571,0.013320,-0.027325,-14.250886,-38.572475,-8.241249,,,,,,,
1558971556.536616,-0.248917,1.489525,-0.813745,0.019432,-0.030731,-0.027612,-0.019999,-0.996699,-0.078679,0.005015,0.012858,-0.025340,-14.247452,-38.575268,-8.234119,,,,,,,
1558971556.556603,-0.239674,1.488255,-0.822970,-0.051759,0.019353,-0.006905,-0.019572,-0.996595,-0.080091,0.002207,0.016859,-0.022738,-14.229011,-38.589630,-8.198618,,,,,,,
1558971556.576589,-0.230507,1.485386,-0.831397,-0.074049,0.042731,-0.002429,-0.019490,-0.996355,-0.083050,0.000310,0.018984,-0.018848,-14.214255,-38.573566,-8.299181,,,,,,,
1558971556.596576,-0.219141,1.482807,-0.842095,-0.025154,0.021327,-0.006866,-0.019103,-0.996131,-0.085774,0.004287,0.014732,-0.010708,-14.198359,-38.541538,-8.473389,,,,,,,
1558971556.616545,-0.216592,1.482906,-0.844406,0.022707,0.013691,0.002707,-0.018864,-0.996140,-0.085726,0.004658,0.012787,-0.002927,-14.198359,-38.541538,-8.473389,,,,,,,
1558971556.636532,-0.223097,1.483944,-0.837392,0.003579,0.028609,0.015647,-0.019192,-0.996231,-0.084593,-0.002247,0.003433,0.012145,-14.185770,-38.546417,-8.472263,,,,,,,
1558971556.656534,-0.223970,1.483370,-0.835759,-0.042137,0.046821,0.017920,-0.019393,-0.996181,-0.085135,-0.003114,0.003856,0.010687,-14.192843,-38.542267,-8.479273,,,,,,,
1558971556.676492,-0.225020,1.482772,-0.833561,-0.013389,0.056207,0.034046,-0.019615,-0.996128,-0.085694,0.008598,0.005177,0.003342,-14.189348,-38.536491,-8.511327,,,,,,,
1558971556.696499,-0.234613,1.483659,-0.823222,0.063138,0.020925,0.034837,-0.020231,-0.996206,-0.084643,-0.004137,0.001547,0.009494,-14.205960,-38.528679,-8.518991,,,,,,,
1558971556.716493,-0.246788,1.485367,-0.810907,0.079106,0.007055,0.004824,-0.020844,-0.996353,-0.082740,-0.011352,-0.004486,0.009834,-14.224529,-38.533142,-8.467672,,,,,,,
1558971556.736459,-0.255812,1.486862,-0.801563,0.081283,0.019721,0.000678,-0.021213,-0.996480,-0.081108,-0.011135,-0.016735,0.000969,-14.253962,-38.538593,-8.393014,,,,,,,
1558971556.756467,-0.265389,1.488415,-0.791232,0.057969,0.049433,-0.003325,-0.021583,-0.996609,-0.079407,-0.004464,-0.010624,0.005814,-14.261444,-38.550694,-8.324486,,,,,,,
1558971556.776451,-0.270863,1.489699,-0.784682,0.064335,0.048360,0.008414,-0.021675,-0.996713,-0.078055,-0.001656,-0.009588,0.005621,-14.260644,-38.557262,-8.295362,,,,,,,
1558971556.796438,-0.270952,1.491035,-0.786072,-0.060485,-0.382321,-0.042785,-0.021325,-0.996821,-0.076770,0.118997,-0.003515,0.459857,-14.257572,-38.569576,-8.243238,,,,,,,
1558971556.816425,-0.259851,1.489252,-0.798957,-0.194321,0.024258,-0.053947,-0.020928,-0.996677,-0.078719,-0.034934,-0.021557,-0.070649,-14.261006,-38.574562,-8.213905,,,,,,,
1558971556.836398,-0.243872,1.484512,-0.814838,-0.238967,0.063669,-0.008765,-0.020809,-0.996280,-0.083628,-0.007756,-0.013684,0.068338,-14.251382,-38.550476,-8.342708,,,,,,,
1558971556.856397,-0.231223,1.481352,-0.826924,-0.103810,0.048141,-0.021617,-0.020471,-0.996003,-0.086948,-0.023399,-0.009735,-0.030530,-14.238460,-38.514763,-8.527649,,,,,,,
1558971556.876384,-0.223904,1.481645,-0.834708,0.082159,-0.058572,-0.044910,-0.019769,-0.996029,-0.086811,0.004876,0.001339,-0.019466,-14.209192,-38.511608,-8.590486,,,,,,,
1558971556.896350,-0.220287,1.484487,-0.839912,0.135369,-0.068383,-0.056706,-0.018836,-0.996278,-0.084119,0.002173,-0.000655,-0.014941,-14.190441,-38.536457,-8.509653,,,,,,,
1558971556.916355,-0.212860,1.485947,-0.847998,0.011008,-0.005343,-0.041255,-0.017904,-0.996402,-0.082835,-0.003642,-0.000302,0.005671,-14.158449,-38.572231,-8.400166,,,,,,,
1558971556.936343,-0.203930,1.485401,-0.856677,-0.038946,0.010786,-0.026228,-0.017273,-0.996356,-0.083525,0.010514,0.015689,0.001555,-14.121928,-38.583611,-8.409389,,,,,,,
1558971556.956317,-0.198635,1.485611,-0.862166,0.037593,-0.019208,-0.023251,-0.016789,-0.996374,-0.083409,0.007771,0.017599,-0.006267,-14.106397,-38.586269,-8.423246,,,,,,,
1558971556.976314,-0.195193,1.487040,-0.866083,0.068450,-0.027841,-0.032918,-0.016226,-0.996495,-0.082070,0.003195,0.015431,-0.002662,-14.089471,-38.601044,-8.383783,,,,,,,
1558971556.996302,-0.191462,1.487907,-0.870335,0.019484,-0.019101,-0.014723,-0.015755,-0.996567,-0.081281,-0.007255,0.013428,0.009474,-14.065557,-38.623455,-8.320484,,,,,,,
1558971557.016284,-0.190592,1.488207,-0.871325,0.021641,-0.005353,-0.002846,-0.015628,-0.996591,-0.081002,-0.007321,0.021417,0.005074,-14.060589,-38.627518,-8.310019,,,,,,,
1558971557.036273,-0.193294,1.489184,-0.868894,0.044000,-0.015002,-0.013609,-0.015660,-0.996672,-0.080003,-0.004055,0.024305,0.007585,-14.065212,-38.632439,-8.279249,,,,,,,
1558971557.056261,-0.189559,1.490201,-0.872601,0.019629,0.013648,-0.025099,-0.015170,-0.996754,-0.079065,0.002062,0.024250,0.005304,-14.061499,-38.641121,-8.244965,,,,,,,
1558971557.076247,-0.188657,1.491529,-0.873141,0.032328,0.009417,0.017575,-0.014850,-0.996860,-0.077779,0.000476,0.021640,0.013509,-14.025421,-38.663254,-8.202553,,,,,,,
1558971557.096232,-0.201514,1.492494,-0.860536,0.033279,-0.025470,0.017244,-0.015656,-0.996936,-0.076640,-0.009734,0.016467,0.012034,-14.037539,-38.666946,-8.164332,,,,,,,
1558971557.116219,-0.209262,1.492941,-0.853429,0.017332,-0.029648,-0.005228,-0.016157,-0.996971,-0.076080,-0.001009,0.010917,-0.001816,-14.078915,-38.661995,-8.116423,,,,,,,
1558971557.136205,-0.189533,1.492446,-0.873321,0.016344,-0.002151,0.001435,-0.014746,-0.996932,-0.076868,0.014700,0.024764,-0.009695,-14.047584,-38.672939,-8.118551,,,,,,,
1558971557.156191,-0.185779,1.492499,-0.876877,-0.004906,0.018070,0.018692,-0.014447,-0.996936,-0.076870,0.015363,0.028110,-0.002704,-14.031375,-38.677544,-8.124624,,,,,,,
1558971557.176158,-0.192243,1.491821,-0.869782,-0.048542,0.038441,0.058354,-0.015074,-0.996883,-0.077441,-0.002321,0.013668,0.008303,-14.008699,-38.682098,-8.142067,,,,,,,
1558971557.196164,-0.233980,1.491309,-0.827429,-0.068759,0.024831,0.056068,-0.018410,-0.996843,-0.077240,-0.033455,-0.017318,0.021195,-14.119030,-38.635670,-8.171877,,,,,,,
1558971557.216137,-0.253803,1.490140,-0.807278,-0.063449,0.015274,0.045308,-0.020230,-0.996749,-0.077988,-0.034732,-0.019807,0.022400,-14.173470,-38.614655,-8.176964,,,,,,,
1558971557.236131,-0.262213,1.489221,-0.798653,-0.012385,0.005490,0.044187,-0.021122,-0.996675,-0.078699,-0.016643,-0.016646,0.027887,-14.259523,-38.573421,-8.221844,,,,,,,
1558971557.256122,-0.271363,1.489511,-0.789495,0.041889,-0.005386,0.030247,-0.021764,-0.996698,-0.078225,-0.006434,-0.014242,0.029122,-14.280951,-38.565697,-8.220886,,,,,,,
1558971557.276097,-0.286280,1.491152,-0.774555,0.056843,0.008273,0.028255,-0.022467,-0.996830,-0.076322,-0.003611,-0.007351,0.027998,-14.298849,-38.564274,-8.196417,,,,,,,
1558971557.296078,-0.299997,1.492237,-0.760779,0.075908,-0.012942,0.045149,-0.023192,-0.996916,-0.074974,0.013716,-0.006121,0.040641,-14.338824,-38.570724,-8.095616,,,,,,,
1558971557.316083,-0.317554,1.493431,-0.743936,0.068352,-0.048854,0.036258,-0.024133,-0.997009,-0.073424,0.013955,-0.005127,0.036055,-14.369062,-38.570141,-8.044621,,,,,,,
1558971557.336038,-0.324669,1.494677,-0.737980,0.014078,-0.061306,0.000862,-0.024258,-0.997104,-0.072073,0.010571,0.007938,0.010305,-14.393055,-38.579189,-7.957866,,,,,,,
1558971557.356049,-0.309321,1.495027,-0.754230,0.018481,-0.040170,-0.013893,-0.023043,-0.997131,-0.072105,0.020144,0.018173,-0.007775,-14.381628,-38.589909,-7.926507,,,,,,,
1558971557.376041,-0.308786,1.495797,-0.756007,0.042820,-0.083635,-0.013222,-0.022771,-0.997189,-0.071386,0.030523,0.030712,-0.014475,-14.351788,-38.606205,-7.901193,,,,,,,
1558971557.396009,-0.318167,1.496179,-0.748664,0.008624,-0.098169,0.043197,-0.023320,-0.997217,-0.070806,0.031819,0.031931,-0.023112,-14.355931,-38.610714,-7.871557,,,,,,,
1558971557.416012,-0.321123,1.494965,-0.746822,0.002318,-0.046258,0.100269,-0.023912,-0.997126,-0.071886,0.043107,0.005656,-0.039763,-14.391752,-38.598267,-7.867212,,,,,,,
1558971557.435999,-0.354225,1.494724,-0.714581,0.043780,-0.053848,0.118380,-0.026361,-0.997108,-0.071281,0.038706,0.005775,-0.035974,-14.487585,-38.568035,-7.839506,,,,,,,
1558971557.455972,-0.381220,1.494987,-0.688742,0.038496,-0.066584,0.064871,-0.028178,-0.997128,-0.070300,0.017192,-0.003208,-0.016370,-14.535266,-38.555397,-7.813365,,,,,,,
1558971557.475948,-0.385806,1.494534,-0.685674,-0.055134,-0.083103,-0.001556,-0.028670,-0.997093,-0.070588,-0.017686,-0.018165,0.015931,-14.612782,-38.537148,-7.758624,,,,,,,
1558971557.495958,-0.369207,1.491790,-0.704186,-0.216939,-0.090730,-0.015638,-0.028482,-0.996881,-0.073606,-0.013907,-0.009803,0.015165,-14.617215,-38.523151,-7.819578,,,,,,,
1558971557.515939,-0.353722,1.486572,-0.720847,-0.285906,-0.032142,0.007288,-0.029140,-0.996455,-0.078917,-0.018483,-0.002141,0.007383,-14.618654,-38.506748,-7.897301,,,,,,,
1558971557.535932,-0.339792,1.481973,-0.735526,-0.195477,-0.042112,0.020077,-0.029565,-0.996058,-0.083635,-0.027991,0.020182,-0.021315,-14.663085,-38.430149,-8.182859,,,,,,,
1558971557.555917,-0.331716,1.480112,-0.744570,-0.047470,-0.050359,-0.026860,-0.029492,-0.995891,-0.085623,-0.033633,0.021617,-0.018229,-14.674516,-38.408520,-8.263527,,,,,,,
1558971557.575903,-0.331094,1.480715,-0.746658,0.022687,-0.083503,-0.032459,-0.029244,-0.995945,-0.085074,-0.007896,0.014485,0.011679,-14.662626,-38.410511,-8.275346,,,,,,,
1558971557.595891,-0.325678,1.480722,-0.753401,-0.044246,-0.041922,-0.027844,-0.028781,-0.995946,-0.085225,-0.012876,0.007527,0.015233,-14.660334,-38.422577,-8.223260,,,,,,,
1558971557.615862,-0.317306,1.479032,-0.762025,-0.115440,-0.000314,-0.021096,-0.028591,-0.995793,-0.087060,-0.006901,0.004139,0.003854,-14.648847,-38.419624,-8.257446,,,,,,,
1558971557.635862,-0.306238,1.476966,-0.773354,-0.069724,-0.019589,-0.026582,-0.028246,-0.995601,-0.089334,-0.002546,0.012310,-0.009513,-14.642689,-38.404564,-8.338028,,,,,,,
1558971557.655849,-0.298683,1.475614,-0.781182,0.010118,-0.001992,0.005680,-0.027966,-0.995474,-0.090831,0.002484,0.008230,-0.018193,-14.630535,-38.392876,-8.412851,,,,,,,
1558971557.675829,-0.307103,1.475121,-0.772277,0.098544,0.035727,0.049899,-0.028879,-0.995427,-0.091060,-0.002966,0.010289,-0.017689,-14.641780,-38.378948,-8.456719,,,,,,,
1558971557.695821,-0.326182,1.477309,-0.752786,0.156925,-0.010018,0.059116,-0.029912,-0.995633,-0.088429,0.004476,0.004148,-0.001216,-14.681221,-38.373405,-8.413378,,,,,,,
1558971557.715808,-0.345678,1.479619,-0.733682,0.063329,-0.010661,0.006722,-0.030851,-0.995846,-0.085665,-0.009600,-0.006122,0.008684,-14.725573,-38.388645,-8.265043,,,,,,,
1558971557.735766,-0.342607,1.479581,-0.736347,-0.049358,0.034326,0.007061,-0.030601,-0.995843,-0.085796,0.012992,-0.002570,-0.003316,-14.740891,-38.389137,-8.235395,,,,,,,
1558971557.755779,-0.339169,1.478888,-0.738907,-0.002531,0.038330,0.022083,-0.030535,-0.995779,-0.086550,0.013186,-0.002664,-0.004301,-14.729000,-38.384907,-8.276299,,,,,,,
1558971557.775767,-0.335249,1.479278,-0.742185,0.056009,0.028482,0.003883,-0.030068,-0.995815,-0.086303,0.008095,0.003444,-0.010941,-14.706039,-38.388111,-8.302211,,,,,,,
1558971557.795753,-0.335331,1.478903,-0.741160,0.029503,0.060326,-0.000103,-0.030198,-0.995781,-0.086653,-0.009292,0.011238,-0.013765,-14.691732,-38.392979,-8.305063,,,,,,,
1558971557.815738,-0.338403,1.479080,-0.736845,0.034802,0.053957,0.000908,-0.030405,-0.995797,-0.086393,-0.009008,0.012582,-0.009249,-14.694903,-38.388885,-8.318361,,,,,,,
1558971557.835725,-0.346276,1.479858,-0.728316,0.042229,0.024387,-0.005752,-0.030822,-0.995868,-0.085422,-0.010285,0.011523,0.005283,-14.709663,-38.382957,-8.319613,,,,,,,
1558971557.855700,-0.353953,1.480692,-0.720066,0.026271,0.037188,0.016779,-0.031189,-0.995943,-0.084405,0.004242,0.020251,0.003304,-14.726736,-38.387665,-8.267533,,,,,,,
1558971557.875691,-0.360731,1.481163,-0.712167,0.042273,0.059340,0.042627,-0.031594,-0.995986,-0.083752,0.010751,0.023574,0.004132,-14.728257,-38.388176,-8.262451,,,,,,,
1558971557.895656,-0.372765,1.482599,-0.698922,0.089077,0.052764,0.051141,-0.032079,-0.996113,-0.082034,0.008245,0.014424,0.010623,-14.747478,-38.388847,-8.224931,,,,,,,
1558971557.915670,-0.396164,1.484624,-0.674482,0.115666,0.047345,0.055381,-0.033212,-0.996289,-0.079401,-0.002067,0.009076,0.016702,-14.766117,-38.393864,-8.167903,,,,,,,
1558971557.935647,-0.419040,1.486584,-0.650727,0.076253,0.034857,0.047757,-0.034224,-0.996456,-0.076835,-0.002077,0.003018,0.029258,-14.795246,-38.397797,-8.096383,,,,,,,
1558971557.955624,-0.444339,1.488115,-0.624672,0.048582,0.039242,0.056318,-0.035501,-0.996584,-0.074568,-0.013418,-0.001799,0.022093,-14.845668,-38.403687,-7.975252,,,,,,,
1558971557.975629,-0.467322,1.488930,-0.600780,0.056056,0.040242,0.044591,-0.036840,-0.996651,-0.073007,-0.017985,-0.004051,0.021234,-14.883810,-38.397400,-7.934335,,,,,,,
1558971557.995610,-0.487927,1.489755,-0.579622,0.040138,0.024510,0.014548,-0.037950,-0.996718,-0.071506,-0.024290,-0.005189,0.022205,-14.950020,-38.386978,-7.859923,,,,,,,
1558971558.015602,-0.508230,1.490946,-0.559009,0.013513,0.011941,-0.001605,-0.038816,-0.996814,-0.069684,-0.003923,0.006762,0.016782,-14.984430,-38.386356,-7.797194,,,,,,,
1558971558.035588,-0.511652,1.491384,-0.555307,0.012461,0.018298,0.004861,-0.038841,-0.996848,-0.069170,0.000541,0.013709,0.015154,-14.986913,-38.389088,-7.778919,,,,,,,
1558971558.055555,-0.517950,1.492520,-0.548723,0.044320,0.003361,0.023959,-0.038715,-0.996938,-0.067941,0.014576,0.028173,0.014993,-14.985580,-38.396000,-7.747311,,,,,,,
1558971558.075541,-0.530487,1.494165,-0.536213,0.048551,-0.000874,0.034596,-0.038734,-0.997065,-0.066034,0.014030,0.035044,0.021998,-14.986826,-38.410305,-7.673663,,,,,,,
1558971558.095547,-0.543856,1.495152,-0.522724,-0.000428,0.001521,0.050592,-0.039104,-0.997140,-0.064669,0.008984,0.036645,0.024508,-14.992788,-38.419746,-7.614535,,,,,,,
1558971558.115524,-0.556417,1.495007,-0.510529,-0.023971,-0.031104,0.063072,-0.039990,-0.997129,-0.064296,0.006543,0.029188,0.015834,-15.010448,-38.419315,-7.581828,,,,,,,
1558971558.135494,-0.567528,1.494565,-0.500109,-0.002719,-0.036481,0.076915,-0.040938,-0.997096,-0.064218,0.017196,0.028681,0.005884,-15.069872,-38.398869,-7.567510,,,,,,,
1558971558.155488,-0.580535,1.493977,-0.487461,-0.006900,-0.011988,0.112367,-0.042092,-0.997051,-0.064171,0.018166,0.029460,0.003639,-15.089821,-38.393139,-7.556844,,,,,,,
1558971558.175492,-0.597826,1.492996,-0.469946,-0.015392,0.011363,0.147812,-0.043746,-0.996975,-0.064242,0.027266,0.021923,0.007876,-15.148399,-38.370033,-7.556996,,,,,,,
1558971558.195479,-0.617998,1.492027,-0.449639,-0.012257,-0.003441,0.155142,-0.045593,-0.996899,-0.064135,0.030410,0.008236,0.011812,-15.246556,-38.329861,-7.563466,,,,,,,
1558971558.215441,-0.644734,1.490939,-0.422949,-0.016517,-0.015079,0.132604,-0.047942,-0.996813,-0.063759,0.006957,-0.019010,0.014626,-15.295250,-38.313332,-7.548864,,,,,,,
1558971558.235450,-0.669060,1.489101,-0.399246,-0.050672,-0.043440,0.132306,-0.050615,-0.996665,-0.064010,-0.015303,-0.044244,0.013244,-15.396217,-38.276512,-7.530375,,,,,,,
1558971558.255434,-0.682212,1.485767,-0.386692,-0.128292,-0.010244,0.146441,-0.053548,-0.996387,-0.065919,0.002583,-0.104885,-0.007720,-15.536695,-38.209568,-7.581648,,,,,,,
1558971558.275408,-0.684044,1.481302,-0.383009,-0.163943,0.162263,0.164078,-0.056479,-0.995998,-0.069268,0.095969,-0.216954,-0.032478,-15.618099,-38.158176,-7.672688,,,,,,,
1558971558.295410,-0.698200,1.476974,-0.364177,-0.071119,0.257003,0.229118,-0.060224,-0.995602,-0.071762,0.111875,-0.366947,-0.024887,-15.722500,-38.080448,-7.843722,,,,,,,
1558971558.315397,-0.740621,1.475067,-0.316110,0.206826,0.265196,0.222992,-0.064494,-0.995421,-0.070545,0.058848,-0.614304,-0.036236,-15.890471,-37.986336,-7.960704,,,,,,,
1558971558.335377,-0.827049,1.480301,-0.224019,0.649858,0.252050,0.056668,-0.066508,-0.995908,-0.061186,-0.046163,-0.926074,-0.078890,-15.961319,-37.981197,-7.842599,,,,,,,
1558971558.355368,-0.945376,1.492767,-0.099574,0.841205,0.324473,-0.320433,-0.063196,-0.996957,-0.045636,-0.162145,-1.160987,-0.066089,-15.934511,-38.079758,-7.407091,,,,,,,
1558971558.375356,-1.024710,1.513743,-0.012334,0.816885,0.409279,-0.951688,-0.048729,-0.998373,-0.029614,-0.300010,-1.248789,-0.022357,-15.412808,-38.415024,-6.750744,,,,,,,
1558971558.395329,-1.041635,1.543902,0.011317,0.825655,0.267936,-1.431340,-0.023212,-0.999638,-0.013574,-0.238873,-1.239818,-0.035635,-14.475972,-38.864265,-6.233499,,,,,,,
1558971558.415327,1.879425,1.561179,-2.908085,0.825133,-0.023171,-1.721324,0.009164,-0.999954,0.002922,-0.291924,-1.195328,-0.072593,-13.888308,-39.123043,-5.945079,,,,,,,
1558971558.435293,1.957459,1.519883,-2.989544,0.830178,-0.236077,-2.003081,0.047134,-0.998704,0.019191,-0.411239,-0.951049,-0.137340,-16.978369,-40.523476,-4.296357,,,,,,,
1558971558.455272,1.957096,1.474272,-2.994918,0.917392,-0.313878,-2.124401,0.089273,-0.995345,0.036311,-0.399988,-0.761674,-0.179911,-15.302184,-41.260143,-3.509960,,,,,,,
1558971558.475259,1.971805,1.427795,-3.016273,1.057832,-0.316668,-2.082677,0.131209,-0.989793,0.055630,-0.453978,-0.645263,-0.196927,-14.434887,-41.605934,-3.075077,,,,,,,
1558971558.495266,1.979865,1.380641,-3.029759,0.972061,-0.225466,-2.184366,0.173417,-0.981975,0.075180,-0.619630,-0.251729,-0.163102,-11.809382,-42.505421,-1.644163,,,,,,,
1558971558.515247,1.960221,1.332603,-3.013090,0.632840,-0.174183,-2.304792,0.218282,-0.971766,0.089579,-0.646901,0.027079,-0.127894,-9.887966,-43.015594,-0.873279,,,,,,,
1558971558.535223,1.919526,1.288043,-2.976155,0.205409,-0.297557,-2.194212,0.262207,-0.960291,0.095336,-0.601715,0.117044,-0.127669,-8.898816,-43.235622,-0.606430,,,,,,,
1558971558.555204,1.872490,1.249720,-2.933548,-0.086667,-0.294552,-1.916829,0.301335,-0.948896,0.093773,-0.604344,0.394758,-0.197136,-6.105588,-43.720707,-0.312358,,,,,,,
1558971558.575218,1.827548,1.213379,-2.888650,-0.289907,-0.009350,-2.051988,0.338388,-0.936804,0.088842,-0.699929,0.554525,-0.199453,-4.425606,-43.921501,-0.437444,,,,,,,
1558971558.595193,1.786181,1.170885,-2.840666,-0.397212,0.226435,-2.382923,0.380340,-0.921096,0.083210,-0.741058,0.626174,-0.170155,-3.501902,-44.003197,-0.575303,,,,,,,
1558971558.615192,1.749987,1.122868,-2.795087,-0.471165,0.286713,-2.624762,0.426165,-0.901346,0.077193,-0.521181,0.828821,-0.091017,-0.307112,-44.130562,-1.129100,,,,,,,
1558971558.635177,1.721999,1.071701,-2.757942,-0.345730,0.218355,-2.658413,0.473171,-0.878016,0.072095,-0.414394,0.912592,-0.056104,2.041553,-44.072716,-1.517897,,,,,,,
1558971558.655162,1.707368,1.020428,-2.737584,0.005092,0.113034,-2.584405,0.518131,-0.852332,0.071205,-0.385426,0.919806,-0.039009,3.210617,-43.998295,-1.648578,,,,,,,
1558971558.675150,1.705000,0.968957,-2.733192,0.355048,0.044637,-2.561291,0.561068,-0.824296,0.075753,-0.184024,0.958085,0.014762,6.614217,-43.619469,-1.571594,,,,,,,
1558971558.695135,1.709978,0.917487,-2.739039,0.602767,-0.015751,-2.490138,0.601940,-0.794076,0.084324,-0.062924,0.970178,0.064418,8.825045,-43.239201,-1.168650,,,,,,,
1558971558.715121,1.716121,0.869213,-2.748002,0.595934,-0.041783,-2.250173,0.638624,-0.763821,0.093467,-0.041746,0.989071,0.087914,9.887835,-43.014961,-0.905429,,,,,,,
1558971558.735109,1.721080,0.828134,-2.754394,0.447573,0.032566,-1.822521,0.668629,-0.736671,0.101247,0.096111,1.060264,0.150065,12.689828,-42.282532,-0.176565,,,,,,,
1558971558.755084,1.722506,0.798013,-2.755723,0.163576,0.021116,-1.285831,0.690112,-0.715971,0.105507,0.236203,1.100172,0.165885,14.049667,-41.850555,0.118639,,,,,,,
1558971558.775081,1.720833,0.778366,-2.750800,-0.140054,0.149164,-0.837505,0.704062,-0.702117,0.106435,0.241815,1.103331,0.157893,14.560561,-41.675358,0.176063,,,,,,,
1558971558.795068,1.719238,0.768488,-2.741459,-0.295789,0.281802,-0.333498,0.711056,-0.695049,0.106333,0.300190,1.157390,0.170950,15.524078,-41.326443,0.063349,,,,,,,
1558971558.815051,1.719014,0.770032,-2.734406,-0.226690,0.199871,0.257249,0.710017,-0.696158,0.106015,0.262029,1.172980,0.191837,15.613894,-41.292549,-0.088094,,,,,,,
1558971558.835038,1.719669,0.781610,-2.731382,-0.188304,0.104160,0.713317,0.701929,-0.704423,0.105277,0.235784,1.165498,0.183999,15.375171,-41.381744,-0.175740,,,,,,,
1558971558.855009,1.720379,0.800382,-2.729745,-0.200539,0.096264,1.046337,0.688656,-0.717622,0.103786,0.135563,1.144273,0.160115,14.934878,-41.542183,-0.268717,,,,,,,
1558971558.875013,1.720851,0.826956,-2.729426,-0.217552,-0.023501,1.479710,0.669510,-0.735874,0.101224,-0.014206,1.088230,0.109775,13.546558,-42.013401,-0.490494,,,,,,,
1558971558.894979,1.717388,0.861838,-2.729626,-0.278569,-0.279476,1.855158,0.644061,-0.759040,0.095096,-0.082797,1.091071,0.103543,12.543927,-42.321411,-0.651297,,,,,,,
1558971558.914958,1.707948,0.902582,-2.729187,-0.306463,-0.555897,2.103387,0.613767,-0.784929,0.084711,-0.207914,1.027834,0.059912,11.360641,-42.650215,-0.878063,,,,,,,
1558971558.934971,1.694117,0.947322,-2.728948,-0.291374,-0.741746,2.280985,0.579425,-0.811855,0.071820,-0.373310,0.879009,0.002262,8.606141,-43.275135,-1.439779,,,,,,,
1558971558.954934,1.677406,0.994220,-2.727304,-0.340462,-0.750911,2.341713,0.542062,-0.838334,0.058009,-0.420037,0.835252,-0.010234,7.089218,-43.539070,-1.722888,,,,,,,
1558971558.974918,1.659396,1.043070,-2.720449,-0.471803,-0.511941,2.502930,0.501595,-0.863954,0.044558,-0.615380,0.645158,-0.055575,4.471034,-43.862492,-2.228761,,,,,,,
1558971558.994931,1.630295,1.098002,-2.700053,-0.864341,-0.622539,2.798363,0.454570,-0.890299,0.027078,-0.578425,0.603892,-0.042505,2.133724,-44.006416,-2.785400,,,,,,,
1558971559.014901,1.570356,1.155946,-2.649382,-1.353446,-0.729746,2.900507,0.403053,-0.915177,-0.000177,-0.493827,0.397141,-0.067038,0.236296,-44.010429,-3.449971,,,,,,,
1558971559.034878,1.476787,1.214981,-2.561366,-1.530656,-0.466372,3.104671,0.346817,-0.937363,-0.032701,-0.540802,0.140961,-0.201888,-3.075614,-43.755486,-4.987364,,,,,,,
1558971559.054889,1.363231,1.275156,-2.446752,-1.199789,-0.131760,3.253341,0.285099,-0.956616,-0.060041,-0.549442,0.056912,-0.214953,-5.168285,-43.440285,-5.925048,,,,,,,
1558971559.074868,1.234363,1.333680,-2.317718,-0.625736,-0.353539,3.279437,0.221731,-0.972019,-0.077546,-0.492453,-0.154003,-0.202621,-8.026272,-42.859852,-6.891178,,,,,,,
1558971559.094845,1.078893,1.390470,-2.170451,-0.038879,-0.651770,3.117973,0.158086,-0.983785,-0.084708,-0.506078,-0.415369,-0.199304,-11.554958,-41.978954,-7.288744,,,,,,,
1558971559.114848,0.890443,1.442160,-1.993318,0.458718,-0.654874,2.789506,0.099720,-0.991738,-0.080698,-0.500096,-0.601112,-0.188497,-14.130488,-41.237061,-6.979269,,,,,,,
1558971559.134834,0.564164,1.486767,-1.675276,0.504547,-0.358239,2.693091,0.044879,-0.996472,-0.070925,-0.453143,-0.691913,-0.173460,-15.309845,-40.863213,-6.684498,,,,,,,
1558971559.154821,-0.105378,1.505870,-1.006029,0.201644,0.025716,2.508618,-0.006824,-0.997893,-0.064521,-0.450298,-0.896776,-0.111123,-18.580378,-39.594170,-5.995584,,,,,,,
1558971559.174807,-0.696888,1.486983,-0.411609,-0.078921,0.057493,2.272747,-0.053731,-0.996490,-0.064196,-0.413310,-0.974183,-0.097456,-20.463224,-38.661659,-5.950476,,,,,,,
1558971559.194772,-0.946577,1.453514,-0.160859,-0.285211,-0.046625,1.897908,-0.094947,-0.993130,-0.068390,-0.422509,-0.979877,-0.087554,-21.322235,-38.186661,-6.001444,,,,,,,
1558971559.214779,-1.029478,1.424913,-0.079174,-0.338770,-0.119182,1.252312,-0.124584,-0.989378,-0.074903,-0.399800,-0.963518,-0.111758,-23.355337,-36.930527,-6.288094,,,,,,,
1558971559.234765,-1.065984,1.405232,-0.044664,-0.203994,-0.098270,0.865064,-0.144251,-0.986326,-0.079709,-0.305776,-0.845187,-0.136020,-24.165159,-36.378643,-6.443250,,,,,,,
1558971559.254751,-1.090397,1.391146,-0.019700,-0.130697,0.077535,0.642600,-0.158461,-0.983906,-0.082577,-0.284472,-0.793743,-0.119770,-24.472815,-36.163734,-6.491637,,,,,,,
1558971559.274739,-1.100695,1.380538,-0.006641,-0.135548,0.137537,0.459534,-0.168598,-0.981955,-0.085664,-0.262615,-0.622949,-0.059966,-25.127476,-35.674191,-6.696120,,,,,,,
1558971559.294719,-1.103962,1.373825,-0.000659,-0.058595,0.129399,0.235312,-0.174760,-0.980664,-0.088077,-0.197768,-0.502903,-0.032528,-25.332607,-35.506168,-6.815190,,,,,,,
1558971559.314710,-1.110660,1.372428,0.008445,0.106581,0.091232,0.031158,-0.176574,-0.980389,-0.087513,-0.129472,-0.404666,-0.003628,-25.463089,-35.395664,-6.903180,,,,,,,
1558971559.334698,-1.120141,1.374548,0.018616,0.128739,-0.018979,-0.079846,-0.175524,-0.980805,-0.084929,-0.054320,-0.338851,0.005019,-25.449154,-35.418304,-6.838137,,,,,,,
1558971559.354680,-1.125376,1.376448,0.022979,0.053000,-0.052356,-0.046062,-0.174283,-0.981174,-0.083206,-0.004138,-0.292523,-0.017670,-25.410225,-35.459827,-6.767351,,,,,,,
1558971559.374604,-1.125409,1.377621,0.022945,0.005468,0.042969,-0.083623,-0.173248,-0.981400,-0.082705,-0.013154,-0.250504,-0.028059,-25.383488,-35.489658,-6.711067,,,,,,,
1558971559.394592,-1.114385,1.380562,0.013757,-0.014315,0.116866,-0.216388,-0.169734,-0.981960,-0.083337,0.028224,-0.215687,-0.029105,-25.264875,-35.565521,-6.756887,,,,,,,
1558971559.414565,-1.105686,1.385461,0.007555,0.122047,0.136188,-0.245988,-0.164701,-0.982874,-0.082652,0.048994,-0.177114,-0.005513,-25.128023,-35.654247,-6.799477,,,,,,,
1558971559.434563,-1.115228,1.391317,0.018656,0.254619,0.008718,-0.200125,-0.160310,-0.983937,-0.078543,0.059602,-0.130931,0.017553,-24.940861,-35.793549,-6.756563,,,,,,,
1558971559.454551,-1.130066,1.396524,0.032285,0.176530,-0.097598,-0.178785,-0.156822,-0.984853,-0.073969,0.057228,-0.086085,0.019693,-24.771992,-35.953346,-6.525426,,,,,,,
1558971559.474532,-1.127848,1.404170,0.028527,0.006431,-0.052374,-0.222273,-0.149850,-0.986150,-0.071087,0.041100,-0.048655,0.017589,-24.681501,-36.034542,-6.419594,,,,,,,
1558971559.494523,-1.109441,1.408198,0.009064,-0.077585,-0.046706,-0.261789,-0.144957,-0.986810,-0.072064,0.030013,-0.019461,0.017590,-24.407795,-36.232254,-6.352887,,,,,,,
1558971559.514509,-1.083453,1.415315,-0.018491,-0.084066,-0.072026,-0.252439,-0.136827,-0.987937,-0.072516,0.020250,0.014655,0.008139,-24.204197,-36.368687,-6.352274,,,,,,,
1558971559.534496,-1.038075,1.418714,-0.065268,-0.122437,-0.061180,-0.201127,-0.130503,-0.988458,-0.076942,0.015650,0.057382,-0.021889,-23.844566,-36.590687,-6.436934,,,,,,,
1558971559.554479,-1.002320,1.419079,-0.101637,-0.156391,0.008874,-0.124681,-0.127366,-0.988513,-0.081364,0.010087,0.074145,-0.024410,-23.729364,-36.645657,-6.548970,,,,,,,
1558971559.574455,-0.952016,1.414878,-0.150786,-0.214739,0.091681,-0.086565,-0.126495,-0.987869,-0.090073,-0.000580,0.090988,-0.019027,-23.636196,-36.636848,-6.924405,,,,,,,
1558971559.594455,-0.922425,1.413682,-0.178675,-0.194533,0.092654,-0.071592,-0.124716,-0.987683,-0.094490,0.008063,0.104245,-0.015145,-23.579397,-36.623898,-7.181778,,,,,,,
1558971559.614415,-0.906514,1.412799,-0.193880,-0.061813,0.013818,-0.017790,-0.123884,-0.987544,-0.097000,0.007719,0.110912,-0.008286,-23.549404,-36.625984,-7.269024,,,,,,,
1558971559.634422,-0.913207,1.412923,-0.187578,0.089157,-0.037696,-0.006416,-0.124433,-0.987564,-0.096094,-0.000979,0.089248,0.007638,-23.528761,-36.629757,-7.316703,,,,,,,
1558971559.654413,-0.921710,1.413771,-0.180063,0.027403,-0.054324,-0.033314,-0.124578,-0.987697,-0.094526,0.004232,0.069423,0.007016,-23.557199,-36.628704,-7.229958,,,,,,,
1558971559.674389,-0.915738,1.412891,-0.186390,-0.116152,0.022636,0.034569,-0.124701,-0.987559,-0.095798,0.008857,0.065775,0.005328,-23.557812,-36.631454,-7.214007,,,,,,,
1558971559.694385,-0.898818,1.409544,-0.201568,-0.167078,0.117116,0.127248,-0.125649,-0.987027,-0.099951,0.026925,0.080411,-0.008859,-23.601641,-36.571487,-7.373237,,,,,,,
1558971559.714372,-0.891961,1.405042,-0.206107,-0.063926,0.099702,0.154922,-0.128418,-0.986294,-0.103599,0.011688,0.082852,-0.017891,-23.664289,-36.492516,-7.561332,,,,,,,
1558971559.734331,-0.897231,1.402907,-0.199240,0.072226,0.042876,0.095767,-0.130607,-0.985940,-0.104234,0.010352,0.074639,-0.018004,-23.709867,-36.445637,-7.644200,,,,,,,
1558971559.754326,-0.905586,1.402230,-0.190492,0.082651,-0.014230,0.114444,-0.131998,-0.985826,-0.103551,0.017725,0.069780,0.005391,-23.802526,-36.378658,-7.675201,,,,,,,
1558971559.774332,-0.920658,1.401177,-0.175286,0.047494,0.006133,0.178667,-0.134371,-0.985649,-0.102179,0.025393,0.059364,0.010794,-23.891035,-36.331596,-7.622924,,,,,,,
1558971559.794294,-0.940186,1.398623,-0.155262,0.046286,0.002042,0.266171,-0.138373,-0.985215,-0.101019,0.029837,0.055527,0.013555,-23.936777,-36.305656,-7.603011,,,,,,,
1558971559.814304,-0.959949,1.396131,-0.135367,0.022899,-0.009529,0.221197,-0.142353,-0.984785,-0.099673,0.019184,0.030622,0.012240,-24.170595,-36.164734,-7.534581,,,,,,,
1558971559.834269,-0.972544,1.392400,-0.122565,-0.041990,0.009858,0.234143,-0.146632,-0.984130,-0.099940,0.024882,0.023833,0.010829,-24.270000,-36.102135,-7.515220,,,,,,,
1558971559.854276,-0.980293,1.386972,-0.114014,-0.107961,0.040931,0.283499,-0.151837,-0.983152,-0.101774,0.018369,-0.007220,0.017912,-24.441494,-35.976795,-7.560394,,,,,,,
1558971559.874263,-0.991500,1.381358,-0.102492,-0.114531,-0.013993,0.287239,-0.157585,-0.982110,-0.103086,-0.002266,-0.019751,0.027677,-24.693996,-35.778744,-7.678798,,,,,,,
1558971559.894240,-0.997551,1.376088,-0.097395,-0.094379,-0.064929,0.224844,-0.162552,-0.981104,-0.104936,-0.007767,-0.042211,0.015398,-24.845181,-35.672371,-7.686018,,,,,,,
1558971559.914234,-1.005453,1.371982,-0.090570,-0.061336,-0.048179,0.232503,-0.166776,-0.980301,-0.105805,-0.001223,-0.071075,0.003938,-25.014688,-35.546989,-7.717045,,,,,,,
1558971559.934221,-1.011402,1.366938,-0.085026,-0.113410,-0.016176,0.245579,-0.171591,-0.979293,-0.107434,-0.019556,-0.087831,0.007214,-25.222301,-35.394016,-7.744349,,,,,,,
1558971559.954195,-1.012525,1.361475,-0.083625,-0.129210,0.030402,0.236403,-0.176247,-0.978172,-0.110074,-0.023796,-0.118477,0.001065,-25.351753,-35.287155,-7.809062,,,,,,,
1558971559.974193,-1.019906,1.356478,-0.075465,-0.004774,0.013947,0.272646,-0.181217,-0.977122,-0.111327,-0.026424,-0.163000,0.000945,-25.517147,-35.146225,-7.905304,,,,,,,
1558971559.994182,-1.034901,1.352457,-0.060730,0.029239,-0.051645,0.229299,-0.186243,-0.976258,-0.110603,-0.032766,-0.231032,0.003059,-25.750031,-34.978745,-7.892987,,,,,,,
1558971560.014167,-1.042510,1.348492,-0.053347,-0.076962,0.019721,0.221356,-0.190421,-0.975392,-0.111133,-0.030084,-0.368068,-0.015942,-25.868692,-34.896194,-7.870345,,,,,,,
1558971560.034152,-1.043371,1.342228,-0.049300,-0.122147,0.247375,0.328128,-0.195792,-0.973992,-0.114042,-0.071374,-0.548133,-0.018450,-26.028553,-34.757687,-7.955726,,,,,,,
1558971560.054141,-1.044915,1.337091,-0.040582,0.031717,0.372184,0.216275,-0.200292,-0.972815,-0.116249,-0.069575,-0.727243,-0.005714,-26.232069,-34.541752,-8.223255,,,,,,,
1558971560.074125,-1.054912,1.337550,-0.023271,0.274522,0.293387,-0.024505,-0.201056,-0.972921,-0.114021,-0.093148,-0.889261,0.018928,-26.273657,-34.486691,-8.320984,,,,,,,
1558971560.094111,-1.066080,1.346138,-0.009407,0.378521,-0.015439,-0.487534,-0.194997,-0.974870,-0.107724,-0.144878,-1.068663,0.003492,-26.175678,-34.576088,-8.258582,,,,,,,
1558971560.114072,-1.071162,1.364302,-0.008291,0.494417,-0.266190,-0.948930,-0.179967,-0.978756,-0.098231,-0.292827,-1.186680,-0.084523,-25.662268,-35.054108,-7.844324,,,,,,,
1558971560.134063,-1.070284,1.389838,-0.013371,0.607025,-0.150965,-1.254151,-0.157896,-0.983672,-0.086364,-0.345583,-1.168718,-0.105439,-25.146038,-35.506950,-7.470544,,,,,,,
1558971560.154058,-1.052882,1.420878,-0.033661,0.592640,-0.134437,-1.562555,-0.129770,-0.988783,-0.073942,-0.433722,-1.076494,-0.132067,-24.491009,-36.039196,-7.088232,,,,,,,
1558971560.174034,-0.988087,1.458050,-0.102353,0.614335,-0.196463,-1.968837,-0.093940,-0.993651,-0.061911,-0.558510,-0.853486,-0.173288,-22.735046,-37.307804,-6.334145,,,,,,,
1558971560.194014,-0.828895,1.502134,-0.268199,0.872960,-0.372759,-2.324777,-0.050577,-0.997644,-0.046358,-0.625097,-0.765937,-0.194502,-21.592598,-38.053078,-5.882069,,,,,,,
1558971560.214025,-0.079984,1.545284,-1.028239,1.106589,-0.621587,-2.498862,-0.002038,-0.999675,-0.025428,-0.686652,-0.543416,-0.217232,-19.825243,-39.123978,-5.014936,,,,,,,
1558971560.233996,1.489796,1.523037,-2.612630,1.042362,-0.719516,-2.475296,0.047584,-0.998860,-0.003863,-0.666496,-0.163860,-0.175687,-17.415548,-40.404297,-3.614864,,,,,,,
1558971560.254003,1.699062,1.475463,-2.834618,0.717954,-0.532483,-2.238883,0.094407,-0.995459,0.012176,-0.598496,0.060675,-0.165435,-15.493327,-41.253647,-2.639974,,,,,,,
1558971560.273960,1.723738,1.433549,-2.866305,0.325826,-0.200212,-1.955225,0.135219,-0.990596,0.020843,-0.611095,0.182460,-0.168701,-14.595497,-41.600681,-2.287041,,,,,,,
1558971560.293976,1.699089,1.396052,-2.838485,-0.123816,0.351912,-1.877701,0.172428,-0.984771,0.022243,-0.653079,0.522643,-0.134777,-12.143070,-42.400406,-1.904532,,,,,,,
1558971560.313960,1.662285,1.359184,-2.788247,-0.316321,0.722867,-1.884981,0.209159,-0.977693,0.019189,-0.579627,0.686083,-0.089609,-10.516411,-42.817650,-2.220260,,,,,,,
1558971560.333947,1.644547,1.322096,-2.755447,-0.129149,0.671154,-1.879988,0.245475,-0.969233,0.018137,-0.535117,0.756236,-0.065699,-9.691495,-43.000782,-2.425523,,,,,,,
1558971560.353934,1.648426,1.282505,-2.747114,0.126290,0.564857,-2.087924,0.283458,-0.958731,0.022049,-0.423243,0.936728,0.006515,-7.159205,-43.477299,-2.710342,,,,,,,
1558971560.373920,1.658773,1.235959,-2.747448,0.237138,0.442178,-2.450942,0.327345,-0.944464,0.028873,-0.381300,0.932531,0.021710,-5.710627,-43.694229,-2.660619,,,,,,,
1558971560.393876,1.666541,1.183469,-2.749037,0.268732,0.226013,-2.698545,0.375985,-0.925922,0.036109,-0.147088,0.960041,0.074243,-4.644539,-43.824799,-2.586642,,,,,,,
1558971560.413892,1.668435,1.127748,-2.750080,0.334952,-0.064067,-2.772801,0.426654,-0.903449,0.041791,0.010740,1.033011,0.110294,-0.500622,-44.088787,-2.191836,,,,,,,
1558971560.433852,1.670241,1.075122,-2.757147,0.456117,-0.305250,-2.468598,0.473275,-0.879648,0.047221,0.115226,1.035547,0.133047,1.854847,-44.068180,-1.852298,,,,,,,
1558971560.453862,1.669583,1.030507,-2.764279,0.322305,-0.348337,-2.062344,0.511876,-0.857560,0.050732,0.155070,1.012620,0.129490,3.402752,-43.986691,-1.571052,,,,,,,
1558971560.473832,1.661646,0.993610,-2.761508,-0.043971,-0.219058,-1.717617,0.543418,-0.838001,0.049506,0.246407,0.998142,0.124627,5.555991,-43.774143,-1.353165,,,,,,,
1558971560.493819,1.649150,0.963270,-2.747538,-0.372344,0.069511,-1.453545,0.569087,-0.821063,0.044681,0.259450,0.982638,0.127041,6.629876,-43.621086,-1.456486,,,,,,,
1558971560.513799,1.637646,0.939882,-2.728024,-0.521399,0.256967,-1.024811,0.588566,-0.807489,0.039404,0.323742,0.990060,0.144175,7.854776,-43.405045,-1.783365,,,,,,,
1558971560.533806,1.627320,0.927501,-2.710196,-0.453519,0.137020,-0.414143,0.598877,-0.800124,0.033887,0.326523,1.012816,0.167529,8.812580,-43.197243,-2.283155,,,,,,,
1558971560.553797,1.616859,0.927280,-2.697401,-0.350808,-0.080379,0.180673,0.599376,-0.799991,0.027629,0.304768,0.999652,0.166112,8.903529,-43.173637,-2.374939,,,,,,,
1558971560.573782,1.605623,0.936513,-2.686180,-0.381315,-0.111336,0.579652,0.592241,-0.805496,0.020634,0.238340,0.967468,0.151928,8.773153,-43.170715,-2.863084,,,,,,,
1558971560.593759,1.591478,0.951327,-2.670061,-0.572890,-0.001130,0.799421,0.580479,-0.814186,0.012007,0.049281,0.860436,0.076738,8.076689,-43.271999,-3.343203,,,,,,,
1558971560.613756,1.574986,0.968779,-2.646915,-0.710741,0.205859,0.898448,0.566302,-0.824195,0.002372,-0.034106,0.843573,0.053460,8.076689,-43.271999,-3.343203,,,,,,,
1558971560.633742,1.559707,0.987581,-2.621290,-0.689257,0.307358,0.991254,0.550677,-0.834696,-0.006107,-0.209948,0.830073,0.023777,6.778555,-43.407387,-4.327345,,,,,,,
1558971560.653728,1.543581,1.008953,-2.599334,-0.492617,-0.038046,1.136509,0.532550,-0.846274,-0.014497,-0.221667,0.775138,0.012605,5.691987,-43.492435,-4.988511,,,,,,,
1558971560.673714,1.525812,1.033368,-2.584580,-0.252270,-0.361473,1.287346,0.511410,-0.859028,-0.023021,-0.383923,0.752659,-0.003438,4.913347,-43.552742,-5.281450,,,,,,,
1558971560.693676,1.509859,1.058961,-2.576425,-0.082235,-0.462833,1.253415,0.488869,-0.871847,-0.029827,-0.507469,0.702871,-0.034702,3.749075,-43.639709,-5.513253,,,,,,,
1558971560.713675,1.496557,1.080001,-2.570200,-0.094092,-0.334305,0.924733,0.470029,-0.881958,-0.034959,-0.514493,0.559708,-0.086760,2.409384,-43.718437,-5.636397,,,,,,,
1558971560.733674,1.484236,1.096360,-2.560917,-0.197646,-0.130911,0.860403,0.455127,-0.889550,-0.039495,-0.433673,0.524041,-0.095072,1.819620,-43.736328,-5.718282,,,,,,,
1558971560.753636,1.465260,1.120110,-2.540109,-0.454586,0.041576,1.503504,0.433160,-0.900148,-0.045884,-0.463541,0.531740,-0.103697,7.837781,-45.928421,-3.184169,,,,,,,
1558971560.773643,1.429310,1.154882,-2.499164,-0.723466,0.054224,1.950754,0.399989,-0.914747,-0.056974,-0.289058,0.401274,-0.095385,5.956572,-46.164307,-3.790173,,,,,,,
1558971560.793633,1.380653,1.193174,-2.449084,-0.531041,-0.265748,2.122939,0.362067,-0.929544,-0.069686,-0.247580,0.374398,-0.114716,4.580044,-46.278248,-4.282092,,,,,,,
1558971560.813611,1.333485,1.238518,-2.407001,-0.039278,-0.397691,2.561941,0.317055,-0.945302,-0.076686,-0.285561,0.283848,-0.138662,2.541763,-46.390640,-4.736827,,,,,,,
1558971560.833579,1.299061,1.296159,-2.375371,0.431520,-0.061117,3.102566,0.261247,-0.962524,-0.072790,-0.220826,0.020049,-0.109110,-0.633584,-46.465153,-4.645137,,,,,,,
1558971560.853573,1.276030,1.362754,-2.347682,0.733672,0.331946,3.361738,0.197637,-0.978437,-0.060005,-0.181447,-0.177325,-0.062401,-2.849840,-46.415745,-4.294889,,,,,,,
1558971560.873577,1.255643,1.436893,-2.319610,0.941611,0.326244,3.815600,0.126928,-0.991048,-0.041381,-0.189138,-0.248850,-0.056565,-5.985792,-46.174305,-3.618414,,,,,,,
1558971560.893565,1.084071,1.519941,-2.143543,0.758290,0.131250,4.250255,0.044930,-0.998707,-0.023776,-0.474953,-0.582500,0.027606,-10.486275,-45.432785,-2.624679,,,,,,,
1558971560.913538,-1.151751,1.532686,0.096477,0.192058,0.237028,3.723396,-0.034805,-0.999274,-0.015503,-0.587082,-0.819635,0.071045,-11.447005,-45.209541,-2.460169,,,,,,,
1558971560.933537,-1.400770,1.469558,0.352205,-0.150401,0.333974,3.023673,-0.099608,-0.994880,-0.017101,-0.529604,-0.962136,0.075527,-16.503290,-43.633606,-2.176936,,,,,,,
1558971560.953514,-1.440001,1.414121,0.395638,-0.101832,0.048846,2.663321,-0.154703,-0.987751,-0.020351,-0.447531,-0.993038,0.049007,-19.635048,-42.301579,-2.455635,,,,,,,
1558971560.973507,-1.467077,1.365814,0.419253,-0.104454,-0.292121,2.244740,-0.202456,-0.979065,-0.021074,-0.427488,-0.993241,0.035555,-21.257748,-41.508141,-2.484244,,,,,,,
1558971560.993496,-1.459074,1.327977,0.405598,-0.538611,-0.195602,1.645298,-0.238941,-0.970664,-0.026807,-0.457744,-0.993371,0.022870,-23.046429,-40.542156,-2.486936,,,,,,,
1558971561.013482,-1.416406,1.299533,0.361313,-0.803045,0.076906,1.178960,-0.264761,-0.963433,-0.041204,-0.310953,-0.896857,-0.020350,-24.323442,-39.762146,-2.886398,,,,,,,
1558971561.033461,-1.379748,1.277731,0.324418,-0.580281,0.019241,0.861496,-0.283632,-0.957363,-0.054856,-0.240843,-0.756703,-0.037261,-24.806709,-39.437019,-3.215214,,,,,,,
1558971561.053454,-1.368748,1.264432,0.311208,-0.184252,-0.140898,0.483400,-0.295459,-0.953436,-0.060523,-0.179257,-0.637155,-0.035043,-25.849901,-38.694195,-3.940949,,,,,,,
1558971561.073442,-1.373912,1.257120,0.312531,-0.004313,-0.210819,0.302443,-0.302597,-0.951206,-0.060359,-0.143021,-0.543545,-0.035726,-26.288229,-38.395691,-3.960960,,,,,,,
1558971561.093398,-1.378292,1.253347,0.313760,-0.037750,-0.105219,0.116588,-0.306378,-0.950035,-0.059719,-0.140506,-0.462838,-0.027638,-26.350370,-38.355835,-3.934062,,,,,,,
1558971561.113413,-1.374055,1.252928,0.309077,-0.095591,0.034366,-0.047607,-0.306513,-0.949904,-0.061094,-0.060156,-0.377489,-0.009188,-26.526180,-38.240486,-3.875053,,,,,,,
1558971561.133401,-1.366040,1.254427,0.301962,-0.086885,0.059582,-0.118891,-0.304619,-0.950371,-0.063259,0.006264,-0.292655,0.023434,-26.459045,-38.274567,-3.995678,,,,,,,
1558971561.153365,-1.358920,1.257083,0.294730,-0.079618,-0.024050,-0.179474,-0.301692,-0.951194,-0.064895,0.015986,-0.222176,0.030319,-26.380930,-38.321499,-4.061857,,,,,,,
1558971561.173371,-1.352531,1.261385,0.286668,-0.072221,-0.079180,-0.264340,-0.297273,-0.952513,-0.065935,0.030275,-0.186784,0.005983,-26.236053,-38.416214,-4.105276,,,,,,,
1558971561.193359,-1.346506,1.266494,0.279365,-0.027278,-0.013901,-0.277559,-0.292123,-0.954056,-0.066642,0.038873,-0.136840,-0.001458,-26.140299,-38.480576,-4.113338,,,,,,,
1558971561.213346,-1.344231,1.272420,0.277287,0.072920,0.014067,-0.307105,-0.286456,-0.955815,-0.066035,0.025409,-0.087215,0.014079,-25.821236,-38.693867,-4.127652,,,,,,,
1558971561.233330,-1.346119,1.279330,0.278254,0.083283,-0.092816,-0.354029,-0.280135,-0.957823,-0.064021,0.001891,-0.038148,0.034175,-25.579687,-38.860313,-4.067502,,,,,,,
1558971561.253299,-1.351238,1.287783,0.279957,-0.111611,-0.138346,-0.385585,-0.272547,-0.960218,-0.060820,0.001978,-0.005083,0.029875,-25.216454,-39.121063,-3.829131,,,,,,,
1558971561.273304,-1.330353,1.293554,0.256525,-0.314677,-0.036781,-0.330325,-0.265831,-0.961814,-0.065178,0.025917,0.026938,0.009224,-25.002617,-39.252586,-3.884927,,,,,,,
1558971561.293271,-1.302819,1.297356,0.228728,-0.289934,0.080543,-0.245906,-0.260407,-0.962847,-0.071503,0.036286,0.050296,-0.008834,-24.752762,-39.386497,-4.122378,,,,,,,
1558971561.313253,-1.278526,1.301402,0.205977,-0.083479,0.084807,-0.202998,-0.254861,-0.963932,-0.076684,0.038842,0.082310,-0.010764,-24.460062,-39.530361,-4.477177,,,,,,,
1558971561.333263,-1.278709,1.305831,0.206192,0.135378,-0.052724,-0.220154,-0.250784,-0.965102,-0.075407,0.030249,0.098311,-0.006151,-24.334852,-39.604202,-4.506851,,,,,,,
1558971561.353246,-1.286636,1.310715,0.212870,0.134236,-0.063245,-0.191430,-0.246846,-0.966369,-0.072095,0.025823,0.095428,0.011136,-24.166847,-39.722294,-4.369431,,,,,,,
1558971561.373224,-1.290192,1.314333,0.215491,-0.042485,-0.030480,-0.106915,-0.243740,-0.967293,-0.070248,0.023907,0.075264,0.017575,-24.002396,-39.835201,-4.246284,,,,,,,
1558971561.393222,-1.280980,1.314504,0.205302,-0.192693,-0.029572,-0.026953,-0.242924,-0.967336,-0.072443,0.015935,0.073431,0.012934,-23.935867,-39.875519,-4.243403,,,,,,,
1558971561.413194,-1.263019,1.312053,0.186119,-0.268330,-0.031238,0.007139,-0.243842,-0.966712,-0.077512,0.003043,0.064033,-0.000689,-23.928743,-39.871178,-4.323635,,,,,,,
1558971561.433188,-1.236758,1.307708,0.159215,-0.302283,0.002758,0.003172,-0.245689,-0.965591,-0.085265,0.001457,0.056381,-0.014711,-24.013882,-39.778400,-4.690607,,,,,,,
1558971561.453181,-1.219690,1.305550,0.141029,-0.229026,-0.039856,0.038055,-0.246154,-0.965028,-0.090162,-0.003022,0.055741,-0.019259,-24.050766,-39.728577,-4.918319,,,,,,,
1558971561.473158,-1.204435,1.300147,0.124950,-0.125794,-0.029782,0.070271,-0.249615,-0.963597,-0.095773,-0.022999,0.052495,-0.034522,-24.075989,-39.697956,-5.040646,,,,,,,
1558971561.493126,-1.200047,1.298062,0.119928,-0.095965,-0.021479,0.072509,-0.251064,-0.963038,-0.097595,-0.033940,0.060450,-0.045426,-24.253170,-39.558189,-5.284173,,,,,,,
1558971561.513140,-1.195997,1.296756,0.116024,-0.042446,0.043694,0.018726,-0.251837,-0.962685,-0.099071,-0.031153,0.060113,-0.046604,-24.296879,-39.522297,-5.351520,,,,,,,
1558971561.533095,-1.198404,1.296382,0.119785,0.092748,0.064186,0.060669,-0.252410,-0.962584,-0.098596,0.002989,0.047591,-0.022193,-24.304379,-39.514236,-5.376965,,,,,,,
1558971561.553113,-1.208945,1.294885,0.131889,0.173498,0.035276,0.096759,-0.254783,-0.962177,-0.096440,-0.011117,0.036961,0.003804,-24.399092,-39.463600,-5.319541,,,,,,,
1558971561.573073,-1.219965,1.294080,0.143799,0.102154,0.026131,0.092344,-0.256557,-0.961958,-0.093893,-0.010884,0.031522,0.015844,-24.454184,-39.441254,-5.231580,,,,,,,
1558971561.593085,-1.226804,1.292398,0.151973,-0.002004,0.086968,0.119534,-0.258716,-0.961497,-0.092681,0.011020,0.028880,0.016479,-24.536037,-39.402374,-5.140515,,,,,,,
1558971561.613072,-1.225808,1.289751,0.153072,-0.032837,0.100879,0.124981,-0.261018,-0.960766,-0.093799,-0.006713,0.031780,0.026829,-24.645927,-39.324379,-5.211600,,,,,,,
1558971561.633033,-1.232780,1.287082,0.161086,-0.003188,0.034073,0.085934,-0.264084,-0.960022,-0.092827,-0.011856,0.023987,0.026039,-24.759739,-39.256058,-5.187101,,,,,,,
1558971561.653044,-1.234178,1.285424,0.162608,-0.020343,-0.001770,0.089848,-0.265715,-0.959557,-0.092984,-0.002137,0.026848,0.019558,-24.824005,-39.213264,-5.203636,,,,,,,
1558971561.673031,-1.234098,1.283219,0.162814,-0.106441,0.043101,0.106223,-0.267704,-0.958934,-0.093703,0.012730,0.028071,0.011871,-24.919926,-39.150837,-5.215224,,,,,,,
1558971561.693007,-1.228989,1.279710,0.158974,-0.096827,0.085435,0.176033,-0.270390,-0.957933,-0.096197,0.020894,0.029359,0.008017,-24.986301,-39.096771,-5.302489,,,,,,,
1558971561.713002,-1.228435,1.276328,0.159775,-0.056535,0.051446,0.207767,-0.273387,-0.956957,-0.097434,0.016933,0.033769,0.010062,-25.100964,-39.008751,-5.408175,,,,,,,
