timestamp(unix),attitude_roll(radians),attitude_pitch(radians),attitude_yaw(radians),rotation_rate_x(radians/s),rotation_rate_y(radians/s),rotation_rate_z(radians/s),gravity_x(G),gravity_y(G),gravity_z(G),user_acc_x(G),user_acc_y(G),user_acc_z(G),magnetic_field_x(microteslas),magnetic_field_y(microteslas),magnetic_field_z(microteslas),latitude(degree),longitude(degree),altitude(meter),speed(m/s),course(degree),timestamp(unix),User Mark
1558973168.169105,-0.584841,1.550735,1.056805,-0.031623,0.045263,-0.050648,-0.011074,-0.999799,-0.016726,-0.001010,0.017011,-0.000532,-21.206390,-44.218830,-4.008883,,,,,,,
1558973168.189108,-0.559746,1.551106,1.032622,0.023636,0.032339,-0.016563,-0.010453,-0.999806,-0.016682,0.008057,0.010915,-0.001643,-21.170454,-44.232986,-4.042501,,,,,,,
1558973168.209086,-0.572249,1.551961,1.044896,0.045717,-0.036436,0.014825,-0.010199,-0.999823,-0.015833,0.006582,0.007772,0.007974,-21.136250,-44.251266,-4.021386,,,,,,,
1558973168.229087,-0.626562,1.552530,1.098054,0.021180,-0.063853,0.025230,-0.010710,-0.999833,-0.014795,-0.000200,0.016755,0.011179,-21.151913,-44.247684,-3.978214,,,,,,,
1558973168.249050,-0.665473,1.552163,1.136160,-0.024443,-0.023463,0.014905,-0.011503,-0.999826,-0.014656,-0.007143,0.012980,0.002220,-21.186064,-44.237057,-3.914128,,,,,,,
1558973168.269044,-0.651647,1.551307,1.122080,-0.027616,-0.020287,0.007460,-0.011821,-0.999810,-0.015497,-0.002491,0.008279,-0.006567,-21.213898,-44.221989,-3.933627,,,,,,,
1558973168.289024,-0.648803,1.550930,1.118632,-0.008471,-0.024614,0.008501,-0.012001,-0.999803,-0.015826,0.000465,0.004487,-0.003187,-21.226904,-44.214352,-3.949268,,,,,,,
1558973168.309032,-0.659133,1.550384,1.128687,0.001104,-0.015116,0.032088,-0.012502,-0.999792,-0.016137,-0.002879,0.004415,-0.007926,-21.231951,-44.211941,-3.949153,,,,,,,
1558973168.329017,-0.684380,1.549180,1.153084,0.026444,-0.058525,0.073331,-0.013663,-0.999766,-0.016746,0.001563,0.006923,-0.017877,-21.290482,-44.183250,-3.955143,,,,,,,
1558973168.348990,-0.755581,1.548252,1.223140,0.065826,-0.060853,0.069070,-0.015456,-0.999746,-0.016406,-0.006395,-0.002467,-0.012128,-21.347107,-44.156155,-3.952517,,,,,,,
1558973168.368988,-0.838504,1.548229,1.304852,0.060606,-0.048202,0.028618,-0.016778,-0.999745,-0.015084,-0.013739,-0.002650,-0.004355,-21.404202,-44.132828,-3.903932,,,,,,,
1558973168.388974,-0.886616,1.548311,1.352891,-0.005114,0.015496,-0.016732,-0.017424,-0.999747,-0.014211,-0.011979,-0.007882,0.007452,-21.470510,-44.108929,-3.808766,,,,,,,
1558973168.408959,-0.867901,1.548519,1.334143,0.015010,-0.020566,-0.028805,-0.016996,-0.999752,-0.014400,-0.002948,-0.006733,-0.006169,-21.467535,-44.109776,-3.815770,,,,,,,
1558973168.428944,-0.875322,1.549443,1.341050,0.065063,-0.015550,-0.032987,-0.016395,-0.999772,-0.013683,-0.001199,-0.014312,-0.003407,-21.449976,-44.119949,-3.796816,,,,,,,
1558973168.448902,-0.916828,1.550906,1.382634,0.036384,0.008931,-0.019965,-0.015785,-0.999802,-0.012099,0.000892,-0.014587,0.012663,-21.415470,-44.143150,-3.721200,,,,,,,
1558973168.468916,-0.923837,1.551355,1.390043,-0.032738,0.025135,-0.029473,-0.015513,-0.999811,-0.011719,-0.009847,-0.012915,0.023956,-21.403246,-44.152443,-3.681002,,,,,,,
1558973168.488875,-0.898432,1.551732,1.364799,-0.010480,-0.012002,-0.045825,-0.014917,-0.999818,-0.011875,-0.008750,-0.013869,0.015766,-21.388157,-44.158012,-3.701878,,,,,,,
1558973168.508881,-0.903563,1.553476,1.368601,0.029709,-0.096790,-0.056214,-0.013604,-0.999850,-0.010717,0.006158,-0.002515,0.018072,-21.333628,-44.187855,-3.660212,,,,,,,
1558973168.528853,-0.887853,1.554394,1.351080,-0.019205,-0.074314,-0.041091,-0.012721,-0.999865,-0.010349,-0.002614,-0.002530,0.011524,-21.296227,-44.211338,-3.593801,,,,,,,
1558973168.548842,-0.827516,1.554455,1.290107,-0.052011,-0.011766,-0.033045,-0.012031,-0.999866,-0.011058,0.000816,0.003315,0.004802,-21.275126,-44.223492,-3.569174,,,,,,,
1558973168.568818,-0.759713,1.554133,1.222226,-0.088110,0.003179,-0.061756,-0.011475,-0.999861,-0.012080,-0.006759,0.012083,0.003230,-21.250891,-44.233219,-3.592935,,,,,,,
1558973168.588821,-0.614634,1.553162,1.077011,-0.076464,-0.013788,-0.057639,-0.010168,-0.999844,-0.014406,0.003607,0.016812,-0.013304,-21.188343,-44.254330,-3.700794,,,,,,,
1558973168.608809,-0.536288,1.552598,0.998148,-0.014842,-0.034146,-0.024688,-0.009297,-0.999834,-0.015642,0.005513,0.018755,-0.017729,-21.188343,-44.254330,-3.700794,,,,,,,
1558973168.628799,-0.509881,1.552310,0.970776,0.049984,-0.055594,-0.002421,-0.009023,-0.999829,-0.016135,0.000096,0.016965,-0.011010,-21.128195,-44.275505,-3.790299,,,,,,,
1558973168.648785,-0.532738,1.553094,0.992301,0.072276,-0.071559,0.002782,-0.008989,-0.999843,-0.015246,0.003465,0.014736,-0.009184,-21.128292,-44.279987,-3.737003,,,,,,,
1558973168.668770,-0.585159,1.554261,1.043580,0.071291,-0.047242,0.003014,-0.009134,-0.999863,-0.013786,-0.003607,0.015702,0.001533,-21.130856,-44.284576,-3.667448,,,,,,,
1558973168.688755,-0.644792,1.554977,1.103098,-0.013597,0.026110,-0.015568,-0.009509,-0.999875,-0.012644,-0.011518,0.011838,0.016215,-21.147449,-44.283871,-3.579283,,,,,,,
1558973168.708741,-0.613402,1.554172,1.073226,-0.074063,0.090909,-0.012859,-0.009570,-0.999862,-0.013594,-0.009015,0.005004,0.001708,-21.154240,-44.279575,-3.592273,,,,,,,
1558973168.728725,-0.562967,1.553478,1.024226,-0.024203,0.046276,0.002767,-0.009242,-0.999850,-0.014645,0.007747,0.011218,-0.003559,-21.143860,-44.276661,-3.688105,,,,,,,
1558973168.748686,-0.593463,1.553806,1.054081,0.061617,-0.065125,0.027392,-0.009502,-0.999856,-0.014086,0.004314,0.001717,0.002535,-21.144386,-44.275066,-3.704118,,,,,,,
1558973168.768669,-0.700602,1.555026,1.159621,0.071157,-0.083163,0.015484,-0.010164,-0.999876,-0.012052,-0.004454,-0.005190,0.015577,-21.147701,-44.275417,-3.680942,,,,,,,
1558973168.788681,-0.795042,1.555726,1.253149,-0.009433,-0.001388,-0.010487,-0.010760,-0.999886,-0.010554,-0.014341,-0.007133,0.026698,-21.200550,-44.264610,-3.502611,,,,,,,
1558973168.808668,-0.722682,1.555115,1.182247,-0.127241,0.094330,-0.032085,-0.010371,-0.999877,-0.011761,-0.010915,-0.009171,0.030559,-21.211077,-44.261978,-3.472013,,,,,,,
1558973168.828636,-0.600260,1.553663,1.060438,-0.097824,-0.017849,-0.019257,-0.009677,-0.999853,-0.014137,0.008762,-0.017298,0.002800,-21.160734,-44.271393,-3.654349,,,,,,,
1558973168.848639,-0.547708,1.553324,1.006757,-0.009591,-0.059555,-0.031330,-0.009096,-0.999847,-0.014913,0.006304,-0.019745,-0.001307,-21.153763,-44.272141,-3.685523,,,,,,,
1558973168.868625,-0.521543,1.554011,0.979607,-0.020141,-0.043686,-0.058945,-0.008364,-0.999859,-0.014555,-0.008421,-0.009617,0.014662,-21.109098,-44.295235,-3.664087,,,,,,,
1558973168.888610,-0.423019,1.553770,0.880650,-0.082804,-0.010621,-0.080031,-0.006990,-0.999855,-0.015526,-0.005537,-0.002296,0.012276,-21.062895,-44.317055,-3.666135,,,,,,,
1558973168.908580,-0.303352,1.552867,0.760848,-0.073235,-0.012780,-0.076841,-0.005356,-0.999839,-0.017111,0.000199,0.001899,0.005118,-21.027245,-44.330952,-3.702528,,,,,,,
1558973168.928562,-0.187321,1.551918,0.644277,0.003304,-0.030052,-0.048121,-0.003515,-0.999822,-0.018546,0.014151,0.012532,-0.021219,-20.918339,-44.375473,-3.785265,,,,,,,
1558973168.948539,-0.135433,1.552515,0.592201,0.040642,0.003605,-0.028553,-0.002468,-0.999833,-0.018114,0.012951,0.019990,-0.008803,-20.853575,-44.405548,-3.789848,,,,,,,
1558973168.968537,-0.130574,1.553431,0.587181,0.047958,-0.023872,0.001084,-0.002261,-0.999849,-0.017218,0.014483,0.024797,-0.006616,-20.842171,-44.412403,-3.772197,,,,,,,
1558973168.988526,-0.113810,1.553657,0.570273,-0.030598,0.024048,-0.038023,-0.001946,-0.999853,-0.017029,-0.001975,0.025091,0.006180,-20.833767,-44.420959,-3.717458,,,,,,,
1558973169.008506,-0.034371,1.552021,0.492381,-0.076092,0.097182,-0.064051,-0.000645,-0.999824,-0.018766,0.002888,0.018027,-0.011233,-20.778479,-44.439075,-3.809282,,,,,,,
1558973169.028507,0.032734,1.550621,0.427214,-0.012281,0.090538,-0.041644,0.000660,-0.999797,-0.020160,0.007030,0.012248,-0.023129,-20.746733,-44.449425,-3.861190,,,,,,,
1558973169.048493,0.058919,1.551020,0.401290,0.084070,-0.047318,-0.000181,0.001164,-0.999804,-0.019740,0.006251,0.006961,-0.020604,-20.674330,-44.475426,-3.949129,,,,,,,
1558973169.068479,0.055741,1.553191,0.402621,0.124365,-0.091917,0.004763,0.000981,-0.999845,-0.017577,0.000240,0.009077,-0.009019,-20.686174,-44.480495,-3.828188,,,,,,,
1558973169.088464,0.081053,1.555047,0.375974,0.068116,-0.053612,-0.023742,0.001275,-0.999876,-0.015698,-0.001519,0.005552,0.002529,-20.689442,-44.485043,-3.757001,,,,,,,
1558973169.108449,0.117202,1.555471,0.339948,-0.049679,0.052697,-0.031360,0.001792,-0.999883,-0.015217,-0.009116,0.003529,0.019001,-20.664436,-44.506016,-3.644590,,,,,,,
1558973169.128436,0.129460,1.553320,0.331059,-0.178963,0.236260,-0.016895,0.002256,-0.999847,-0.017327,-0.002454,-0.000015,0.019463,-20.633905,-44.510521,-3.760693,,,,,,,
1558973169.148390,0.099861,1.549336,0.365357,-0.174875,0.204593,0.026579,0.002139,-0.999770,-0.021352,0.001736,0.000090,-0.006511,-20.614914,-44.500668,-3.975320,,,,,,,
1558973169.168396,0.057620,1.546128,0.410339,-0.100729,0.107001,0.055597,0.001420,-0.999696,-0.024623,0.002867,0.008973,-0.009588,-20.633068,-44.466290,-4.255949,,,,,,,
1558973169.188391,0.015726,1.544730,0.453537,-0.056177,0.053898,0.043381,0.000410,-0.999660,-0.026060,0.001040,0.008861,-0.003755,-20.671925,-44.436596,-4.375800,,,,,,,
1558973169.208357,0.000765,1.543191,0.470561,-0.117587,0.131309,-0.006106,0.000021,-0.999619,-0.027601,-0.006781,0.008210,0.013456,-20.696766,-44.419586,-4.430794,,,,,,,
1558973169.228351,0.035002,1.541068,0.439188,-0.114414,0.117527,-0.022252,0.001040,-0.999558,-0.029706,0.010648,-0.002029,-0.002063,-20.657749,-44.418793,-4.616910,,,,,,,
1558973169.248324,0.057970,1.539954,0.417610,-0.029419,0.056766,-0.011010,0.001787,-0.999524,-0.030785,0.004073,-0.007754,0.002602,-20.607195,-44.430824,-4.725754,,,,,,,
1558973169.268324,0.072652,1.540195,0.404258,0.005820,0.086163,-0.020310,0.002221,-0.999532,-0.030517,0.003440,-0.008220,0.009246,-20.607195,-44.430824,-4.725754,,,,,,,
1558973169.288319,0.104364,1.541031,0.374638,-0.003699,0.096760,-0.036232,0.003100,-0.999557,-0.029599,0.001477,-0.000184,0.015027,-20.540545,-44.457939,-4.760760,,,,,,,
1558973169.308304,0.128343,1.541393,0.351487,0.015177,0.016349,-0.022039,0.003763,-0.999568,-0.029158,0.008154,0.007655,0.007307,-20.511122,-44.471100,-4.764674,,,,,,,
1558973169.328228,0.135154,1.541736,0.344770,0.019311,-0.005820,0.011916,0.003915,-0.999578,-0.028790,0.000052,0.006948,-0.000644,-20.485193,-44.485264,-4.743986,,,,,,,
1558973169.348216,0.103672,1.542123,0.376353,-0.026395,0.030411,0.047459,0.002967,-0.999589,-0.028515,-0.008521,0.008424,0.008893,-20.510466,-44.475395,-4.727288,,,,,,,
1558973169.368200,0.050538,1.540910,0.431466,-0.109131,0.128119,0.066479,0.001509,-0.999553,-0.029843,-0.004165,0.013164,0.002789,-20.571747,-44.440327,-4.790387,,,,,,,
1558973169.388186,0.003428,1.537974,0.481265,-0.142133,0.139959,0.093257,0.000113,-0.999461,-0.032818,0.007624,0.023708,-0.005680,-20.615364,-44.406498,-4.914965,,,,,,,
1558973169.408143,-0.039315,1.533952,0.527786,-0.183402,0.213103,0.088585,-0.001448,-0.999321,-0.036807,0.003828,0.020607,-0.013593,-20.686680,-44.342239,-5.187935,,,,,,,
1558973169.428143,-0.064765,1.529629,0.557727,-0.157860,0.212970,0.089671,-0.002664,-0.999153,-0.041070,0.009240,0.022422,-0.014319,-20.716095,-44.301613,-5.412750,,,,,,,
1558973169.448141,-0.092901,1.526739,0.588552,-0.077441,0.071980,0.100128,-0.004086,-0.999030,-0.043854,0.009259,0.009070,-0.010849,-20.757425,-44.251877,-5.655797,,,,,,,
1558973169.468127,-0.128817,1.524947,0.626226,-0.097447,0.133375,0.088955,-0.005888,-0.998949,-0.045454,-0.004061,0.011416,0.003263,-20.840185,-44.194298,-5.799819,,,,,,,
1558973169.488105,-0.152131,1.521708,0.654416,-0.194792,0.313584,0.092738,-0.007436,-0.998795,-0.048502,-0.000621,0.009446,0.008264,-20.886463,-44.154785,-5.932764,,,,,,,
1558973169.508096,-0.171876,1.516354,0.682530,-0.277388,0.460992,0.126112,-0.009307,-0.998518,-0.053613,-0.000139,0.008711,0.005517,-20.921143,-44.107983,-6.154599,,,,,,,
1558973169.528083,-0.183348,1.510025,0.703772,-0.270890,0.502204,0.141457,-0.011073,-0.998154,-0.059716,0.013042,0.009995,-0.011588,-20.993050,-43.977421,-6.809237,,,,,,,
1558973169.548058,-0.195379,1.504241,0.726838,-0.254666,0.566552,0.111124,-0.012912,-0.997786,-0.065242,-0.002515,0.010970,-0.004918,-21.016769,-43.909760,-7.163506,,,,,,,
1558973169.568053,-0.198814,1.499516,0.740042,-0.192354,0.404461,0.083999,-0.014067,-0.997461,-0.069818,0.005140,0.019418,0.000634,-21.030863,-43.844540,-7.513082,,,,,,,
1558973169.588040,-0.199201,1.496478,0.745077,-0.078199,0.144846,0.052778,-0.014693,-0.997240,-0.072783,0.008315,0.028154,-0.012483,-21.029543,-43.780876,-7.879103,,,,,,,
1558973169.607995,-0.189961,1.494387,0.738963,-0.059946,0.174283,0.010367,-0.014414,-0.997082,-0.074963,0.008356,0.026349,-0.018574,-21.028603,-43.740986,-8.100055,,,,,,,
1558973169.628010,-0.182476,1.493225,0.734472,-0.003748,0.112696,0.020497,-0.014062,-0.996993,-0.076206,0.017114,0.028930,-0.025020,-21.003052,-43.727348,-8.238806,,,,,,,
1558973169.647995,-0.185605,1.493329,0.737536,0.078707,-0.066412,0.041286,-0.014282,-0.997001,-0.076061,0.027389,0.029685,-0.033528,-20.980137,-43.723381,-8.317848,,,,,,,
1558973169.667962,-0.200888,1.494808,0.752068,0.076829,0.010762,0.043091,-0.015148,-0.997114,-0.074389,0.007412,0.023085,-0.040738,-21.014677,-43.721226,-8.241659,,,,,,,
1558973169.687966,-0.217318,1.495908,0.770552,0.064434,0.136647,0.066706,-0.016132,-0.997197,-0.073059,0.008365,0.023335,-0.036667,-21.041979,-43.716965,-8.194470,,,,,,,
1558973169.707937,-0.240751,1.494807,0.797841,0.029553,0.221417,0.084574,-0.018101,-0.997114,-0.073726,-0.009914,0.004637,-0.010243,-21.078693,-43.693996,-8.222561,,,,,,,
1558973169.727937,-0.261728,1.494610,0.823702,0.026423,0.240458,0.083687,-0.019694,-0.997099,-0.073521,-0.009893,-0.002474,-0.003887,-21.151073,-43.637508,-8.335915,,,,,,,
1558973169.747920,-0.285428,1.495725,0.851146,0.130427,0.139478,0.072128,-0.021118,-0.997183,-0.071967,-0.005020,-0.014749,-0.005532,-21.187984,-43.608089,-8.395885,,,,,,,
1558973169.767884,-0.313009,1.498946,0.880001,0.207750,0.007954,0.039969,-0.022105,-0.997420,-0.068300,-0.022755,-0.012834,0.016329,-21.251099,-43.596405,-8.296476,,,,,,,
1558973169.787894,-0.347888,1.503246,0.913878,0.188455,-0.058619,-0.015132,-0.023012,-0.997719,-0.063456,-0.024077,-0.012779,0.026240,-21.305733,-43.613064,-8.065585,,,,,,,
1558973169.807876,-0.346865,1.505868,0.913024,0.088844,0.059171,-0.056790,-0.022057,-0.997893,-0.061018,-0.028358,-0.011888,0.015745,-21.299070,-43.632198,-7.979234,,,,,,,
1558973169.827852,-0.347037,1.507252,0.916406,0.014876,0.223392,-0.059546,-0.021598,-0.997982,-0.059716,-0.032937,-0.017063,0.017190,-21.207743,-43.686371,-7.925909,,,,,,,
1558973169.847849,-0.317142,1.506973,0.892739,-0.063443,0.356973,-0.069007,-0.019890,-0.997964,-0.060599,-0.027748,-0.013587,0.011267,-21.146107,-43.695873,-8.037413,,,,,,,
1558973169.867831,-0.290693,1.506148,0.873421,-0.046490,0.336812,-0.060644,-0.018516,-0.997911,-0.061893,-0.012856,-0.009261,0.001499,-21.087139,-43.704853,-8.142820,,,,,,,
1558973169.887820,-0.277688,1.506868,0.864585,0.057135,0.128044,-0.055084,-0.017513,-0.997957,-0.061438,-0.009403,-0.006086,0.004584,-20.955944,-43.726753,-8.361008,,,,,,,
1558973169.907807,-0.268788,1.509156,0.857212,0.072983,0.080360,-0.079015,-0.016359,-0.998101,-0.059389,-0.009733,-0.000862,0.006655,-20.899662,-43.762856,-8.312855,,,,,,,
1558973169.927778,-0.249478,1.510513,0.840373,0.026446,0.165144,-0.093187,-0.014875,-0.998184,-0.058381,-0.015994,0.005569,0.004228,-20.868450,-43.781670,-8.292186,,,,,,,
1558973169.947777,-0.215903,1.511502,0.810294,0.013704,0.166240,-0.111336,-0.012695,-0.998243,-0.057884,-0.000992,0.008405,0.005394,-20.725267,-43.839767,-8.344183,,,,,,,
1558973169.967761,-0.185634,1.512341,0.782927,0.012551,0.149367,-0.089078,-0.010783,-0.998292,-0.057418,-0.008382,0.001420,0.001464,-20.609970,-43.887142,-8.380644,,,,,,,
1558973169.987747,-0.160682,1.512660,0.761875,-0.022315,0.233068,-0.079762,-0.009296,-0.998311,-0.057355,-0.007840,-0.003902,0.005292,-20.551111,-43.907211,-8.419973,,,,,,,
1558973170.007734,-0.131488,1.512628,0.738111,-0.043390,0.296595,-0.082373,-0.007622,-0.998309,-0.057634,-0.004280,0.001818,0.012682,-20.424778,-43.938366,-8.563644,,,,,,,
1558973170.027703,-0.095853,1.512155,0.708321,-0.032799,0.278565,-0.085740,-0.005609,-0.998281,-0.058339,-0.002921,0.002172,0.006673,-20.304480,-43.966599,-8.703642,,,,,,,
1558973170.047704,-0.059313,1.511901,0.677007,-0.042382,0.272256,-0.097553,-0.003489,-0.998266,-0.058758,-0.002172,0.000769,0.010006,-20.242735,-43.981457,-8.772141,,,,,,,
1558973170.067689,-0.015132,1.510886,0.639713,-0.118585,0.392055,-0.126361,-0.000906,-0.998206,-0.059867,-0.008005,-0.008325,0.012031,-20.026871,-44.034485,-8.998644,,,,,,,
1558973170.087670,0.032176,1.508109,0.601494,-0.172550,0.500185,-0.105084,0.002015,-0.998036,-0.062614,-0.000230,-0.006176,0.013816,-19.847145,-44.060158,-9.267162,,,,,,,
1558973170.107660,0.065852,1.504399,0.578575,-0.203303,0.551135,-0.070457,0.004366,-0.997797,-0.066205,-0.001543,-0.002417,0.013959,-19.755283,-44.063354,-9.446522,,,,,,,
1558973170.127646,0.085425,1.500537,0.569749,-0.167248,0.537295,-0.009705,0.005990,-0.997533,-0.069945,0.002357,0.005986,-0.005845,-19.510174,-44.048176,-10.009927,,,,,,,
1558973170.147630,0.095356,1.497805,0.572143,-0.094562,0.653262,0.042709,0.006943,-0.997337,-0.072595,0.022491,0.007362,-0.015662,-19.373062,-44.022671,-10.381532,,,,,,,
1558973170.167616,0.086823,1.495747,0.591251,-0.096314,0.449284,0.053567,0.006502,-0.997185,-0.074696,-0.005250,0.018425,0.002156,-19.328947,-44.002441,-10.548189,,,,,,,
1558973170.187603,0.078735,1.494172,0.608058,-0.106886,0.476839,0.065566,0.006021,-0.997066,-0.076312,-0.004877,0.018047,0.010257,-19.271469,-43.959484,-10.828741,,,,,,,
1558973170.207569,0.060493,1.491160,0.637384,-0.205513,0.584099,0.054773,0.004809,-0.996831,-0.079408,-0.013995,0.008153,0.002015,-19.223555,-43.873268,-11.255157,,,,,,,
1558973170.227571,0.048053,1.486247,0.661727,-0.280070,0.594079,0.104988,0.004056,-0.996428,-0.084351,-0.004087,0.011946,0.006104,-19.176611,-43.811481,-11.571478,,,,,,,
1558973170.247544,0.024098,1.480437,0.697444,-0.297268,0.568883,0.160251,0.002174,-0.995920,-0.090211,-0.007454,0.011698,0.001084,-19.144920,-43.731865,-11.919868,,,,,,,
1558973170.267535,-0.003722,1.474681,0.736010,-0.236819,0.497719,0.183129,-0.000357,-0.995385,-0.095966,0.000235,0.005562,-0.015072,-19.147556,-43.564766,-12.512774,,,,,,,
1558973170.287519,-0.033952,1.470857,0.775605,-0.153940,0.468798,0.219218,-0.003387,-0.995010,-0.099715,0.011718,0.006973,-0.005692,-19.173573,-43.461395,-12.828423,,,,,,,
1558973170.307497,-0.067244,1.467591,0.819359,-0.138822,0.526829,0.202704,-0.006922,-0.994679,-0.102789,-0.013372,0.006581,0.001532,-19.256863,-43.274632,-13.325411,,,,,,,
1558973170.327500,-0.093224,1.464763,0.855483,-0.112332,0.472727,0.165909,-0.009852,-0.994384,-0.105375,-0.012914,0.015883,0.002683,-19.300608,-43.157887,-13.637110,,,,,,,
1558973170.347456,-0.111656,1.462603,0.882968,-0.104944,0.437755,0.131416,-0.012032,-0.994153,-0.107309,-0.007713,0.013669,0.012430,-19.318916,-43.106731,-13.772317,,,,,,,
1558973170.367461,-0.124945,1.460583,0.904988,-0.125099,0.439914,0.090851,-0.013707,-0.993933,-0.109132,-0.005672,0.012014,0.011430,-19.325245,-42.985535,-14.137383,,,,,,,
1558973170.387455,-0.124688,1.457691,0.914934,-0.175812,0.552213,0.083343,-0.014036,-0.993610,-0.111988,0.005537,0.008961,0.008992,-19.262844,-42.917835,-14.425310,,,,,,,
1558973170.407423,-0.127712,1.453863,0.929339,-0.169523,0.544854,0.132389,-0.014859,-0.993171,-0.115716,0.007016,0.011299,0.004663,-19.214693,-42.878815,-14.604441,,,,,,,
1558973170.427428,-0.137549,1.451008,0.949162,-0.117716,0.463274,0.188232,-0.016386,-0.992834,-0.118373,0.010343,0.003424,0.011135,-19.132500,-42.737877,-15.116504,,,,,,,
1558973170.447412,-0.158977,1.449182,0.979221,-0.105194,0.393470,0.204655,-0.019205,-0.992614,-0.119785,0.001520,0.001556,0.022022,-19.146568,-42.663769,-15.306837,,,,,,,
1558973170.467396,-0.182769,1.446898,1.010625,-0.137188,0.369310,0.193722,-0.022462,-0.992334,-0.121524,-0.003951,0.001612,0.021854,-19.196783,-42.573612,-15.493813,,,,,,,
1558973170.487355,-0.198585,1.443392,1.035252,-0.220835,0.492323,0.167073,-0.025067,-0.991895,-0.124563,-0.004017,-0.001620,0.019689,-19.248501,-42.432865,-15.812473,,,,,,,
1558973170.507369,-0.204125,1.438038,1.051967,-0.251421,0.575979,0.161443,-0.026832,-0.991201,-0.129620,-0.000710,-0.007228,0.007550,-19.230757,-42.334465,-16.095287,,,,,,,
1558973170.527353,-0.211143,1.432702,1.071034,-0.234401,0.594989,0.210750,-0.028850,-0.990480,-0.134599,0.007243,-0.006407,0.003953,-19.181120,-42.194099,-16.517565,,,,,,,
1558973170.547327,-0.227228,1.427636,1.099008,-0.206886,0.574856,0.274637,-0.032141,-0.989770,-0.139005,0.005621,-0.005729,0.007398,-19.168865,-41.994797,-17.031693,,,,,,,
1558973170.567307,-0.248555,1.422156,1.132460,-0.238747,0.607826,0.298416,-0.036431,-0.988973,-0.143542,-0.004416,-0.001688,0.011264,-19.196545,-41.863640,-17.320953,,,,,,,
1558973170.587309,-0.265624,1.415805,1.162261,-0.272752,0.612190,0.269605,-0.040524,-0.988013,-0.148957,-0.009753,-0.002527,0.015336,-19.229788,-41.715988,-17.637434,,,,,,,
1558973170.607270,-0.276349,1.409948,1.184330,-0.288935,0.521293,0.216407,-0.043698,-0.987092,-0.154079,-0.004368,-0.001983,0.026073,-19.251905,-41.422844,-18.292053,,,,,,,
1558973170.627250,-0.280900,1.403431,1.198454,-0.297657,0.443069,0.182554,-0.046181,-0.986027,-0.160056,-0.003944,-0.003185,0.017478,-19.247454,-41.288460,-18.598015,,,,,,,
1558973170.647262,-0.283504,1.397547,1.208900,-0.250024,0.344463,0.146416,-0.048220,-0.985030,-0.165503,-0.003493,-0.002626,0.014975,-19.240885,-41.156429,-18.895081,,,,,,,
1558973170.667252,-0.285047,1.393508,1.215390,-0.140856,0.183167,0.108659,-0.049593,-0.984326,-0.169245,0.008471,0.003445,0.004358,-19.236916,-40.946472,-19.349794,,,,,,,
1558973170.687238,-0.289138,1.391637,1.222186,-0.037798,0.107525,0.073852,-0.050810,-0.983994,-0.170805,0.004057,0.002106,0.002928,-19.247364,-40.877247,-19.485298,,,,,,,
1558973170.707222,-0.292136,1.391494,1.227080,0.009034,0.081832,0.021329,-0.051363,-0.983968,-0.170787,-0.002531,-0.007883,0.003642,-19.254576,-40.858986,-19.516443,,,,,,,
1558973170.727209,-0.293302,1.391642,1.229666,-0.004783,0.065978,-0.026876,-0.051519,-0.983995,-0.170587,-0.013849,0.000596,0.004694,-19.239508,-40.851433,-19.547104,,,,,,,
1558973170.747194,-0.288425,1.391823,1.225254,0.001439,0.007783,-0.044510,-0.050636,-0.984027,-0.170666,-0.000023,0.005008,0.003307,-19.208179,-40.859528,-19.560986,,,,,,,
1558973170.767179,-0.283628,1.391842,1.221172,-0.033482,0.077752,-0.028921,-0.049812,-0.984030,-0.170889,-0.001183,0.001135,0.001761,-19.189236,-40.868557,-19.560707,,,,,,,
1558973170.787163,-0.277184,1.390201,1.217729,-0.119335,0.197669,-0.012895,-0.049151,-0.983737,-0.172759,-0.009183,-0.000638,0.001693,-19.110739,-40.852558,-19.670670,,,,,,,
1558973170.807132,-0.266986,1.387047,1.212076,-0.168201,0.234943,0.001302,-0.048205,-0.983166,-0.176244,0.006732,0.011349,-0.002986,-19.046118,-40.811958,-19.817076,,,,,,,
1558973170.827132,-0.262742,1.384605,1.210977,-0.072918,0.090734,0.032028,-0.048080,-0.982716,-0.178764,0.007156,0.014348,-0.008125,-18.971382,-40.762150,-19.990524,,,,,,,
1558973170.847109,-0.265363,1.384614,1.212906,0.080785,-0.108803,0.024902,-0.048547,-0.982718,-0.178629,0.010201,0.020743,-0.012502,-18.958351,-40.712147,-20.104460,,,,,,,
1558973170.867105,-0.271282,1.386625,1.216434,0.104323,-0.098441,-0.031565,-0.049073,-0.983088,-0.176435,-0.008315,0.018809,0.000486,-19.023800,-40.744965,-19.975739,,,,,,,
1558973170.887069,-0.268974,1.387735,1.214008,0.007953,0.047916,-0.043052,-0.048376,-0.983291,-0.175495,-0.006983,0.020095,0.005695,-19.015182,-40.781120,-19.910053,,,,,,,
1558973170.907076,-0.263325,1.387334,1.209892,-0.025052,0.070365,0.009450,-0.047486,-0.983218,-0.176146,0.013734,0.017276,-0.003404,-18.964788,-40.791142,-19.937574,,,,,,,
1558973170.927035,-0.266050,1.387217,1.212962,0.026755,-0.013335,0.061004,-0.047996,-0.983197,-0.176127,0.012382,0.011151,-0.003514,-18.949474,-40.784229,-19.966251,,,,,,,
1558973170.947035,-0.276103,1.387453,1.223105,0.033233,0.015172,0.062351,-0.049701,-0.983240,-0.175412,-0.013012,0.004007,0.002286,-18.974161,-40.777916,-19.955702,,,,,,,
1558973170.967034,-0.291615,1.388070,1.238579,0.052313,-0.021963,0.036391,-0.052242,-0.983352,-0.174040,-0.017720,-0.000748,0.007841,-19.065573,-40.753181,-19.919069,,,,,,,
1558973170.986992,-0.298197,1.389682,1.243785,0.074510,-0.092974,-0.013382,-0.052920,-0.983644,-0.172176,-0.000455,0.000199,0.007137,-19.179661,-40.757217,-19.800940,,,,,,,
1558973171.007003,-0.299395,1.391682,1.242637,0.098910,-0.138619,-0.057573,-0.052546,-0.984002,-0.170233,-0.001516,0.000588,0.004888,-19.179661,-40.757217,-19.800940,,,,,,,
1558973171.026962,-0.300819,1.394802,1.240280,0.130639,-0.204332,-0.064582,-0.051879,-0.984553,-0.167224,0.005660,0.002452,0.006656,-19.208645,-40.837269,-19.606947,,,,,,,
1558973171.046974,-0.302510,1.396963,1.238313,0.053052,-0.158442,-0.043920,-0.051528,-0.984929,-0.165105,-0.001802,0.005223,0.008855,-19.241875,-40.946552,-19.344696,,,,,,,
1558973171.066960,-0.301601,1.397356,1.234541,-0.022461,-0.132658,-0.030922,-0.051262,-0.984997,-0.164782,0.002953,0.010082,0.005054,-19.241875,-40.946552,-19.344696,,,,,,,
1558973171.086946,-0.293856,1.396531,1.223820,-0.058839,-0.178944,-0.010045,-0.050220,-0.984854,-0.165952,0.026050,0.022376,-0.003161,-19.279686,-40.976456,-19.243469,,,,,,,
1558973171.106910,-0.293484,1.395688,1.218258,-0.020981,-0.313363,0.003644,-0.050399,-0.984708,-0.166766,0.008254,0.012479,-0.002729,-19.285515,-40.978191,-19.233919,,,,,,,
1558973171.126915,-0.299560,1.395828,1.217164,0.010800,-0.371704,-0.022513,-0.051370,-0.984732,-0.166325,0.000909,0.004126,-0.002514,-19.401287,-40.973061,-19.128141,,,,,,,
1558973171.146903,-0.306367,1.396064,1.216140,0.008581,-0.404479,-0.034571,-0.052431,-0.984773,-0.165749,-0.005797,-0.000380,-0.001990,-19.564178,-40.986504,-18.932432,,,,,,,
1558973171.166862,-0.309367,1.396094,1.210764,-0.057408,-0.408381,-0.048541,-0.052919,-0.984778,-0.165563,0.003374,0.000236,0.008123,-19.693077,-41.000225,-18.768366,,,,,,,
1558973171.186842,-0.308493,1.394371,1.202088,-0.131754,-0.361496,-0.057760,-0.053289,-0.984477,-0.167226,-0.008417,-0.003026,0.004247,-19.747465,-40.997276,-18.717590,,,,,,,
1558973171.206859,-0.309638,1.392109,1.196524,-0.138020,-0.312800,-0.030606,-0.054159,-0.984078,-0.169286,-0.011118,-0.021171,0.002721,-19.906534,-40.949760,-18.652994,,,,,,,
1558973171.226844,-0.312890,1.390199,1.192555,-0.077671,-0.400813,-0.005776,-0.055288,-0.983737,-0.170896,-0.009028,-0.019040,0.000959,-20.034014,-40.908203,-18.607651,,,,,,,
1558973171.246829,-0.318744,1.389497,1.190115,-0.047704,-0.365076,-0.035304,-0.056504,-0.983610,-0.171226,-0.006027,-0.013704,0.004539,-20.109425,-40.896511,-18.551926,,,,,,,
1558973171.266814,-0.322722,1.388213,1.189438,-0.094807,-0.133378,-0.058743,-0.057585,-0.983378,-0.172197,-0.030001,-0.017736,0.002977,-20.279501,-40.876652,-18.410007,,,,,,,
1558973171.286797,-0.315213,1.386244,1.180850,-0.127363,-0.013832,-0.066145,-0.056891,-0.983019,-0.174465,-0.015558,-0.007002,0.000896,-20.306034,-40.840851,-18.460152,,,,,,,
1558973171.306783,-0.306092,1.383588,1.171767,-0.149536,0.038065,-0.074205,-0.056083,-0.982528,-0.177466,-0.011208,0.001204,-0.004465,-20.281273,-40.815826,-18.542524,,,,,,,
1558973171.326771,-0.293610,1.380827,1.160383,-0.140925,0.069739,-0.068556,-0.054649,-0.982010,-0.180748,-0.010170,0.006165,-0.014229,-20.204399,-40.765259,-18.736679,,,,,,,
1558973171.346756,-0.286576,1.378444,1.153610,-0.052915,-0.017346,-0.033018,-0.054037,-0.981557,-0.183372,-0.005716,0.010488,-0.014138,-20.152521,-40.733315,-18.861614,,,,,,,
1558973171.366740,-0.283957,1.377844,1.149843,-0.012604,-0.060901,-0.036605,-0.053722,-0.981442,-0.184078,-0.003575,0.011563,-0.011814,-20.151384,-40.720833,-18.889759,,,,,,,
1558973171.386719,-0.280738,1.377265,1.145608,-0.025280,-0.033359,-0.041689,-0.053287,-0.981331,-0.184796,-0.007413,0.015435,-0.014346,-20.151085,-40.711887,-18.909344,,,,,,,
1558973171.406713,-0.277208,1.376032,1.141849,-0.017737,0.001502,-0.028537,-0.052965,-0.981093,-0.186147,-0.006529,0.011611,-0.016612,-20.132267,-40.707035,-18.939806,,,,,,,
1558973171.426681,-0.276201,1.375995,1.140610,0.047089,-0.022065,-0.009493,-0.052788,-0.981086,-0.186235,-0.002754,0.014579,-0.014922,-20.129866,-40.696220,-18.965584,,,,,,,
1558973171.446656,-0.277691,1.377115,1.141434,0.092809,-0.041343,-0.017114,-0.052764,-0.981302,-0.185099,-0.003602,0.012079,0.003245,-20.130602,-40.712471,-18.929893,,,,,,,
1558973171.466669,-0.281595,1.379575,1.143763,0.107562,-0.099597,-0.044350,-0.052815,-0.981773,-0.182573,-0.005733,0.010139,0.012040,-20.148699,-40.756866,-18.814749,,,,,,,
1558973171.486648,-0.281299,1.382308,1.140865,0.119205,-0.135648,-0.078850,-0.052016,-0.982289,-0.180010,-0.003557,0.005146,0.007310,-20.155077,-40.789230,-18.737617,,,,,,,
1558973171.506637,-0.279792,1.385886,1.136349,0.143660,-0.153777,-0.099290,-0.050774,-0.982953,-0.176709,0.000725,-0.005817,0.007168,-20.139545,-40.913288,-18.482122,,,,,,,
1558973171.526624,-0.273757,1.389941,1.126832,0.149927,-0.189745,-0.097496,-0.048628,-0.983690,-0.173173,0.025481,-0.011305,0.006409,-20.108658,-41.020191,-18.277668,,,,,,,
1558973171.546596,-0.271949,1.393087,1.120224,0.113288,-0.268642,0.027697,-0.047484,-0.984251,-0.170279,0.068068,-0.003572,0.006415,-20.084208,-41.079636,-18.170732,,,,,,,
1558973171.566591,-0.286623,1.393332,1.132177,-0.023826,-0.166319,0.115046,-0.049909,-0.984295,-0.169332,0.028058,-0.012791,-0.006144,-20.177401,-41.137516,-17.935005,,,,,,,
1558973171.586571,-0.302207,1.392135,1.143369,-0.023961,-0.209662,0.110361,-0.052892,-0.984082,-0.169659,0.040395,-0.000766,0.045071,-20.305172,-41.094822,-17.888618,,,,,,,
1558973171.606566,-0.317090,1.391361,1.151853,0.024291,-0.440389,0.080431,-0.055649,-0.983945,-0.169576,0.012360,0.015012,0.000616,-20.432594,-41.054157,-17.836821,,,,,,,
1558973171.626552,-0.336133,1.393089,1.161204,0.136023,-0.471694,0.037515,-0.058307,-0.984252,-0.166881,0.001010,0.000929,0.001384,-20.740902,-41.037865,-17.515591,,,,,,,
1558973171.646537,-0.353240,1.394844,1.170797,0.106760,-0.326796,-0.007028,-0.060555,-0.984560,-0.164238,-0.030357,-0.012724,-0.008278,-20.903572,-41.071869,-17.240353,,,,,,,
1558973171.666523,-0.359871,1.396657,1.171978,0.074074,-0.241037,-0.027587,-0.061014,-0.984876,-0.162162,-0.017538,-0.001727,-0.007562,-21.006163,-41.084084,-17.085852,,,,,,,
1558973171.686495,-0.364959,1.397551,1.172265,0.052795,-0.246240,-0.046870,-0.061524,-0.985030,-0.161027,-0.019057,-0.000809,-0.009841,-21.074999,-41.129299,-16.891186,,,,,,,
1558973171.706475,-0.364627,1.399073,1.166809,0.057101,-0.250553,-0.088546,-0.060936,-0.985292,-0.159647,-0.024071,0.004930,-0.018515,-21.132549,-41.157288,-16.750530,,,,,,,
1558973171.726478,-0.360853,1.401507,1.158055,0.109366,-0.233966,-0.122510,-0.059486,-0.985705,-0.157631,-0.024071,0.008150,-0.030495,-21.135376,-41.187386,-16.672810,,,,,,,
1558973171.746442,-0.355286,1.404470,1.148000,0.149878,-0.209851,-0.111571,-0.057592,-0.986200,-0.155221,0.006780,0.017968,-0.016761,-21.101187,-41.320446,-16.384369,,,,,,,
1558973171.766420,-0.355678,1.407638,1.144432,0.124320,-0.193800,-0.069800,-0.056564,-0.986719,-0.152269,0.008102,0.015070,-0.005568,-21.080805,-41.382469,-16.253555,,,,,,,
1558973171.786433,-0.356137,1.409734,1.140987,0.067875,-0.196657,-0.058128,-0.055913,-0.987058,-0.150304,0.002202,0.010770,-0.001430,-21.083963,-41.434734,-16.115715,,,,,,,
1558973171.806421,-0.354319,1.410765,1.135279,0.026330,-0.188985,-0.021789,-0.055286,-0.987222,-0.149451,0.013859,0.016046,0.000525,-21.109745,-41.497845,-15.918371,,,,,,,
1558973171.826406,-0.358239,1.410556,1.136243,-0.026757,-0.122033,0.033259,-0.055944,-0.987189,-0.149426,0.027059,0.017417,0.006207,-21.142319,-41.508568,-15.847034,,,,,,,
1558973171.846360,-0.365462,1.409582,1.141582,-0.021391,-0.095593,0.062343,-0.057366,-0.987033,-0.149916,0.030251,0.017917,0.006392,-21.177156,-41.495312,-15.835220,,,,,,,
1558973171.866378,-0.375141,1.409860,1.148692,0.069978,-0.161648,0.035092,-0.058713,-0.987078,-0.149099,-0.004015,0.007082,-0.008738,-21.299145,-41.457401,-15.770788,,,,,,,
1558973171.886363,-0.386676,1.411533,1.155878,0.129369,-0.252944,-0.019115,-0.059807,-0.987344,-0.146882,-0.012688,-0.002936,-0.009490,-21.391207,-41.468597,-15.615988,,,,,,,
1558973171.906347,-0.394529,1.414279,1.158326,0.128285,-0.267766,-0.038476,-0.059916,-0.987776,-0.143904,-0.011175,-0.006715,-0.000826,-21.422127,-41.494301,-15.504915,,,,,,,
1558973171.926332,-0.401093,1.418037,1.159692,0.116533,-0.267658,-0.007525,-0.059410,-0.988355,-0.140090,0.018531,-0.012866,0.013305,-21.467890,-41.563328,-15.254726,,,,,,,
1558973171.946299,-0.412184,1.421144,1.165088,0.138698,-0.308943,0.029463,-0.059729,-0.988823,-0.136607,-0.008600,0.000938,0.001781,-21.513393,-41.673737,-14.884919,,,,,,,
1558973171.966285,-0.433476,1.423292,1.180473,0.116484,-0.275031,0.010555,-0.061732,-0.989141,-0.133377,-0.023992,0.002141,0.005493,-21.513393,-41.673737,-14.884919,,,,,,,
1558973171.986269,-0.438251,1.424453,1.180882,0.012518,-0.189997,-0.038894,-0.061880,-0.989311,-0.132041,-0.012232,-0.014901,0.020286,-21.733757,-41.712460,-14.449974,,,,,,,
1558973172.006248,-0.437002,1.424729,1.176368,-0.030959,-0.148575,-0.058817,-0.061600,-0.989351,-0.131871,-0.011749,-0.008681,-0.007060,-21.757526,-41.728489,-14.367687,,,,,,,
1558973172.026243,-0.431385,1.425075,1.167719,0.006329,-0.142440,-0.066202,-0.060715,-0.989401,-0.131903,-0.020798,-0.009424,-0.016885,-21.757526,-41.728489,-14.367687,,,,,,,
1558973172.046236,-0.427569,1.424044,1.161326,0.036244,-0.108778,-0.069056,-0.060634,-0.989251,-0.133063,-0.017323,0.004067,-0.029672,-21.746777,-41.762608,-14.284590,,,,,,,
1558973172.066231,-0.427766,1.424493,1.159364,0.088349,-0.116425,-0.052003,-0.060476,-0.989317,-0.132646,-0.033030,-0.004198,-0.036299,-21.777208,-41.749611,-14.276222,,,,,,,
1558973172.086195,-0.428627,1.427045,1.157725,0.112877,-0.116599,-0.081879,-0.059541,-0.989686,-0.130298,-0.039840,-0.012863,-0.032620,-21.777208,-41.749611,-14.276222,,,,,,,
1558973172.106202,-0.425922,1.428929,1.153088,0.098223,-0.076475,-0.161577,-0.058417,-0.989954,-0.128759,-0.033837,-0.009588,-0.021769,-21.753647,-41.846684,-14.025732,,,,,,,
1558973172.126187,-0.410518,1.431647,1.135614,0.143959,-0.113799,-0.220616,-0.055353,-0.990334,-0.127177,-0.024572,-0.006263,-0.031454,-21.619970,-41.958263,-13.898504,,,,,,,
1558973172.146171,-0.393277,1.436181,1.115110,0.235356,-0.172461,-0.252065,-0.051431,-0.990953,-0.123963,-0.018851,-0.000685,-0.033873,-21.572876,-42.000237,-13.844791,,,,,,,
1558973172.166157,-0.376898,1.442151,1.094444,0.310795,-0.222567,-0.271700,-0.047216,-0.991737,-0.119286,-0.007288,-0.007684,-0.021583,-21.429739,-42.145638,-13.623468,,,,,,,
1558973172.186142,-0.360681,1.449612,1.073707,0.287414,-0.191728,-0.229786,-0.042663,-0.992666,-0.113109,0.008788,-0.009470,0.016445,-21.204247,-42.408398,-13.152744,,,,,,,
1558973172.206128,-0.346104,1.454379,1.056983,0.125947,-0.050168,-0.143148,-0.039404,-0.993231,-0.109267,0.019522,-0.008585,0.029814,-21.101788,-42.523438,-12.944473,,,,,,,
1558973172.226115,-0.331031,1.456827,1.042132,-0.005845,0.045769,-0.066535,-0.036962,-0.993513,-0.107548,0.020177,0.001508,0.033223,-21.020737,-42.593197,-12.846605,,,,,,,
1558973172.246097,-0.321564,1.456185,1.033598,-0.059157,0.038713,-0.023939,-0.036144,-0.993439,-0.108499,0.024776,0.001069,0.034982,-20.911816,-42.652634,-12.827162,,,,,,,
1558973172.266084,-0.314931,1.455374,1.026593,-0.030741,-0.063979,-0.032373,-0.035673,-0.993346,-0.109502,0.028013,0.003738,0.031148,-20.883511,-42.647751,-12.889359,,,,,,,
1558973172.286070,-0.310985,1.456151,1.019594,0.059328,-0.201906,-0.060312,-0.035004,-0.993435,-0.108907,0.031418,0.011929,0.008946,-20.872824,-42.665798,-12.846881,,,,,,,
1558973172.306054,-0.309706,1.458426,1.012976,0.111255,-0.289982,-0.073906,-0.034176,-0.993693,-0.106799,0.025677,0.011180,0.015627,-20.877569,-42.715187,-12.673874,,,,,,,
1558973172.326033,-0.308827,1.460819,1.006463,0.097478,-0.270882,-0.072667,-0.033359,-0.993959,-0.104563,0.017994,0.010606,0.016108,-20.883034,-42.744282,-12.566332,,,,,,,
1558973172.346007,-0.303109,1.463751,0.994997,0.109053,-0.314288,-0.077345,-0.031891,-0.994276,-0.101971,0.016144,0.009367,0.013271,-20.893265,-42.826004,-12.267515,,,,,,,
1558973172.365989,-0.302459,1.467535,0.985441,0.208304,-0.545187,-0.043178,-0.030703,-0.994673,-0.098398,0.026416,0.012068,-0.000158,-20.864759,-42.924759,-11.967209,,,,,,,
1558973172.385997,-0.319370,1.472583,0.989293,0.260973,-0.699741,-0.012589,-0.030786,-0.995181,-0.093097,0.031808,0.012225,-0.004956,-20.917154,-42.958500,-11.752747,,,,,,,
1558973172.405982,-0.351655,1.477921,1.006870,0.292633,-0.769625,0.017729,-0.031945,-0.995690,-0.087066,0.012490,0.012383,-0.000138,-21.104061,-43.073437,-10.971992,,,,,,,
1558973172.425967,-0.398100,1.484438,1.036107,0.386782,-0.949815,0.016078,-0.033437,-0.996273,-0.079506,0.026509,0.004940,0.002160,-21.277956,-43.143810,-10.341541,,,,,,,
1558973172.445954,-0.465250,1.492696,1.080918,0.491294,-1.232644,-0.022845,-0.035004,-0.996952,-0.069728,0.032868,0.009586,-0.003102,-21.382994,-43.181595,-9.960159,,,,,,,
1558973172.465940,-0.545529,1.503067,1.134425,0.586664,-1.404512,-0.110894,-0.035116,-0.997707,-0.057854,0.016790,0.017254,-0.009254,-21.675131,-43.346386,-8.506861,,,,,,,
1558973172.485924,-0.658122,1.514784,1.218044,0.646063,-1.467183,-0.107175,-0.034241,-0.998432,-0.044290,0.009430,0.011524,-0.025717,-21.799988,-43.495617,-7.347054,,,,,,,
1558973172.505908,-0.831719,1.525034,1.363675,0.614373,-1.367575,-0.051797,-0.033810,-0.998953,-0.030814,0.015408,0.011725,-0.024529,-21.858393,-43.563084,-6.749492,,,,,,,
1558973172.525881,-1.060114,1.532361,1.566801,0.557316,-1.222413,-0.017358,-0.033524,-0.999261,-0.018782,0.012970,0.008249,-0.007951,-22.016294,-43.708595,-5.092033,,,,,,,
1558973172.545881,-1.367020,1.536162,1.848629,0.548422,-1.319554,0.021208,-0.033913,-0.999400,-0.007008,0.011910,0.009883,-0.008144,-22.124096,-43.761692,-4.065212,,,,,,,
1558973172.565840,-1.705264,1.535155,2.158728,0.530845,-1.449358,0.100025,-0.035311,-0.999365,0.004777,0.008822,0.013556,-0.019883,-22.224512,-43.778790,-3.252025,,,,,,,
1558973172.585848,-1.967957,1.530220,2.393612,0.483259,-1.349738,0.107346,-0.037406,-0.999177,0.015690,-0.011208,-0.001983,-0.019871,-22.431524,-43.753342,-1.886527,,,,,,,
1558973172.605837,-2.161499,1.525054,2.562532,0.424329,-1.184672,0.014926,-0.037978,-0.998954,0.025467,-0.015580,-0.003197,-0.023316,-22.539619,-43.728828,-0.917675,,,,,,,
1558973172.625808,-2.346265,1.520542,2.724129,0.488373,-1.195789,-0.126059,-0.035871,-0.998738,0.035166,-0.022067,-0.007320,-0.047129,-22.536604,-43.739330,-0.244192,,,,,,,
1558973172.645783,-2.562940,1.513905,2.915770,0.632935,-1.301331,-0.218771,-0.031096,-0.998382,0.047602,-0.007677,0.001892,-0.036570,-22.456482,-43.778625,0.474998,,,,,,,
1558973172.665775,-2.763684,1.503804,3.089083,0.727318,-1.429792,-0.263698,-0.024700,-0.997757,0.062218,-0.022953,-0.006226,-0.029748,-22.112574,-43.900368,2.208832,,,,,,,
1558973172.685777,-2.924069,1.491623,-3.061147,0.707424,-1.341998,-0.291700,-0.017069,-0.996867,0.077227,-0.026556,-0.000996,-0.029253,-22.112574,-43.900368,2.208832,,,,,,,
1558973172.705765,-3.037927,1.479573,-2.971960,0.633386,-1.187253,-0.269993,-0.009427,-0.995842,0.090607,-0.014072,-0.010887,-0.022416,-21.436682,-44.048309,4.615445,,,,,,,
1558973172.725747,-3.113114,1.468063,-2.917919,0.559359,-1.001765,-0.188204,-0.002920,-0.994728,0.102511,-0.014719,-0.021233,-0.017153,-21.109350,-44.088982,5.625337,,,,,,,
1558973172.745733,3.126821,1.459362,-2.889909,0.340328,-0.574551,-0.129840,0.001643,-0.993798,0.111192,-0.017466,-0.027076,-0.000748,-21.109350,-44.088982,5.625337,,,,,,,
1558973172.765721,3.106069,1.456267,-2.874450,0.047801,-0.155388,-0.057733,0.004059,-0.993449,0.114206,0.001801,-0.019903,0.059271,-20.773922,-44.103649,6.663311,,,,,,,
1558973172.785697,3.106071,1.457482,-2.878123,-0.109075,-0.215674,0.073952,0.004016,-0.993587,0.113001,0.012662,-0.020207,0.049139,-20.684372,-44.119980,6.831637,,,,,,,
1558973172.805690,3.126535,1.461521,-2.901918,-0.259925,-0.081564,0.163730,0.001642,-0.994035,0.109045,0.018499,-0.014845,0.048456,-20.684372,-44.119980,6.831637,,,,,,,
1558973172.825676,-3.121714,1.468611,-2.934903,-0.401635,0.206704,0.174917,-0.002028,-0.994784,0.101986,0.001860,-0.000639,0.029071,-20.830004,-44.078457,6.654910,,,,,,,
1558973172.845634,-3.079643,1.476706,-2.972571,-0.403761,0.199289,0.156694,-0.005817,-0.995577,0.093771,0.016132,-0.003279,0.017267,-21.051268,-44.049572,6.129167,,,,,,,
1558973172.865647,-3.042599,1.483982,-3.007733,-0.358390,0.056285,0.110520,-0.008569,-0.996234,0.086282,0.010446,0.002109,0.008368,-21.172213,-44.036083,5.800699,,,,,,,
1558973172.885633,-3.019137,1.490648,-3.029909,-0.329414,0.087713,0.023297,-0.009780,-0.996790,0.079463,-0.021455,0.002375,-0.001491,-21.308968,-44.035309,5.282670,,,,,,,
1558973172.905602,-3.012933,1.496351,-3.034073,-0.250517,0.096716,-0.040612,-0.009543,-0.997230,0.073762,-0.026269,0.012046,0.000823,-21.315905,-44.068169,4.971509,,,,,,,
1558973172.925602,-3.025141,1.500315,-3.020808,-0.174012,0.031761,-0.091352,-0.008182,-0.997517,0.069946,-0.037213,-0.007823,0.024125,-21.286886,-44.101097,4.800893,,,,,,,
1558973172.945589,-3.046460,1.504744,-2.998328,-0.240970,0.059582,-0.099681,-0.006270,-0.997819,0.065706,-0.027681,-0.002730,0.052992,-21.250854,-44.127636,4.715941,,,,,,,
1558973172.965569,-3.069264,1.510150,-2.975145,-0.268876,-0.006853,-0.092866,-0.004380,-0.998162,0.060450,-0.014465,0.004937,0.042486,-21.105448,-44.237431,4.323973,,,,,,,
1558973172.985559,-3.097589,1.515475,-2.947175,-0.249751,-0.019644,-0.097244,-0.002432,-0.998470,0.055240,-0.007944,0.005993,0.038373,-21.063374,-44.268673,4.207873,,,,,,,
1558973173.005546,-3.126000,1.520043,-2.918167,-0.218650,0.061618,-0.072953,-0.000791,-0.998712,0.050726,-0.007784,0.009302,0.019877,-20.976830,-44.329830,3.990729,,,,,,,
1558973173.025506,3.135683,1.524229,-2.894487,-0.207818,0.128184,-0.052022,0.000275,-0.998916,0.046549,0.000915,0.008865,0.013784,-20.890921,-44.398926,3.659452,,,,,,,
1558973173.045500,3.117945,1.527921,-2.873789,-0.169401,0.161821,-0.042060,0.001013,-0.999081,0.042850,0.003213,0.017147,0.008328,-20.873760,-44.416569,3.541498,,,,,,,
1558973173.065483,3.086510,1.530684,-2.839645,-0.127021,0.096047,-0.053333,0.002208,-0.999196,0.040040,0.005254,0.022725,0.001189,-20.814301,-44.468090,3.231223,,,,,,,
1558973173.085487,3.056545,1.532434,-2.809543,-0.068901,-0.033213,-0.052389,0.003258,-0.999264,0.038215,0.004616,0.024441,-0.014976,-20.769560,-44.496861,3.121245,,,,,,,
1558973173.105443,3.017753,1.533281,-2.770934,-0.038886,0.018384,-0.078562,0.004633,-0.999296,0.037218,0.005957,0.021132,-0.018053,-20.744282,-44.510159,3.099630,,,,,,,
1558973173.125428,2.968866,1.533395,-2.720481,-0.008764,0.104868,-0.100131,0.006427,-0.999301,0.036837,0.007444,0.006106,-0.031298,-20.638708,-44.563793,3.033125,,,,,,,
1558973173.145440,2.927462,1.532429,-2.677182,0.061330,0.066482,-0.076954,0.008151,-0.999264,0.037482,0.020124,-0.011554,-0.030829,-20.559734,-44.602295,3.003338,,,,,,,
1558973173.165411,2.912634,1.529979,-2.662428,0.139707,-0.039585,-0.045877,0.009262,-0.999167,0.039742,0.024826,-0.030343,-0.039421,-20.529287,-44.614841,3.025136,,,,,,,
1558973173.185385,2.905045,1.526776,-2.655864,0.147165,-0.043873,-0.059792,0.010313,-0.999031,0.042781,0.033190,-0.112068,-0.035426,-20.459578,-44.632290,3.232888,,,,,,,
1558973173.205400,2.878039,1.524247,-2.629139,0.082394,-0.015062,-0.105477,0.012123,-0.998917,0.044927,0.046654,-0.210083,-0.014150,-20.388008,-44.656197,3.352617,,,,,,,
1558973173.225356,2.844323,1.522591,-2.596360,0.039628,-0.061312,-0.082465,0.014114,-0.998838,0.046072,0.035691,-0.263186,-0.022101,-20.315735,-44.684681,3.411357,,,,,,,
1558973173.245363,2.827872,1.522341,-2.580323,-0.025122,0.023684,-0.018713,0.014947,-0.998826,0.046072,0.006003,-0.313369,-0.037772,-20.258472,-44.707294,3.455347,,,,,,,
1558973173.265355,2.815897,1.523679,-2.565211,-0.106351,0.245018,-0.024133,0.015070,-0.998890,0.044622,-0.009378,-0.360347,-0.029409,-20.235935,-44.723896,3.371611,,,,,,,
1558973173.285322,2.761500,1.525401,-2.503508,-0.132237,0.400321,-0.167867,0.016836,-0.998970,0.042140,-0.002615,-0.368202,-0.017924,-20.235935,-44.723896,3.371611,,,,,,,
1558973173.305300,2.642057,1.524294,-2.378633,-0.012554,0.135173,-0.346471,0.022268,-0.998919,0.040805,0.031062,-0.383634,0.005566,-20.121393,-44.802242,2.995977,,,,,,,
1558973173.325310,2.507450,1.518119,-2.245961,0.120624,-0.230465,-0.495045,0.031195,-0.998613,0.042415,-0.007254,-0.403731,0.064885,-19.637165,-45.019207,2.956338,,,,,,,
1558973173.345289,2.367723,1.509820,-2.111892,-0.002875,-0.280698,-0.592781,0.042591,-0.998142,0.043584,-0.052021,-0.405804,0.086466,-19.400188,-45.114891,3.060511,,,,,,,
1558973173.365267,2.195307,1.502464,-1.942341,-0.267191,-0.079612,-0.645518,0.055391,-0.997666,0.039923,-0.052065,-0.350341,0.036081,-18.561615,-45.461185,3.135946,,,,,,,
1558973173.385268,2.023944,1.495007,-1.769840,-0.353979,0.079418,-0.630186,0.068075,-0.997129,0.033149,-0.013449,-0.300936,0.000421,-17.976913,-45.714527,2.845983,,,,,,,
1558973173.405226,1.897765,1.485786,-1.641118,-0.255952,0.113802,-0.618034,0.080410,-0.996389,0.027270,0.007817,-0.243113,-0.033908,-17.550346,-45.895233,2.588469,,,,,,,
1558973173.425234,1.843430,1.475086,-1.586041,0.052076,-0.061070,-0.553267,0.092035,-0.995423,0.025733,0.022558,-0.187163,-0.056204,-17.129379,-46.064808,2.388463,,,,,,,
1558973173.445225,1.855627,1.464112,-1.603837,0.313824,-0.386842,-0.481441,0.102192,-0.994315,0.029921,0.029446,-0.154199,-0.030196,-16.368252,-46.331177,2.567029,,,,,,,
1558973173.465187,1.874978,1.452575,-1.631893,0.288272,-0.415335,-0.540454,0.112532,-0.993020,0.035326,0.010897,-0.141486,-0.023409,-16.368252,-46.331177,2.567029,,,,,,,
1558973173.485194,1.865426,1.439925,-1.628583,0.094175,-0.251700,-0.651147,0.124875,-0.991449,0.037895,0.028110,-0.068549,-0.019752,-15.618874,-46.550667,3.189569,,,,,,,
1558973173.505152,1.845272,1.426270,-1.613403,0.130272,-0.297396,-0.687855,0.138632,-0.989574,0.039036,0.057596,-0.023197,-0.059956,-14.675838,-46.836952,3.465101,,,,,,,
1558973173.525165,1.849100,1.412121,-1.626895,0.409120,-0.607418,-0.626541,0.151931,-0.987437,0.043409,0.051881,0.016414,-0.053374,-14.180877,-46.973251,3.674720,,,,,,,
1558973173.545151,1.879669,1.398187,-1.674826,0.646264,-0.944604,-0.499325,0.163626,-0.985140,0.052211,0.006510,0.041018,-0.013926,-13.704841,-47.080109,4.089931,,,,,,,
1558973173.565124,1.906628,1.386072,-1.720894,0.484726,-0.827364,-0.418259,0.173415,-0.982987,0.060531,-0.073806,0.079270,0.016907,-13.002817,-47.177929,5.124137,,,,,,,
1558973173.585120,1.907727,1.377258,-1.732639,0.120069,-0.335962,-0.358330,0.181518,-0.981330,0.063584,-0.098587,0.112159,0.003891,-12.533517,-47.235592,5.726868,,,,,,,
1558973173.605108,1.894903,1.371790,-1.721669,-0.070546,0.016133,-0.247280,0.187402,-0.980264,0.062958,-0.102777,0.124795,-0.000519,-12.337669,-47.271839,5.851722,,,,,,,
1558973173.625083,1.884108,1.368977,-1.707648,-0.080798,0.182289,-0.145339,0.190694,-0.979703,0.061782,-0.063680,0.166059,-0.026946,-11.959968,-47.374199,5.807919,,,,,,,
1558973173.645045,1.878796,1.367327,-1.700433,-0.017647,-0.005033,-0.077685,0.192560,-0.979371,0.061258,-0.070444,0.191911,-0.029138,-11.849880,-47.414944,5.700046,,,,,,,
1558973173.665065,1.873128,1.365842,-1.697737,-0.010846,-0.213335,-0.101026,0.194292,-0.979070,0.060598,-0.112703,0.242910,-0.010946,-11.749483,-47.439243,5.705719,,,,,,,
1558973173.685020,1.857609,1.362455,-1.686336,-0.108466,-0.191922,-0.262114,0.198388,-0.978375,0.058514,-0.159967,0.280316,-0.002850,-11.633748,-47.465309,5.726032,,,,,,,
1558973173.705034,1.825460,1.356502,-1.654189,-0.335133,0.072203,-0.438065,0.205800,-0.977127,0.053573,-0.167881,0.302444,-0.001815,-11.343493,-47.546799,5.631557,,,,,,,
1558973173.725019,1.785276,1.348629,-1.608655,-0.388629,0.272125,-0.528012,0.215295,-0.975422,0.046898,-0.139291,0.360569,-0.062492,-10.813131,-47.722221,5.172291,,,,,,,
1558973173.744987,1.756173,1.338158,-1.573828,-0.184400,0.184241,-0.619440,0.226596,-0.973061,0.042493,-0.085605,0.387963,-0.081129,-10.296194,-47.875256,4.799552,,,,,,,
1558973173.764991,1.747958,1.327703,-1.565831,0.105888,-0.149965,-0.432365,0.236939,-0.970598,0.042421,-0.072556,0.384355,-0.063494,-9.872306,-47.973728,4.705935,,,,,,,
1558973173.784949,1.753095,1.322448,-1.576065,0.163680,-0.241781,-0.131053,0.241730,-0.969320,0.044562,-0.053834,0.377569,-0.019431,-9.427934,-48.042660,4.909601,,,,,,,
1558973173.804955,1.751669,1.321572,-1.576562,-0.098506,0.032465,-0.024009,0.242629,-0.969104,0.044370,-0.044066,0.349231,-0.009976,-9.353228,-48.046005,5.018491,,,,,,,
1558973173.824945,1.737096,1.321307,-1.555701,-0.323888,0.417258,-0.082430,0.243503,-0.969039,0.040872,-0.027622,0.345503,-0.012750,-9.330469,-48.064926,4.877731,,,,,,,
1558973173.844932,1.718086,1.320892,-1.524342,-0.394582,0.617436,-0.061353,0.244634,-0.968936,0.036295,0.003550,0.368732,-0.017145,-9.287081,-48.123955,4.349957,,,,,,,
1558973173.864917,1.701562,1.321268,-1.495365,-0.321434,0.542056,-0.025716,0.244839,-0.969029,0.032200,0.040836,0.376606,-0.013356,-9.297747,-48.162266,3.877578,,,,,,,
1558973173.884892,1.692375,1.320072,-1.476368,-0.150348,0.400406,-0.139038,0.246274,-0.968733,0.030090,0.029010,0.384413,-0.005416,-9.301377,-48.176987,3.680986,,,,,,,
1558973173.904877,1.693322,1.315894,-1.472748,0.037299,0.109610,-0.265518,0.250260,-0.967688,0.030818,0.061813,0.370505,0.006948,-9.121833,-48.231339,3.408420,,,,,,,
1558973173.924874,1.694873,1.308664,-1.473720,0.049955,0.011036,-0.403110,0.257149,-0.965840,0.032071,0.060417,0.393955,-0.004544,-8.813969,-48.285580,3.450241,,,,,,,
1558973173.944839,1.695106,1.300014,-1.474228,0.083903,-0.029327,-0.415214,0.265422,-0.963562,0.033166,0.052892,0.387314,-0.015175,-8.613977,-48.320084,3.472170,,,,,,,
1558973173.964841,1.700353,1.293866,-1.479540,0.109476,0.074439,-0.204941,0.271113,-0.961899,0.035322,0.033102,0.394516,-0.012526,-8.064295,-48.405205,3.604274,,,,,,,
1558973173.984831,1.710384,1.293292,-1.483064,0.002905,0.496131,0.091545,0.271292,-0.961742,0.038117,-0.001013,0.389141,-0.026108,-7.987741,-48.414951,3.643636,,,,,,,
1558973174.004806,1.718762,1.298613,-1.477192,-0.184854,0.805066,0.332437,0.265897,-0.963186,0.039633,-0.008146,0.387274,-0.027457,-8.068666,-48.405521,3.590192,,,,,,,
1558973174.024791,1.723322,1.306653,-1.463516,-0.262266,0.908046,0.361119,0.258051,-0.965316,0.039668,-0.050807,0.340378,0.010595,-8.625896,-48.342186,3.116756,,,,,,,
1558973174.044786,1.721785,1.313472,-1.443191,-0.346192,0.916804,0.268250,0.251599,-0.967074,0.038280,-0.052517,0.334323,0.022465,-8.907647,-48.310730,2.795444,,,,,,,
1558973174.064742,1.708541,1.320064,-1.409870,-0.538687,0.972787,0.272903,0.245764,-0.968731,0.034068,-0.011191,0.308391,-0.015773,-9.139277,-48.287842,2.417667,,,,,,,
1558973174.084758,1.683986,1.327506,-1.364447,-0.589917,0.957284,0.328231,0.239356,-0.970551,0.027209,0.016092,0.284012,-0.056491,-9.598384,-48.240170,1.358053,,,,,,,
1558973174.104743,1.670219,1.337371,-1.330841,-0.338961,0.976371,0.545347,0.230168,-0.972880,0.022960,0.029628,0.251872,0.015721,-9.997661,-48.173309,0.682647,,,,,,,
1558973174.124726,1.682760,1.351798,-1.322155,-0.110209,1.055872,0.793985,0.215892,-0.976116,0.024273,0.041143,0.195186,0.074710,-10.282360,-48.116207,0.437042,,,,,,,
1558973174.144712,1.691775,1.369367,-1.311488,-0.317216,0.941866,0.874937,0.198607,-0.979782,0.024145,0.036241,0.158615,0.164637,-11.433764,-47.857498,-0.126418,,,,,,,
1558973174.164684,1.667718,1.387208,-1.268211,-0.605754,0.889365,0.801603,0.181702,-0.983195,0.017666,0.048278,0.128001,0.096866,-12.246738,-47.649975,-0.764457,,,,,,,
1558973174.184685,1.614264,1.402443,-1.198787,-0.641452,0.655756,0.669085,0.167400,-0.985862,0.007281,0.042850,0.127830,0.079343,-12.611691,-47.546421,-1.170392,,,,,,,
1558973174.204669,1.573735,1.414687,-1.147176,-0.272581,0.457066,0.570323,0.155475,-0.987840,0.000457,-0.017917,0.141099,0.123612,-13.513149,-47.259945,-2.231543,,,,,,,
1558973174.224630,1.560962,1.425764,-1.127709,-0.159475,0.201685,0.539143,0.144517,-0.989501,-0.001421,0.068480,0.065643,0.105273,-13.897852,-47.137257,-2.452755,,,,,,,
1558973174.244641,1.514287,1.435133,-1.080463,-0.389212,-0.101651,0.455982,0.135032,-0.990812,-0.007639,0.052163,0.102170,0.104395,-14.268106,-47.017803,-2.614359,,,,,,,
1558973174.264599,1.433244,1.443013,-1.004998,-0.480727,-0.429947,0.425007,0.126232,-0.991847,-0.017474,-0.004589,0.052150,0.048587,-14.923819,-46.783913,-3.103614,,,,,,,
1558973174.284578,1.348167,1.449213,-0.929402,-0.331819,-0.483637,0.387245,0.118291,-0.992618,-0.026779,-0.026753,-0.021085,0.049453,-15.230608,-46.670105,-3.319230,,,,,,,
1558973174.304595,1.276125,1.456760,-0.862567,-0.303313,-0.166472,0.529097,0.108885,-0.993505,-0.033047,0.010286,-0.071665,0.049756,-15.527885,-46.562809,-3.446220,,,,,,,
1558973174.324583,1.167146,1.465604,-0.753541,-0.462550,0.023758,0.655705,0.096560,-0.994472,-0.041241,0.038099,-0.116657,-0.007236,-16.303169,-46.265617,-3.845301,,,,,,,
1558973174.344500,1.035602,1.473412,-0.621825,-0.346809,-0.083685,0.632367,0.083634,-0.995262,-0.049588,0.026549,-0.135124,-0.017581,-16.757517,-46.075050,-4.166876,,,,,,,
1558973174.364487,0.931481,1.481914,-0.523142,-0.012568,-0.425854,0.596263,0.071235,-0.996053,-0.052962,0.034600,-0.178539,-0.033601,-17.199722,-45.891983,-4.379803,,,,,,,
1558973174.384472,0.856926,1.493529,-0.459222,0.197639,-0.574871,0.643049,0.058343,-0.997016,-0.050541,0.011421,-0.224465,-0.008938,-18.088346,-45.573078,-4.122320,,,,,,,
1558973174.404459,0.723953,1.503824,-0.337434,-0.068478,-0.557565,0.678234,0.044326,-0.997758,-0.050138,-0.019149,-0.281951,-0.061709,-18.738707,-45.337433,-3.803287,,,,,,,
1558973174.424428,0.526981,1.508744,-0.150715,-0.147009,-0.523456,0.592018,0.031188,-0.998075,-0.053600,-0.022994,-0.314211,-0.086964,-19.219446,-45.141788,-3.730799,,,,,,,
1558973174.444410,0.358232,1.512465,0.009121,0.020678,-0.408249,0.469408,0.020441,-0.998299,-0.054598,-0.018152,-0.355049,-0.088606,-19.894033,-44.859425,-3.598190,,,,,,,
1558973174.464415,0.204958,1.516465,0.156117,0.095648,-0.274418,0.459004,0.011053,-0.998524,-0.053169,-0.036336,-0.370937,-0.079079,-20.326742,-44.680397,-3.401886,,,,,,,
1558973174.484385,0.024927,1.520514,0.330447,0.195428,-0.356321,0.466842,0.001253,-0.998736,-0.050245,-0.060320,-0.392682,-0.066622,-20.543053,-44.588894,-3.301612,,,,,,,
1558973174.504361,-0.145628,1.526173,0.490866,0.360923,-0.609024,0.289461,-0.006473,-0.999005,-0.044135,-0.111615,-0.382419,-0.017587,-21.155153,-44.339115,-2.754908,,,,,,,
1558973174.524371,-0.294977,1.532437,0.626257,0.333053,-0.718973,0.177351,-0.011149,-0.999264,-0.036694,-0.106511,-0.376163,-0.016208,-21.345070,-44.274197,-2.295862,,,,,,,
1558973174.544352,-0.430722,1.534394,0.750735,0.062520,-0.433187,0.196952,-0.015195,-0.999337,-0.033069,-0.106448,-0.324652,-0.001538,-21.531103,-44.209515,-1.737069,,,,,,,
1558973174.564328,-0.506821,1.530182,0.823763,-0.222432,0.005962,0.229754,-0.019709,-0.999175,-0.035499,-0.098379,-0.248582,-0.017312,-21.772558,-44.097015,-1.579910,,,,,,,
1558973174.584327,-0.522642,1.522851,0.842748,-0.311158,0.201931,0.199529,-0.023924,-0.998851,-0.041529,-0.092363,-0.209218,-0.031576,-21.921459,-44.015503,-1.781011,,,,,,,
1558973174.604312,-0.518073,1.516856,0.841366,-0.222961,0.112540,0.106926,-0.026698,-0.998546,-0.046838,-0.082936,-0.135625,-0.054221,-22.079578,-43.920944,-2.128361,,,,,,,
1558973174.624295,-0.495258,1.513994,0.818617,-0.124263,-0.050996,-0.052572,-0.026981,-0.998387,-0.049951,-0.071270,-0.068736,-0.059119,-22.153362,-43.870911,-2.378821,,,,,,,
1558973174.644283,-0.473607,1.505022,0.795090,-0.057089,-0.088599,-0.222618,-0.029979,-0.997838,-0.058493,-0.056768,-0.061626,-0.060708,-22.088421,-43.900887,-2.429217,,,,,,,
1558973174.664241,-0.409943,1.507801,0.730280,0.087977,-0.010124,-0.248442,-0.025091,-0.998016,-0.057737,-0.038233,-0.041305,-0.058794,-22.168764,-43.843250,-2.720750,,,,,,,
1558973174.684242,-0.358633,1.510106,0.680471,0.162899,0.131173,-0.213931,-0.021289,-0.998159,-0.056794,-0.009412,-0.018610,-0.018234,-21.902370,-43.983288,-2.616065,,,,,,,
1558973174.704211,-0.316816,1.514396,0.641589,0.162847,0.139709,-0.160467,-0.017562,-0.998410,-0.053565,0.003707,-0.016193,-0.015786,-21.803747,-44.031120,-2.635219,,,,,,,
1558973174.724222,-0.278586,1.518258,0.605005,0.151882,0.048884,-0.146398,-0.014441,-0.998620,-0.050490,0.010718,0.005471,0.009078,-21.690966,-44.090469,-2.572880,,,,,,,
1558973174.744197,-0.236131,1.523550,0.562797,0.145293,0.008826,-0.096610,-0.011049,-0.998884,-0.045919,0.007097,0.020246,0.019567,-21.460226,-44.216698,-2.330134,,,,,,,
1558973174.764179,-0.227706,1.526125,0.554881,0.105866,0.031344,-0.020623,-0.010081,-0.999002,-0.043503,0.016138,0.018229,0.018326,-21.438780,-44.228733,-2.298979,,,,,,,
1558973174.784159,-0.213054,1.529296,0.540874,0.074944,0.027321,0.008137,-0.008773,-0.999139,-0.040550,0.013625,0.020044,0.012749,-21.393431,-44.256443,-2.185230,,,,,,,
1558973174.804168,-0.216298,1.530202,0.544850,0.023951,0.050818,-0.008762,-0.008710,-0.999176,-0.039639,0.007520,0.018875,0.021572,-21.337074,-44.289623,-2.060484,,,,,,,
1558973174.824126,-0.203119,1.530016,0.532975,-0.029202,0.065873,-0.023607,-0.008224,-0.999169,-0.039930,0.017547,0.017662,0.005598,-21.324497,-44.294994,-2.075185,,,,,,,
1558973174.844136,-0.149987,1.530007,0.480276,0.045028,-0.014832,-0.011514,-0.006093,-0.999168,-0.040319,0.018712,0.017250,-0.004680,-21.306845,-44.301735,-2.112380,,,,,,,
1558973174.864123,-0.163922,1.532690,0.492840,0.176726,-0.093706,0.013460,-0.006217,-0.999274,-0.037587,0.014884,0.005667,0.014394,-21.219999,-44.347370,-2.027199,,,,,,,
1558973174.884108,-0.182195,1.538222,0.509180,0.127783,-0.088162,0.014540,-0.005901,-0.999470,-0.032030,0.009228,-0.000897,0.026095,-21.235134,-44.346737,-1.877085,,,,,,,
1558973174.904094,-0.241633,1.544215,0.567422,0.001325,-0.044215,-0.022506,-0.006361,-0.999647,-0.025809,-0.006136,-0.008608,0.030386,-21.212210,-44.366276,-1.662148,,,,,,,
1558973174.924079,-0.196386,1.545932,0.521449,-0.044331,-0.031359,-0.068329,-0.004852,-0.999691,-0.024386,0.006423,-0.030949,0.013461,-21.198662,-44.383545,-1.343408,,,,,,,
1558973174.944064,-0.100955,1.546308,0.425547,-0.013383,-0.025235,-0.105615,-0.002468,-0.999700,-0.024359,0.007884,-0.020594,0.001471,-21.081768,-44.440472,-1.300236,,,,,,,
1558973174.964050,-0.020391,1.547303,0.343219,0.078848,-0.134573,-0.092708,-0.000479,-0.999724,-0.023485,0.014303,-0.020311,-0.007002,-21.035030,-44.462788,-1.294250,,,,,,,
1558973174.984007,0.034256,1.549754,0.284469,0.162557,-0.233256,-0.053015,0.000721,-0.999779,-0.021031,-0.000660,-0.026955,-0.005718,-20.926964,-44.519474,-1.079823,,,,,,,
1558973175.004020,0.093520,1.552790,0.221393,0.133045,-0.142192,-0.048965,0.001682,-0.999838,-0.017928,-0.002979,-0.021173,-0.000337,-20.885221,-44.543919,-0.856896,,,,,,,
1558973175.023996,0.132557,1.554055,0.181043,0.024807,-0.024248,-0.016961,0.002213,-0.999860,-0.016597,-0.004853,-0.018588,0.001155,-20.885221,-44.543919,-0.856896,,,,,,,
1558973175.043973,0.147736,1.553113,0.166309,-0.033535,0.044784,-0.003536,0.002603,-0.999844,-0.017491,0.000769,-0.011280,-0.007380,-20.836569,-44.568691,-0.745921,,,,,,,
1558973175.063969,0.163322,1.551911,0.151809,-0.010070,0.047794,-0.029112,0.003071,-0.999822,-0.018637,0.001064,-0.008784,-0.013468,-20.827599,-44.571922,-0.801375,,,,,,,
1558973175.083933,0.229292,1.551524,0.085958,0.053628,-0.024486,-0.074595,0.004380,-0.999814,-0.018766,-0.000046,-0.001574,-0.012362,-20.804182,-44.581936,-0.851291,,,,,,,
