timestamp(unix),attitude_roll(radians),attitude_pitch(radians),attitude_yaw(radians),rotation_rate_x(radians/s),rotation_rate_y(radians/s),rotation_rate_z(radians/s),gravity_x(G),gravity_y(G),gravity_z(G),user_acc_x(G),user_acc_y(G),user_acc_z(G),magnetic_field_x(microteslas),magnetic_field_y(microteslas),magnetic_field_z(microteslas),latitude(degree),longitude(degree),altitude(meter),speed(m/s),course(degree),timestamp(unix),User Mark
1558975190.260140,-1.141916,1.141481,-0.368523,-0.145216,0.034249,0.160253,-0.378550,-0.909251,-0.173098,-0.013265,-0.000753,0.006594,-23.769405,-36.689682,8.877411,,,,,,,
1558975190.280126,-1.140697,1.137679,-0.369754,-0.094255,-0.005124,0.163120,-0.381477,-0.907662,-0.174999,0.003715,0.008812,0.008572,-23.829845,-36.664444,8.819473,,,,,,,
1558975190.300113,-1.141348,1.132725,-0.369824,-0.099742,-0.048414,0.176583,-0.385675,-0.905571,-0.176621,-0.014014,-0.000755,0.000428,-24.031769,-36.556301,8.719912,,,,,,,
1558975190.320105,-1.141877,1.127974,-0.370387,-0.121033,-0.037698,0.200158,-0.389676,-0.903546,-0.178204,-0.015719,-0.001697,-0.000064,-24.188141,-36.464378,8.672293,,,,,,,
1558975190.340092,-1.139900,1.122563,-0.373085,-0.199778,-0.017161,0.226982,-0.393760,-0.901214,-0.181014,-0.016366,-0.007218,-0.004564,-24.260532,-36.425388,8.633858,,,,,,,
1558975190.360069,-1.134513,1.115891,-0.378915,-0.268930,0.008616,0.257068,-0.398220,-0.898303,-0.185670,-0.008793,-0.002958,-0.013015,-24.515816,-36.307571,8.406006,,,,,,,
1558975190.380069,-1.130230,1.109806,-0.383942,-0.252905,0.016958,0.237942,-0.402358,-0.895613,-0.189701,0.010238,-0.008379,0.020145,-24.682659,-36.231812,8.243053,,,,,,,
1558975190.400029,-1.128160,1.104771,-0.384910,-0.127069,0.104090,0.280514,-0.406034,-0.893361,-0.192462,0.032866,0.002828,0.040363,-24.823067,-36.168663,8.097473,,,,,,,
1558975190.420036,-1.131387,1.100504,-0.379761,0.013258,0.055816,0.300448,-0.410099,-0.891436,-0.192771,0.022206,-0.031217,0.024772,-25.066303,-36.019669,8.011834,,,,,,,
1558975190.440033,-1.137112,1.098518,-0.371716,0.073304,0.125062,0.165565,-0.412802,-0.890534,-0.191163,0.029730,-0.029373,0.028871,-25.182817,-35.928379,8.056263,,,,,,,
1558975190.459997,-1.142164,1.098446,-0.364425,0.135871,0.050739,0.162766,-0.413820,-0.890501,-0.189102,0.031664,-0.023485,0.003891,-25.238514,-35.877419,8.108887,,,,,,,
1558975190.480011,-1.149598,1.095984,-0.356127,0.143944,-0.058092,0.219382,-0.417215,-0.889379,-0.186917,-0.032920,-0.026683,0.042904,-25.374687,-35.754128,8.227617,,,,,,,
1558975190.499998,-1.164698,1.093762,-0.341954,0.341566,-0.159508,0.245261,-0.421804,-0.888360,-0.181376,-0.048991,-0.036307,0.049815,-25.519194,-35.605370,8.423441,,,,,,,
1558975190.519964,-1.195316,1.092438,-0.312717,0.609613,-0.193594,0.308144,-0.428252,-0.887752,-0.168809,-0.047349,-0.049763,0.045900,-25.652029,-35.420128,8.792821,,,,,,,
1558975190.539970,-1.229863,1.090333,-0.278456,0.722234,-0.198217,0.440578,-0.435588,-0.886781,-0.154541,-0.023564,-0.025603,-0.031052,-25.897470,-35.058273,9.495481,,,,,,,
1558975190.559961,-1.259235,1.084991,-0.246590,0.534485,0.023750,0.484190,-0.444441,-0.884299,-0.143132,0.069991,0.021064,-0.043559,-26.213547,-34.674706,10.021998,,,,,,,
1558975190.579931,-1.275139,1.080322,-0.224537,0.387492,0.239895,0.311047,-0.450606,-0.882110,-0.137247,0.037154,0.039046,-0.022787,-26.453394,-34.431633,10.227732,,,,,,,
1558975190.599937,-1.287875,1.077430,-0.204742,0.395121,0.246040,0.206485,-0.454765,-0.880744,-0.132209,-0.033943,-0.011453,0.016166,-26.756506,-34.146172,10.394913,,,,,,,
1558975190.619908,-1.303000,1.076834,-0.184376,0.502168,0.065658,0.121567,-0.457219,-0.880461,-0.125455,-0.052761,0.014449,0.030545,-26.940161,-33.933792,10.613741,,,,,,,
1558975190.639913,-1.329130,1.076999,-0.155408,0.661754,0.011879,0.063533,-0.460200,-0.880539,-0.113432,-0.048681,0.031601,0.048063,-26.995932,-33.806961,10.873590,,,,,,,
1558975190.659904,-1.355452,1.079017,-0.124487,0.751338,0.069565,0.078037,-0.461289,-0.881494,-0.100901,-0.037903,0.001031,0.000345,-27.107594,-33.505848,11.509226,,,,,,,
1558975190.679890,-1.378194,1.078782,-0.096277,0.592736,0.114933,0.172297,-0.463667,-0.881383,-0.090424,-0.046557,-0.004618,-0.050964,-27.124668,-33.451855,11.625469,,,,,,,
1558975190.699878,-1.394498,1.076392,-0.076073,0.357222,0.050687,0.206726,-0.467153,-0.880251,-0.083222,-0.059840,0.053210,-0.056396,-27.326645,-33.102169,12.141928,,,,,,,
1558975190.719869,-1.402092,1.071940,-0.066799,0.194118,-0.033058,0.178038,-0.471629,-0.878130,-0.080330,-0.011128,0.042925,-0.032296,-27.502945,-32.867508,12.379044,,,,,,,
1558975190.739855,-1.406981,1.069044,-0.062173,0.012085,-0.038455,0.170367,-0.474524,-0.876741,-0.078437,-0.002390,0.023119,-0.047021,-27.577507,-32.812210,12.359835,,,,,,,
1558975190.759832,-1.399024,1.062114,-0.070572,-0.262528,0.012805,0.260324,-0.479859,-0.873387,-0.083247,-0.022628,0.028828,-0.062581,-27.737093,-32.652252,12.426183,,,,,,,
1558975190.779833,-1.387405,1.055584,-0.085200,-0.408726,-0.091049,0.275227,-0.484457,-0.870188,-0.089855,-0.003564,0.031672,-0.096546,-27.881205,-32.594818,12.253255,,,,,,,
1558975190.799819,-1.375977,1.050478,-0.100808,-0.426823,-0.175791,0.089699,-0.487752,-0.867661,-0.096244,0.029546,0.041199,-0.006188,-28.121939,-32.539223,11.844042,,,,,,,
1558975190.819807,-1.366150,1.049510,-0.117960,-0.450221,-0.253103,-0.093628,-0.487604,-0.867179,-0.101203,0.042368,0.033668,0.008811,-28.117521,-32.572254,11.763448,,,,,,,
1558975190.839797,-1.348149,1.048982,-0.141929,-0.502111,-0.129024,-0.004938,-0.486150,-0.866916,-0.110065,-0.007045,-0.009838,0.008365,-27.952671,-32.835899,11.418310,,,,,,,
1558975190.859755,-1.334815,1.046080,-0.159036,-0.413638,-0.068103,0.048030,-0.487084,-0.865466,-0.117125,0.006432,0.000018,0.016371,-27.952805,-32.925045,11.158314,,,,,,,
1558975190.879771,-1.326325,1.044268,-0.170792,-0.230524,-0.084999,-0.004300,-0.487592,-0.864557,-0.121635,0.014829,0.015741,0.037773,-27.958633,-32.957130,11.048439,,,,,,,
1558975190.899761,-1.324330,1.044500,-0.175800,-0.070968,-0.142990,-0.053839,-0.487154,-0.864673,-0.122559,0.013506,0.016163,0.033493,-27.913698,-33.037323,10.921843,,,,,,,
1558975190.919722,-1.325962,1.045380,-0.177692,-0.025267,-0.164369,-0.052939,-0.486615,-0.865115,-0.121579,0.014447,0.003589,0.000074,-27.861317,-33.068691,10.960591,,,,,,,
1558975190.939735,-1.326864,1.047121,-0.180095,-0.048623,-0.152643,-0.068863,-0.485262,-0.865987,-0.120776,0.017611,-0.004252,-0.001477,-27.764132,-33.128052,11.027749,,,,,,,
1558975190.959710,-1.326596,1.048741,-0.183717,-0.075114,-0.135657,-0.112495,-0.483868,-0.866796,-0.120567,0.011028,0.000814,0.015495,-27.654552,-33.200928,11.083755,,,,,,,
1558975190.979688,-1.325491,1.050263,-0.187507,-0.076094,-0.094377,-0.077936,-0.482454,-0.867554,-0.120781,-0.007216,0.005997,-0.009804,-27.558044,-33.275253,11.101252,,,,,,,
1558975190.999681,-1.321481,1.049986,-0.193962,-0.139003,-0.110911,-0.047182,-0.482199,-0.867416,-0.122774,-0.016657,0.005340,-0.014158,-27.533329,-33.311321,11.054285,,,,,,,
1558975191.019681,-1.317728,1.049863,-0.200688,-0.175158,-0.090610,-0.027799,-0.481838,-0.867355,-0.124609,-0.006611,-0.000824,0.002112,-27.467928,-33.381851,11.004127,,,,,,,
1558975191.039677,-1.317236,1.050021,-0.204095,-0.085770,-0.110140,-0.049267,-0.481643,-0.867434,-0.124812,-0.005066,0.003802,0.035502,-27.426191,-33.417301,11.000641,,,,,,,
1558975191.059636,-1.318787,1.051575,-0.205759,-0.000730,-0.174099,-0.110667,-0.480531,-0.868206,-0.123729,-0.002394,0.002514,0.022319,-27.394642,-33.440063,11.010075,,,,,,,
1558975191.079654,-1.321653,1.053624,-0.206298,0.024915,-0.140396,-0.101782,-0.479158,-0.869221,-0.121912,0.000902,0.014607,-0.000357,-27.231205,-33.527584,11.148472,,,,,,,
1558975191.099642,-1.320494,1.055035,-0.208853,-0.015313,-0.041783,-0.035745,-0.477828,-0.869917,-0.122164,0.017562,0.007765,-0.011503,-27.155931,-33.582981,11.165320,,,,,,,
1558975191.119628,-1.319487,1.055336,-0.210020,-0.013089,0.002650,-0.002222,-0.477452,-0.870066,-0.122580,0.015507,0.016535,0.002569,-27.143238,-33.592804,11.166647,,,,,,,
1558975191.139589,-1.322325,1.055539,-0.207533,0.046382,-0.027288,0.000724,-0.477626,-0.870166,-0.121181,0.002437,0.016238,0.014934,-27.125488,-33.603893,11.176403,,,,,,,
1558975191.159590,-1.327503,1.055285,-0.203024,0.104826,-0.055068,0.007980,-0.478462,-0.870041,-0.118759,0.004814,0.019622,0.001449,-27.136051,-33.556709,11.291929,,,,,,,
1558975191.179578,-1.332350,1.055743,-0.198752,0.122925,-0.060469,-0.005937,-0.478644,-0.870266,-0.116344,0.006064,0.010983,-0.004078,-27.139284,-33.537117,11.342278,,,,,,,
1558975191.199576,-1.337015,1.056452,-0.194333,0.119861,-0.027707,-0.020572,-0.478581,-0.870615,-0.113967,0.003896,0.015009,-0.005204,-27.114147,-33.502274,11.504203,,,,,,,
1558975191.219571,-1.340191,1.056792,-0.190392,0.093341,0.022183,0.026860,-0.478653,-0.870782,-0.112379,0.013214,0.018198,-0.003893,-27.115932,-33.480103,11.564370,,,,,,,
1558975191.239538,-1.342509,1.056483,-0.187137,0.077366,0.021213,0.028974,-0.479175,-0.870631,-0.111330,0.006411,0.018839,0.004244,-27.134197,-33.457329,11.587427,,,,,,,
1558975191.259544,-1.343796,1.055986,-0.184897,0.050805,0.029785,0.013021,-0.479739,-0.870386,-0.110811,0.004321,0.005075,-0.004378,-27.172804,-33.411003,11.630524,,,,,,,
1558975191.279534,-1.344411,1.056082,-0.183446,0.029513,0.029900,0.015139,-0.479725,-0.870433,-0.110497,0.011845,0.008525,0.000756,-27.187656,-33.398277,11.632374,,,,,,,
1558975191.299505,-1.344992,1.055873,-0.181803,0.013649,0.070178,0.034729,-0.479966,-0.870331,-0.110259,0.003953,0.007202,-0.000169,-27.196644,-33.385391,11.648354,,,,,,,
1558975191.319512,-1.344319,1.055484,-0.180725,0.002016,0.094555,0.038155,-0.480222,-0.870139,-0.110658,0.009137,-0.000390,0.004106,-27.246738,-33.356617,11.613670,,,,,,,
1558975191.339474,-1.345066,1.055553,-0.178600,0.049851,0.050889,-0.012403,-0.480246,-0.870173,-0.110286,-0.003274,0.003565,0.015864,-27.249958,-33.356861,11.605413,,,,,,,
1558975191.359486,-1.345745,1.056090,-0.176618,0.093383,0.013655,-0.020198,-0.479865,-0.870437,-0.109855,0.002632,0.014007,-0.016518,-27.267744,-33.339455,11.613641,,,,,,,
1558975191.379476,-1.347180,1.056236,-0.174457,0.050785,0.022379,0.009746,-0.479898,-0.870509,-0.109138,-0.000082,0.004130,-0.002709,-27.273390,-33.326141,11.638588,,,,,,,
1558975191.399439,-1.348412,1.055716,-0.173093,0.033569,-0.030370,0.016701,-0.480474,-0.870253,-0.108647,-0.003733,0.001158,-0.007289,-27.294533,-33.302071,11.657893,,,,,,,
1558975191.419451,-1.348042,1.056008,-0.174174,-0.015393,-0.041782,-0.012275,-0.480185,-0.870397,-0.108769,0.011313,-0.002100,-0.010952,-27.296509,-33.298546,11.663328,,,,,,,
1558975191.439441,-1.347747,1.056487,-0.175263,-0.029180,-0.023733,-0.006776,-0.479748,-0.870632,-0.108818,0.018658,-0.001178,0.009636,-27.279903,-33.313240,11.660217,,,,,,,
1558975191.459426,-1.349318,1.057450,-0.174612,0.011178,-0.049303,0.000482,-0.479099,-0.871106,-0.107880,0.020679,0.019559,0.007675,-27.228798,-33.346077,11.685772,,,,,,,
1558975191.479415,-1.351106,1.056972,-0.173461,0.014402,-0.017537,0.049901,-0.479698,-0.870871,-0.107114,0.010093,0.019431,0.010220,-27.210567,-33.349678,11.717930,,,,,,,
1558975191.499405,-1.354393,1.056649,-0.169323,0.077635,0.113203,0.053337,-0.480322,-0.870713,-0.105597,0.030874,0.009232,0.038962,-27.260256,-33.293201,11.762939,,,,,,,
1558975191.519361,-1.357463,1.057887,-0.163335,0.185174,0.105188,0.019177,-0.479590,-0.871320,-0.103893,0.044501,-0.009356,0.016277,-27.279083,-33.260773,11.810963,,,,,,,
1558975191.539380,-1.362664,1.060012,-0.154248,0.263172,0.160693,-0.052831,-0.478311,-0.872361,-0.101015,0.026987,-0.006896,-0.000868,-27.248056,-33.259068,11.887121,,,,,,,
1558975191.559349,-1.368890,1.061932,-0.141722,0.404975,0.264707,0.024080,-0.477289,-0.873299,-0.097699,-0.043112,0.052467,0.071637,-27.248989,-33.238014,11.943741,,,,,,,
1558975191.579344,-1.383119,1.063274,-0.119545,0.580472,0.217262,0.015225,-0.477479,-0.873951,-0.090679,-0.034789,0.018208,0.015530,-27.337339,-33.105782,12.107978,,,,,,,
1558975191.599343,-1.399740,1.065412,-0.098137,0.494825,0.040040,-0.048462,-0.477078,-0.874989,-0.082412,-0.016804,-0.002788,-0.023606,-27.399176,-32.956112,12.373590,,,,,,,
1558975191.619334,-1.414566,1.068783,-0.082882,0.314407,-0.164224,-0.149853,-0.475331,-0.876615,-0.074872,-0.042140,0.044920,-0.145557,-27.339188,-32.862907,12.748491,,,,,,,
1558975191.639320,-1.417002,1.070909,-0.090257,-0.445195,-0.328213,-0.093311,-0.473669,-0.877637,-0.073427,-0.089090,0.001126,-0.035764,-27.189632,-32.897980,12.975840,,,,,,,
1558975191.659308,-1.401147,1.065634,-0.113045,-0.629438,-0.162783,0.326643,-0.477002,-0.875096,-0.081708,-0.079043,-0.006465,-0.050295,-27.086460,-33.009205,12.908989,,,,,,,
1558975191.679298,-1.384685,1.052976,-0.134018,-0.597544,-0.048380,0.604284,-0.486440,-0.868900,-0.091592,-0.052730,0.022312,0.035836,-27.225386,-33.013664,12.601668,,,,,,,
1558975191.699285,-1.370692,1.039180,-0.151393,-0.528362,-0.074187,0.553913,-0.496812,-0.861989,-0.100763,0.000291,-0.028438,0.070962,-27.687706,-32.797539,12.150642,,,,,,,
1558975191.719253,-1.364339,1.030430,-0.160530,-0.108431,-0.049349,0.259816,-0.503525,-0.857520,-0.105459,0.060669,-0.025842,0.133673,-27.943094,-32.663284,11.925554,,,,,,,
1558975191.739249,-1.375141,1.030271,-0.150221,0.370791,-0.124192,-0.040525,-0.504769,-0.857438,-0.100041,0.041222,-0.001326,-0.058498,-28.128531,-32.486591,11.972180,,,,,,,
1558975191.759250,-1.381617,1.032888,-0.143152,0.063808,0.055996,-0.080685,-0.503200,-0.858782,-0.096347,-0.005589,0.006334,-0.068097,-28.058338,-32.465996,12.190756,,,,,,,
1558975191.779222,-1.375400,1.032793,-0.147491,-0.173411,0.141924,0.000021,-0.502671,-0.858734,-0.099489,-0.002898,0.010620,-0.022093,-28.046637,-32.481682,12.175896,,,,,,,
1558975191.799212,-1.368342,1.032881,-0.153402,-0.105477,0.056920,-0.057323,-0.501883,-0.858779,-0.103020,-0.028269,0.009276,0.030830,-28.075474,-32.549652,11.925346,,,,,,,
1558975191.819215,-1.366234,1.033961,-0.155842,-0.052486,-0.005696,-0.039730,-0.500756,-0.859331,-0.103889,-0.131843,-0.006590,-0.080025,-28.033794,-32.603981,11.874865,,,,,,,
1558975191.839174,-1.355548,1.029064,-0.165380,-0.417968,0.048556,0.321361,-0.503722,-0.856817,-0.110131,-0.106797,0.014059,-0.146933,-28.034607,-32.615852,11.840308,,,,,,,
1558975191.859184,-1.345599,1.023494,-0.176854,-0.289065,-0.017974,0.108365,-0.507246,-0.853931,-0.116202,0.021360,0.016498,0.055014,-28.298824,-32.537586,11.419627,,,,,,,
1558975191.879179,-1.340920,1.020758,-0.182865,-0.141053,0.014072,0.146158,-0.508969,-0.852505,-0.119106,-0.091876,0.048031,-0.030583,-28.349483,-32.537548,11.293398,,,,,,,
1558975191.899144,-1.340770,1.016732,-0.186042,-0.154555,-0.215255,0.129005,-0.512289,-0.850393,-0.119963,0.009390,-0.025934,-0.032518,-28.431534,-32.480827,11.250320,,,,,,,
1558975191.919155,-1.338560,1.015175,-0.195508,-0.318599,-0.318204,-0.021582,-0.513311,-0.849573,-0.121400,0.011999,0.005487,-0.029235,-28.428093,-32.479847,11.261841,,,,,,,
1558975191.939143,-1.335053,1.013815,-0.207969,-0.327405,-0.391042,0.011878,-0.514005,-0.848855,-0.123469,0.043744,-0.055824,-0.005315,-28.340549,-32.565414,11.235353,,,,,,,
1558975191.959130,-1.332997,1.008458,-0.218920,-0.495481,0.037104,0.168523,-0.518162,-0.846011,-0.125595,0.025623,0.191790,0.123275,-28.331299,-32.543743,11.321140,,,,,,,
1558975191.979121,-1.301030,1.001243,-0.243101,-0.775175,0.784888,0.211756,-0.519753,-0.842142,-0.143715,0.093850,-0.047232,-0.026390,-28.535254,-32.589321,10.658400,,,,,,,
1558975191.999098,-1.264769,0.993743,-0.267455,-0.678214,0.797010,0.176717,-0.520209,-0.838074,-0.164361,0.027396,0.067566,0.028375,-32.886120,-32.440052,13.183958,,,,,,,
1558975192.019095,-1.238421,0.987460,-0.284321,-0.446279,0.416259,0.132688,-0.520666,-0.834629,-0.179724,0.009588,0.036885,-0.007959,-33.114555,-32.475895,12.506517,,,,,,,
1558975192.039084,-1.228463,0.982578,-0.292842,-0.119726,-0.011534,0.063733,-0.522682,-0.831931,-0.186265,-0.017082,0.031500,-0.023436,-33.298706,-32.493233,11.960636,,,,,,,
1558975192.059065,-1.234501,0.982458,-0.289100,0.202238,-0.199303,0.035502,-0.523892,-0.831864,-0.183139,-0.013813,0.024552,-0.008161,-33.355789,-32.442730,11.938641,,,,,,,
1558975192.079059,-1.245432,0.983472,-0.279471,0.279260,-0.083434,0.036673,-0.525063,-0.832426,-0.177132,-0.021522,0.019072,-0.002525,-33.338848,-32.389294,12.129524,,,,,,,
1558975192.099049,-1.255787,0.984185,-0.268132,0.215861,0.038388,-0.005981,-0.526305,-0.832821,-0.171501,-0.034410,-0.006550,0.034310,-33.342728,-32.260612,12.457341,,,,,,,
1558975192.119024,-1.257443,0.985472,-0.265500,0.010371,0.004519,-0.051311,-0.525567,-0.833533,-0.170299,-0.032767,-0.023294,0.020900,-33.360474,-32.190529,12.590439,,,,,,,
1558975192.139023,-1.255397,0.985985,-0.268336,-0.104625,-0.003327,-0.047208,-0.524812,-0.833816,-0.171241,-0.025588,-0.025437,0.012275,-33.337524,-32.212414,12.595245,,,,,,,
1558975192.159013,-1.247340,0.985490,-0.275189,-0.202035,0.176875,-0.025289,-0.523806,-0.833543,-0.175595,-0.018324,-0.024901,-0.014316,-33.310398,-32.305229,12.428203,,,,,,,
1558975192.178980,-1.235302,0.984075,-0.283229,-0.244264,0.294461,-0.000709,-0.522767,-0.832760,-0.182276,0.002153,-0.013523,-0.025091,-33.344585,-32.352425,12.211873,,,,,,,
1558975192.198988,-1.221664,0.982671,-0.292325,-0.175271,0.234906,-0.002293,-0.521331,-0.831982,-0.189788,0.008635,-0.003146,-0.027619,-33.413956,-32.409149,11.866972,,,,,,,
1558975192.218978,-1.216488,0.982090,-0.295379,-0.030033,0.057635,0.006803,-0.520795,-0.831659,-0.192652,0.015043,-0.012228,-0.035177,-33.464005,-32.477863,11.533411,,,,,,,
1558975192.238957,-1.221556,0.982149,-0.291612,0.117314,-0.133413,-0.000245,-0.521718,-0.831693,-0.189993,-0.029307,-0.028705,0.008475,-33.467850,-32.458923,11.575491,,,,,,,
1558975192.258951,-1.226441,0.983652,-0.289133,0.050377,-0.127883,-0.071778,-0.521463,-0.832526,-0.187020,-0.028174,-0.025811,0.015374,-33.440517,-32.430080,11.734242,,,,,,,
1558975192.278922,-1.225735,0.985096,-0.291744,-0.098326,-0.042584,-0.100975,-0.520199,-0.833325,-0.186981,0.002209,-0.010730,0.011505,-33.383938,-32.456841,11.821028,,,,,,,
1558975192.298928,-1.219797,0.987045,-0.297696,-0.172266,0.121608,-0.121885,-0.517554,-0.834401,-0.189508,0.017706,-0.006892,-0.011511,-33.254475,-32.612091,11.758486,,,,,,,
1558975192.318914,-1.211926,0.987903,-0.303919,-0.114830,0.128774,-0.075862,-0.515375,-0.834874,-0.193324,0.023417,-0.003643,-0.011022,-33.230167,-32.672119,11.660159,,,,,,,
1558975192.338890,-1.207021,0.988512,-0.307513,-0.019494,0.025870,0.008638,-0.513946,-0.835209,-0.195669,0.020003,0.009571,0.017660,-33.184952,-32.803802,11.416649,,,,,,,
1558975192.358894,-1.207106,0.988814,-0.307086,0.008134,0.011987,0.010661,-0.513727,-0.835374,-0.195536,0.018076,0.008394,0.007883,-33.196980,-32.796017,11.404050,,,,,,,
1558975192.378850,-1.208211,0.988238,-0.306014,0.024969,-0.025023,0.060499,-0.514392,-0.835058,-0.195139,0.023975,0.011907,0.009393,-33.187534,-32.802822,11.411983,,,,,,,
1558975192.398857,-1.211207,0.986894,-0.303398,-0.020652,0.022788,0.066260,-0.516025,-0.834318,-0.193991,-0.003827,0.007017,0.025641,-33.239861,-32.737736,11.446548,,,,,,,
1558975192.418858,-1.208211,0.985492,-0.304857,-0.084190,0.115055,0.047874,-0.516534,-0.833544,-0.195951,-0.002128,0.007922,0.025007,-33.294624,-32.692139,11.417635,,,,,,,
1558975192.438815,-1.204216,0.983675,-0.307252,-0.091800,0.077075,0.069925,-0.517161,-0.832539,-0.198556,-0.004843,0.014957,0.025231,-33.324230,-32.685612,11.349740,,,,,,,
1558975192.458835,-1.207459,0.980669,-0.304775,-0.063367,-0.023512,0.059384,-0.520139,-0.830870,-0.197766,-0.009616,0.014326,0.017575,-33.442551,-32.588455,11.280923,,,,,,,
1558975192.478822,-1.211935,0.978595,-0.302685,-0.004164,-0.142191,0.073247,-0.522631,-0.829714,-0.196041,-0.007062,0.014772,0.021388,-33.496109,-32.509411,11.349866,,,,,,,
1558975192.498795,-1.215701,0.977082,-0.301446,-0.060240,-0.053154,0.043095,-0.524542,-0.828869,-0.194507,-0.010798,0.006145,0.027347,-33.514687,-32.462177,11.429944,,,,,,,
1558975192.518799,-1.216484,0.975173,-0.301931,-0.112205,-0.008534,0.013591,-0.526177,-0.827799,-0.194645,-0.015281,0.002695,0.014576,-33.558506,-32.392445,11.498986,,,,,,,
1558975192.538786,-1.214532,0.973752,-0.304950,-0.098428,-0.028696,0.010208,-0.526898,-0.827001,-0.196082,0.002056,0.011220,0.003668,-33.588665,-32.370766,11.471954,,,,,,,
1558975192.558772,-1.213866,0.973121,-0.306866,-0.029366,-0.061806,0.023826,-0.527256,-0.826646,-0.196615,0.010517,0.011506,0.000341,-33.592033,-32.373180,11.455266,,,,,,,
1558975192.578752,-1.216202,0.972880,-0.306030,0.056571,-0.123482,0.078819,-0.527901,-0.826510,-0.195452,0.025307,0.011386,0.001513,-33.590965,-32.360104,11.495260,,,,,,,
1558975192.598738,-1.222811,0.971816,-0.301987,0.086215,-0.158472,0.110536,-0.530008,-0.825911,-0.192259,0.008096,0.006514,0.012312,-33.596668,-32.317715,11.597411,,,,,,,
1558975192.618718,-1.229331,0.970613,-0.297537,0.086327,-0.127830,0.103355,-0.532185,-0.825232,-0.189132,0.008702,0.005408,0.005629,-33.611053,-32.255730,11.727550,,,,,,,
1558975192.638727,-1.236101,0.969309,-0.293334,0.033071,-0.152969,0.071043,-0.534469,-0.824495,-0.185877,-0.010437,-0.004713,0.016703,-33.653988,-32.125622,11.959270,,,,,,,
1558975192.658699,-1.240955,0.968472,-0.292037,-0.015958,-0.182341,0.049370,-0.536018,-0.824021,-0.183505,-0.000130,-0.020873,0.011736,-33.648972,-32.067341,12.128600,,,,,,,
1558975192.678685,-1.243777,0.967332,-0.292689,-0.081877,-0.142835,0.083858,-0.537423,-0.823375,-0.182293,0.004739,-0.025258,0.008465,-33.644035,-32.052261,12.182029,,,,,,,
1558975192.698662,-1.242582,0.965275,-0.296445,-0.189083,-0.051375,0.080375,-0.538807,-0.822205,-0.183481,-0.015468,-0.042510,-0.006323,-33.643082,-32.028820,12.246138,,,,,,,
1558975192.718680,-1.236768,0.962310,-0.303154,-0.235600,0.042934,0.073767,-0.540032,-0.820514,-0.187408,-0.032661,-0.066296,-0.025345,-33.692017,-32.028217,12.112469,,,,,,,
1558975192.738666,-1.231780,0.959871,-0.308970,-0.164469,-0.026183,0.048607,-0.540976,-0.819118,-0.190765,-0.029871,-0.083882,-0.030396,-33.720161,-32.031746,12.024502,,,,,,,
1558975192.758657,-1.229933,0.959444,-0.313121,-0.073168,-0.116562,0.012579,-0.540953,-0.818872,-0.191881,-0.037981,-0.139959,-0.047835,-33.721451,-32.076294,11.901514,,,,,,,
1558975192.778644,-1.230359,0.959269,-0.314432,-0.027078,-0.035464,-0.020773,-0.541169,-0.818772,-0.191698,-0.060546,-0.199615,-0.040388,-33.701317,-32.085495,11.933702,,,,,,,
1558975192.798631,-1.226283,0.960789,-0.317403,-0.082614,0.168622,-0.160861,-0.539211,-0.819644,-0.193481,-0.088642,-0.227246,-0.037369,-33.689133,-32.099499,11.930429,,,,,,,
1558975192.818607,-1.214014,0.963793,-0.325184,-0.201084,0.360442,-0.242397,-0.534487,-0.821361,-0.199222,-0.094694,-0.402623,-0.054929,-33.597786,-32.301765,11.638547,,,,,,,
1558975192.838608,-1.197290,0.967563,-0.335241,-0.166673,0.440511,-0.298188,-0.528194,-0.823506,-0.207001,-0.123615,-0.433758,-0.057450,-33.518574,-32.526787,11.233153,,,,,,,
1558975192.858587,-1.182865,0.974726,-0.342335,0.018781,0.421273,-0.495739,-0.519679,-0.827548,-0.212361,-0.169438,-0.486233,-0.055034,-33.465485,-32.647823,11.038630,,,,,,,
1558975192.878563,-1.170860,0.987917,-0.347566,0.187133,0.345989,-0.769642,-0.506993,-0.834881,-0.214315,-0.172359,-0.568698,-0.088358,-33.252216,-32.959808,10.752291,,,,,,,
1558975192.898572,-1.165278,1.007934,-0.347975,0.525527,0.203274,-1.007755,-0.490332,-0.845731,-0.210506,-0.204690,-0.561175,-0.044621,-32.558884,-33.672359,10.665925,,,,,,,
1558975192.918554,-1.171632,1.034630,-0.338968,0.830703,0.006868,-1.217582,-0.470685,-0.859673,-0.198539,-0.238147,-0.547340,-0.001031,-32.558884,-33.672359,10.665925,,,,,,,
1558975192.938530,-1.179459,1.065619,-0.329771,0.740600,0.032417,-1.413857,-0.447375,-0.875089,-0.184595,-0.258237,-0.538684,0.045099,-31.420912,-34.525749,11.330027,,,,,,,
1558975192.958522,-1.173897,1.097784,-0.333164,0.447481,0.164785,-1.576174,-0.420156,-0.890200,-0.176105,-0.299952,-0.458509,-0.013958,-29.938328,-35.602997,11.991388,,,,,,,
1558975192.978507,-1.160448,1.132367,-0.345040,0.463575,0.117913,-1.763448,-0.389275,-0.905420,-0.169352,-0.324684,-0.411658,-0.036443,-29.938328,-35.602997,11.991388,,,,,,,
1558975192.998497,-1.146523,1.170283,-0.358003,0.572226,0.091816,-1.869308,-0.355323,-0.920861,-0.160502,-0.257928,-0.277381,-0.055745,-28.148792,-36.913410,12.357845,,,,,,,
1558975193.018496,-1.137780,1.209431,-0.367386,0.720628,-0.078020,-1.824906,-0.320921,-0.935415,-0.148354,-0.171892,-0.195918,-0.086692,-26.079567,-38.202145,12.966241,,,,,,,
1558975193.038488,-1.150110,1.248201,-0.361100,1.010780,-0.460871,-1.653244,-0.289387,-0.948416,-0.129471,-0.143490,-0.170649,-0.101990,-26.079567,-38.202145,12.966241,,,,,,,
1558975193.058478,-1.188293,1.284501,-0.332066,1.117840,-0.492799,-1.421785,-0.261992,-0.959297,-0.105404,-0.194993,-0.128823,0.026745,-23.959015,-39.125652,14.241467,,,,,,,
1558975193.078444,-1.217324,1.317903,-0.307193,0.749717,-0.146392,-1.497770,-0.234738,-0.968192,-0.086611,-0.226901,-0.054680,0.032351,-22.068840,-39.653046,15.756667,,,,,,,
1558975193.098453,-1.222595,1.353254,-0.307940,0.564911,-0.470336,-1.774336,-0.202878,-0.976431,-0.073643,-0.259204,-0.070536,0.002049,-22.068840,-39.653046,15.756667,,,,,,,
1558975193.118410,-1.232384,1.394740,-0.315551,0.684831,-1.043260,-2.076530,-0.165215,-0.984542,-0.058147,-0.302132,0.026931,-0.109898,-18.947958,-40.682453,17.134274,,,,,,,
1558975193.138411,-1.264778,1.440431,-0.305040,0.875393,-1.077159,-2.164249,-0.123957,-0.991515,-0.039163,-0.271246,0.080900,-0.138159,-17.369812,-41.066345,17.874998,,,,,,,
1558975193.158417,-1.326363,1.486300,-0.261209,0.781521,-0.790139,-2.112465,-0.081887,-0.996432,-0.020424,-0.256034,0.128573,-0.149086,-15.742348,-41.365574,18.674538,,,,,,,
1558975193.178407,-1.370820,1.527857,-0.228122,0.413007,-0.444468,-1.950381,-0.042070,-0.999078,-0.008527,-0.214156,0.250116,-0.082644,-12.720448,-41.834610,19.892874,,,,,,,
1558975193.198387,-0.948390,1.564343,-0.656847,0.161023,-0.275883,-1.780281,-0.005246,-0.999979,-0.003764,-0.170001,0.236460,-0.118413,-11.405758,-42.081482,20.167492,,,,,,,
1558975193.218381,1.600950,1.542219,3.069541,0.336967,-0.440427,-1.634379,0.028561,-0.999592,0.000861,-0.179226,0.247501,-0.143913,-10.191662,-42.317837,20.322428,,,,,,,
1558975193.238328,1.763020,1.510486,2.897990,0.651829,-0.433379,-1.468575,0.059165,-0.998182,0.011515,-0.149909,0.295103,-0.097544,-7.870285,-42.512974,20.937429,,,,,,,
1558975193.258301,1.832105,1.481187,2.822629,0.530866,-0.244364,-1.313121,0.086451,-0.995988,0.023119,-0.107447,0.299348,-0.010714,-6.530305,-42.445469,21.526917,,,,,,,
1558975193.278303,1.831518,1.454162,2.817605,0.279355,-0.330767,-1.307744,0.112438,-0.993206,0.029998,-0.128490,0.304348,-0.008696,-5.622921,-42.411236,21.848118,,,,,,,
1558975193.298293,1.806488,1.428078,2.834142,0.217035,-0.491054,-1.273028,0.138302,-0.989833,0.033214,-0.101391,0.308726,-0.024150,-4.040201,-42.428852,22.161680,,,,,,,
1558975193.318269,1.791936,1.402922,2.837274,0.280436,-0.601211,-1.202499,0.163018,-0.985942,0.036649,-0.115212,0.315837,-0.004087,-3.063725,-42.417049,22.340057,,,,,,,
1558975193.338267,1.773886,1.379644,2.844835,0.079621,-0.447816,-1.114713,0.186086,-0.981786,0.038320,-0.135167,0.336202,0.016840,-1.788110,-42.358707,22.587902,,,,,,,
1558975193.358255,1.739222,1.359811,2.875255,-0.230349,-0.131017,-0.993420,0.206460,-0.977825,0.035106,-0.122842,0.332607,-0.014674,-0.442321,-42.388203,22.599005,,,,,,,
1558975193.378245,1.699315,1.341684,2.915995,-0.305474,0.026938,-0.949262,0.225240,-0.973868,0.029108,-0.064428,0.341254,-0.062631,0.404850,-42.517490,22.355518,,,,,,,
1558975193.398230,1.674771,1.323755,2.940235,-0.085595,-0.098891,-0.912923,0.243215,-0.969640,0.025380,-0.067480,0.358739,-0.037816,1.003726,-42.595417,22.187698,,,,,,,
1558975193.418215,1.663312,1.305444,2.948149,-0.004107,-0.251553,-0.929266,0.261128,-0.965000,0.024228,-0.029026,0.384892,-0.042035,2.055170,-42.590527,22.124508,,,,,,,
1558975193.438184,1.650134,1.286977,2.954515,0.023115,-0.389107,-0.928426,0.279143,-0.959993,0.022193,0.013673,0.392793,-0.033637,2.985600,-42.549789,22.096886,,,,,,,
1558975193.458183,1.643880,1.268917,2.953164,0.124185,-0.377918,-0.866314,0.296522,-0.954779,0.021710,0.029070,0.385321,-0.038952,3.464574,-42.511528,22.100624,,,,,,,
1558975193.478160,1.643854,1.252920,2.945834,0.166813,-0.307141,-0.743891,0.311716,-0.949901,0.022814,0.076605,0.415020,0.002699,4.789617,-42.316582,22.226952,,,,,,,
1558975193.498173,1.639242,1.240078,2.947269,-0.093398,-0.051841,-0.576170,0.323962,-0.945809,0.022208,0.096799,0.404183,0.003365,5.468511,-42.207458,22.277714,,,,,,,
1558975193.518150,1.626097,1.230917,2.964139,-0.318330,0.246602,-0.414415,0.332864,-0.942795,0.018426,0.106773,0.392014,-0.005868,5.705215,-42.205338,22.222303,,,,,,,
1558975193.538124,1.613095,1.224915,2.985596,-0.353210,0.393944,-0.257156,0.338723,-0.940777,0.014336,0.132469,0.404202,0.007011,6.033704,-42.340286,21.876122,,,,,,,
1558975193.558137,1.600919,1.221661,3.007306,-0.372451,0.427000,-0.130872,0.341930,-0.939669,0.010303,0.107197,0.432497,0.014004,6.034168,-42.471283,21.620583,,,,,,,
1558975193.578100,1.589832,1.220534,3.029572,-0.381811,0.540300,-0.029437,0.343082,-0.939283,0.006531,0.094128,0.450773,0.018203,5.989691,-42.545044,21.487526,,,,,,,
1558975193.598116,1.580650,1.221162,3.052102,-0.390189,0.621862,0.056749,0.342538,-0.939498,0.003375,0.073371,0.448455,-0.004688,5.663210,-42.786404,21.093178,,,,,,,
1558975193.618101,1.572396,1.223218,3.074564,-0.365762,0.636636,0.126307,0.340621,-0.940200,0.000545,0.060654,0.459121,-0.011501,5.323879,-42.959183,20.828714,,,,,,,
1558975193.638085,1.568693,1.226339,3.090315,-0.194940,0.485705,0.168772,0.337685,-0.941259,-0.000710,0.065681,0.434469,-0.017356,4.952683,-43.102528,20.623138,,,,,,,
1558975193.658078,1.571150,1.229554,3.095415,-0.026286,0.295587,0.151073,0.334658,-0.942339,0.000119,0.080594,0.403140,-0.023144,4.641089,-43.170963,20.552349,,,,,,,
1558975193.678065,1.578695,1.232512,3.091103,0.140212,0.110810,0.163317,0.331859,-0.943325,0.002621,0.048695,0.415188,-0.016446,4.425193,-43.171925,20.597897,,,,,,,
1558975193.698052,1.594050,1.236967,3.076262,0.273998,0.054237,0.265377,0.327574,-0.944795,0.007619,0.015794,0.414292,-0.010304,4.276447,-43.125603,20.725946,,,,,,,
1558975193.718043,1.610625,1.243064,3.060848,0.201797,0.140333,0.331269,0.321641,-0.946775,0.012817,0.036421,0.360502,-0.011108,3.930320,-43.019341,21.013317,,,,,,,
1558975193.738008,1.624829,1.249443,3.049778,0.171124,0.198624,0.327532,0.315390,-0.948809,0.017058,0.068125,0.368746,-0.000243,3.666564,-42.982986,21.135042,,,,,,,
1558975193.758017,1.642211,1.256637,3.033391,0.272493,-0.008946,0.419579,0.308230,-0.951056,0.022050,0.081281,0.380515,-0.005555,3.393807,-42.945274,21.256905,,,,,,,
1558975193.778007,1.659883,1.266604,3.009848,0.306174,-0.369306,0.593387,0.298335,-0.954089,0.026648,0.039449,0.440234,0.039514,2.863564,-42.804920,21.615017,,,,,,,
1558975193.797975,1.663086,1.280628,2.997967,-0.036899,-0.377794,0.780936,0.284897,-0.958196,0.026368,0.029404,0.310689,-0.027116,2.468678,-42.755676,21.760700,,,,,,,
1558975193.817981,1.652715,1.296672,3.003790,-0.158521,-0.138277,0.776726,0.269796,-0.962663,0.022151,-0.028204,0.260484,-0.088542,2.065860,-42.816193,21.683561,,,,,,,
1558975193.837971,1.651874,1.312524,3.007417,-0.077288,0.301061,0.808755,0.254571,-0.966833,0.020685,-0.028680,0.272085,-0.059916,1.242106,-42.924381,21.531963,,,,,,,
1558975193.857933,1.660844,1.330708,3.008478,-0.157528,0.578669,0.976833,0.236825,-0.971317,0.021383,-0.092385,0.247577,-0.009466,0.315832,-42.968288,21.477829,,,,,,,
1558975193.877946,1.640964,1.352573,3.040138,-0.641194,0.514797,1.096478,0.215962,-0.976284,0.015178,-0.113439,0.233104,-0.045482,-0.522998,-43.051571,21.306330,,,,,,,
1558975193.897935,1.574406,1.375195,3.117109,-0.850258,0.385884,1.097212,0.194355,-0.980931,0.000702,-0.138951,0.173848,-0.183304,-1.391880,-43.237156,20.887358,,,,,,,
1558975193.917908,1.514791,1.396830,-3.097468,-0.412594,0.445984,1.121626,0.172819,-0.984906,-0.009689,-0.138624,0.132748,-0.161286,-3.061892,-43.628696,19.870392,,,,,,,
1558975193.937910,1.496562,1.420516,-3.069130,-0.061505,0.443262,1.242525,0.149303,-0.988729,-0.011104,-0.106914,0.110006,-0.128789,-3.959380,-43.653294,19.656651,,,,,,,
1558975193.957885,1.478206,1.446473,-3.045986,-0.037318,0.075444,1.342586,0.123472,-0.992282,-0.011465,-0.179182,0.152560,-0.118677,-4.899552,-43.591385,19.582029,,,,,,,
1558975193.977887,1.448587,1.472946,-3.018264,-0.014605,-0.149854,1.319094,0.096966,-0.995216,-0.011909,-0.222301,0.028618,-0.155312,-6.659872,-43.377491,19.537397,,,,,,,
1558975193.997858,1.413040,1.499163,-2.983859,0.097711,0.025049,1.339008,0.070684,-0.997435,-0.011244,-0.199117,0.048934,-0.113771,-7.201983,-43.288750,19.541903,,,,,,,
1558975194.017863,1.351569,1.528217,-2.918842,0.041690,0.239164,1.543866,0.041547,-0.999094,-0.009257,-0.145124,0.093698,-0.002370,-9.015285,-42.906868,19.631498,,,,,,,
1558975194.037851,0.584513,1.555955,-2.146368,-0.317319,0.249816,1.751871,0.008189,-0.999890,-0.012377,-0.146083,0.032300,-0.035764,-10.501185,-42.619373,19.518829,,,,,,,
1558975194.057813,-0.901342,1.534278,-0.654120,-0.588563,0.369821,1.881988,-0.028631,-0.999333,-0.022657,-0.157938,-0.027141,-0.037600,-11.305214,-42.497005,19.335657,,,,,,,
1558975194.077824,-1.060859,1.495645,-0.484716,-0.744353,0.560840,1.840986,-0.065529,-0.997177,-0.036649,-0.238091,-0.027237,0.008847,-13.896004,-42.131275,18.426268,,,,,,,
1558975194.097816,-1.061167,1.454541,-0.471089,-1.087713,0.700045,1.833502,-0.101254,-0.993250,-0.056588,-0.134189,-0.164923,-0.031852,-10.496368,-43.575607,17.440838,,,,,,,
1558975194.117790,-1.025234,1.410572,-0.495492,-1.265132,0.464146,1.792666,-0.136380,-0.987191,-0.082785,-0.102786,-0.284934,-0.098047,-11.413504,-43.569843,16.869810,,,,,,,
1558975194.137792,-1.029779,1.370797,-0.484157,-0.692930,0.294062,1.746655,-0.170296,-0.980067,-0.102316,-0.214424,-0.329916,-0.086298,-13.958980,-43.443188,15.199554,,,,,,,
1558975194.157781,-1.066699,1.337156,-0.440912,-0.386323,0.252112,1.631193,-0.202722,-0.972830,-0.111828,-0.268393,-0.296793,0.033032,-15.528666,-43.089695,14.674070,,,,,,,
1558975194.177767,-1.074296,1.305891,-0.427917,-0.773358,0.242053,1.317966,-0.230205,-0.965117,-0.124717,-0.245107,-0.349137,0.043480,-16.253187,-42.896152,14.454889,,,,,,,
1558975194.197731,-1.054763,1.277433,-0.443094,-0.875185,0.250650,1.077744,-0.251518,-0.957277,-0.142688,-0.076134,-0.505004,-0.022397,-18.005522,-42.555054,13.343856,,,,,,,
1558975194.217744,-1.039471,1.250560,-0.454502,-0.788019,0.220619,1.093541,-0.271393,-0.949161,-0.159497,-0.045029,-0.524899,-0.023715,-18.733887,-42.427071,12.734786,,,,,,,
1558975194.237712,-1.023282,1.223732,-0.464367,-0.892575,0.451528,1.047623,-0.290418,-0.940375,-0.177065,-0.101443,-0.475976,-0.008864,-19.467287,-42.263412,12.166264,,,,,,,
1558975194.257701,-0.991301,1.195678,-0.484874,-1.123569,0.727409,0.943314,-0.306567,-0.930464,-0.200632,-0.125837,-0.414842,-0.099982,-20.942974,-41.958000,10.682130,,,,,,,
1558975194.277685,-0.965637,1.171769,-0.497908,-0.603335,0.578619,0.816324,-0.319525,-0.921439,-0.221028,-0.118982,-0.398934,-0.111095,-21.622181,-41.833210,9.780254,,,,,,,
1558975194.297692,-0.980264,1.159141,-0.477955,0.274980,-0.088924,0.695332,-0.332363,-0.916460,-0.222792,-0.089924,-0.395812,-0.079805,-22.212929,-41.650108,9.221942,,,,,,,
1558975194.317686,-1.024875,1.154363,-0.439487,0.586293,-0.648857,0.564239,-0.345707,-0.914537,-0.210020,-0.092648,-0.289488,0.039579,-23.015087,-41.104504,9.691017,,,,,,,
1558975194.337648,-1.063386,1.150338,-0.412099,0.192889,-0.587850,0.394752,-0.356751,-0.912902,-0.198340,-0.085541,-0.248246,0.029822,-23.229836,-40.845955,10.255370,,,,,,,
1558975194.357660,-1.071825,1.143578,-0.407709,-0.195687,0.014467,0.322268,-0.363822,-0.910122,-0.198271,-0.066094,-0.247242,-0.007997,-23.382357,-40.677189,10.574564,,,,,,,
1558975194.377650,-1.063143,1.135836,-0.409858,-0.214402,0.470126,0.314870,-0.368234,-0.906887,-0.204842,-0.005835,-0.184819,-0.020729,-23.801126,-40.503910,10.301914,,,,,,,
1558975194.397638,-1.056088,1.129674,-0.408147,-0.042284,0.346530,0.262578,-0.371637,-0.904273,-0.210182,-0.011404,-0.137948,0.002326,-24.136829,-40.393147,9.949741,,,,,,,
1558975194.417624,-1.060178,1.126560,-0.401409,0.077970,-0.029480,0.169393,-0.374948,-0.902939,-0.210035,-0.019446,-0.127273,0.021085,-24.268044,-40.333805,9.870968,,,,,,,
1558975194.437614,-1.067731,1.125482,-0.395459,0.095917,-0.117446,0.075679,-0.377377,-0.902475,-0.207667,-0.031269,-0.116247,0.034281,-24.450045,-40.197006,9.979255,,,,,,,
1558975194.457601,-1.074086,1.126056,-0.390202,0.115360,-0.063745,0.005744,-0.378234,-0.902722,-0.205017,0.003356,-0.079990,0.039124,-24.468555,-40.152512,10.112154,,,,,,,
1558975194.477588,-1.076800,1.127200,-0.387785,0.036869,0.000017,-0.041752,-0.377878,-0.903214,-0.203500,0.015970,-0.062164,0.050393,-24.462389,-40.141449,10.170805,,,,,,,
1558975194.497579,-1.073137,1.127831,-0.390463,-0.079869,0.097842,-0.064398,-0.376630,-0.903484,-0.204611,0.020749,-0.027012,0.046042,-24.416874,-40.165897,10.183655,,,,,,,
1558975194.517565,-1.063114,1.127447,-0.399113,-0.228800,0.123982,-0.071741,-0.374863,-0.903320,-0.208544,0.027817,-0.002457,0.046694,-24.381018,-40.227592,10.024795,,,,,,,
1558975194.537528,-1.048990,1.125744,-0.411753,-0.279903,0.129561,-0.054646,-0.373213,-0.902588,-0.214584,0.020751,-0.001892,0.037460,-24.366236,-40.268867,9.894177,,,,,,,
1558975194.557536,-1.041479,1.125010,-0.418620,-0.154619,0.040148,-0.030846,-0.372163,-0.902272,-0.217715,0.003327,0.007619,0.015765,-24.347191,-40.349884,9.606818,,,,,,,
1558975194.577529,-1.038277,1.124945,-0.423366,-0.050684,-0.092578,-0.066198,-0.371515,-0.902244,-0.218936,-0.016730,0.008353,0.004794,-24.297623,-40.410679,9.475887,,,,,,,
1558975194.597496,-1.039000,1.125959,-0.425222,0.004537,-0.127733,-0.054746,-0.370884,-0.902681,-0.218203,-0.012615,0.004380,0.000674,-24.297623,-40.410679,9.475887,,,,,,,
1558975194.617502,-1.041585,1.125703,-0.424887,0.001460,-0.076930,-0.021162,-0.371646,-0.902570,-0.217361,-0.022717,0.016309,0.005797,-24.203388,-40.444233,9.573390,,,,,,,
1558975194.637486,-1.040824,1.126208,-0.426431,-0.028107,-0.019747,-0.054803,-0.371087,-0.902788,-0.217413,-0.018622,0.015047,0.011068,-24.180130,-40.454205,9.590037,,,,,,,
1558975194.657452,-1.042642,1.125997,-0.426084,-0.061150,-0.048159,-0.084989,-0.371647,-0.902697,-0.216834,-0.002682,0.021212,0.012229,-24.143787,-40.477993,9.581203,,,,,,,
1558975194.677469,-1.038676,1.127802,-0.431796,-0.051703,-0.085193,-0.077866,-0.369379,-0.903472,-0.217479,0.010126,0.015701,0.004665,-28.198357,-37.796833,8.596785,,,,,,,
1558975194.697436,-1.038068,1.128471,-0.434984,-0.058189,-0.118996,-0.085668,-0.368726,-0.903759,-0.217396,0.001813,0.018627,0.008717,-28.134096,-37.842201,8.607733,,,,,,,
1558975194.717446,-1.038178,1.129559,-0.438155,-0.018984,-0.169925,-0.076515,-0.367902,-0.904224,-0.216856,0.016599,0.022815,0.002089,-28.080467,-37.874672,8.639990,,,,,,,
1558975194.737436,-1.040570,1.131980,-0.440151,-0.021221,-0.207981,-0.086493,-0.366531,-0.905255,-0.214868,0.012267,0.022244,0.009500,-27.915907,-37.960808,8.793858,,,,,,,
1558975194.757423,-1.039344,1.133325,-0.444806,-0.069929,-0.117841,-0.061116,-0.365217,-0.905826,-0.214700,0.019316,0.018924,0.004831,-27.833923,-38.004715,8.863792,,,,,,,
1558975194.777410,-1.036899,1.133397,-0.449050,-0.066767,-0.088134,0.024579,-0.364635,-0.905856,-0.215559,0.022701,0.016605,0.000471,-27.763626,-38.054497,8.870679,,,,,,,
1558975194.797400,-1.039347,1.131995,-0.449047,-0.129584,-0.085666,0.041636,-0.366256,-0.905262,-0.215309,-0.014649,0.001438,0.007118,-27.724283,-38.078308,8.891508,,,,,,,
1558975194.817384,-1.035645,1.129184,-0.454771,-0.173110,-0.061164,0.016215,-0.367644,-0.904064,-0.217961,-0.016344,0.002758,-0.004436,-27.754559,-38.064255,8.857170,,,,,,,
1558975194.837374,-1.030448,1.125842,-0.461926,-0.167828,-0.072820,0.015044,-0.369095,-0.902631,-0.221421,-0.024918,-0.001865,-0.023498,-27.819489,-38.049644,8.715100,,,,,,,
1558975194.857364,-1.026058,1.123271,-0.467983,-0.133590,-0.044543,-0.040171,-0.370103,-0.901521,-0.224241,-0.039977,0.003968,-0.008226,-27.852650,-38.055042,8.584649,,,,,,,
1558975194.877351,-1.022897,1.123401,-0.473320,-0.076270,-0.110434,-0.077056,-0.369292,-0.901577,-0.225349,-0.007874,0.004406,-0.011452,-27.815920,-38.091549,8.541723,,,,,,,
1558975194.897339,-1.020974,1.123801,-0.478368,-0.095485,-0.124065,-0.070796,-0.368551,-0.901750,-0.225870,0.002325,0.003221,-0.020666,-27.738918,-38.146469,8.547057,,,,,,,
1558975194.917329,-1.013706,1.123321,-0.487228,-0.145209,-0.017003,-0.043121,-0.367267,-0.901542,-0.228772,0.019550,-0.001519,-0.046726,-27.641628,-38.236450,8.459739,,,,,,,
1558975194.937288,-1.007484,1.122212,-0.493318,-0.122658,0.056914,-0.012502,-0.366682,-0.901062,-0.231586,0.036542,0.001098,-0.053616,-27.621136,-38.278122,8.337333,,,,,,,
1558975194.957302,-0.999298,1.121526,-0.500298,-0.008944,0.019379,0.024593,-0.365293,-0.900764,-0.234914,0.035001,0.000526,-0.048396,-27.626884,-38.291050,8.258552,,,,,,,
1558975194.977275,-1.001439,1.121630,-0.498313,0.051582,-0.033816,0.007049,-0.365717,-0.900809,-0.234081,0.011499,-0.002557,-0.024143,-27.608158,-38.324223,8.166775,,,,,,,
1558975194.997255,-1.003273,1.122163,-0.497019,0.023968,-0.024188,-0.013166,-0.365740,-0.901041,-0.233152,0.000521,0.001520,-0.022357,-27.603565,-38.318329,8.209865,,,,,,,
1558975195.017267,-1.000481,1.122304,-0.499135,0.001925,0.061514,-0.034784,-0.364980,-0.901102,-0.234103,0.001303,0.000772,-0.020642,-27.592976,-38.321186,8.232070,,,,,,,
1558975195.037242,-0.999362,1.123265,-0.498730,0.059415,0.065445,-0.031498,-0.363990,-0.901518,-0.234043,-0.001351,0.017241,-0.008617,-27.568857,-38.353935,8.160057,,,,,,,
1558975195.057222,-1.001910,1.124700,-0.495058,0.128438,0.023890,-0.010487,-0.363494,-0.902138,-0.232418,-0.000534,0.025475,0.005795,-27.561043,-38.354595,8.183331,,,,,,,
1558975195.077202,-1.007696,1.126197,-0.488863,0.152736,-0.026957,0.001858,-0.363691,-0.902783,-0.229590,0.013014,0.032528,0.015433,-27.557499,-38.343628,8.246409,,,,,,,
1558975195.097222,-1.013848,1.127526,-0.483445,0.117436,-0.076442,0.007762,-0.364078,-0.903354,-0.226713,0.010272,0.034152,0.023741,-27.558445,-38.298798,8.449094,,,,,,,
1558975195.117189,-1.019176,1.128377,-0.479116,0.060019,-0.047571,0.028277,-0.364626,-0.903718,-0.224368,0.012102,0.023576,0.015978,-27.550917,-38.274963,8.580621,,,,,,,
1558975195.137191,-1.021569,1.127944,-0.476589,0.017619,0.019284,0.055574,-0.365496,-0.903533,-0.223699,0.013429,0.014708,0.021215,-27.559628,-38.261574,8.612300,,,,,,,
1558975195.157186,-1.021258,1.126666,-0.476126,-0.047250,0.040770,0.058931,-0.366410,-0.902985,-0.224415,0.008058,0.005661,0.019657,-27.628014,-38.214142,8.603771,,,,,,,
1558975195.177173,-1.019920,1.125157,-0.477125,-0.089869,0.027249,0.056631,-0.367270,-0.902335,-0.225618,-0.002694,-0.007073,0.000475,-27.673328,-38.192562,8.553826,,,,,,,
1558975195.197160,-1.015578,1.122871,-0.480587,-0.115249,0.075996,0.050672,-0.368039,-0.901348,-0.228298,-0.007693,-0.011601,-0.008686,-27.673328,-38.192562,8.553826,,,,,,,
1558975195.217124,-1.010002,1.120220,-0.484457,-0.091824,0.091713,0.065790,-0.368782,-0.900196,-0.231616,-0.005760,-0.009426,-0.007397,-27.757637,-38.175198,8.355871,,,,,,,
1558975195.237137,-1.008054,1.118581,-0.485035,-0.034439,0.058632,0.058046,-0.369578,-0.899481,-0.233121,-0.005147,-0.013894,-0.005374,-27.855209,-38.143890,8.172137,,,,,,,
1558975195.257103,-1.008044,1.117723,-0.484410,-0.002643,0.005578,0.034076,-0.370229,-0.899106,-0.233537,-0.008891,-0.011172,-0.002379,-27.855209,-38.143890,8.172137,,,,,,,
1558975195.277110,-1.009669,1.117263,-0.483128,0.012195,-0.023068,0.014597,-0.370957,-0.898905,-0.233154,-0.005477,-0.002081,0.001694,-27.921656,-38.101254,8.144226,,,,,,,
1558975195.297101,-1.011673,1.117517,-0.481436,0.004847,-0.005104,-0.014063,-0.371230,-0.899016,-0.232289,-0.004838,0.000166,0.014226,-27.930441,-38.089096,8.170920,,,,,,,
1558975195.317070,-1.011999,1.117958,-0.481744,-0.034591,-0.028173,-0.028195,-0.370970,-0.899209,-0.231958,0.002836,0.010583,0.013819,-27.922905,-38.083084,8.224513,,,,,,,
1558975195.337055,-1.011300,1.118552,-0.483481,-0.016586,-0.048326,-0.011293,-0.370355,-0.899469,-0.231934,0.018442,0.014993,0.000123,-27.883791,-38.110821,8.228717,,,,,,,
1558975195.357039,-1.009236,1.118421,-0.485826,-0.043058,0.011060,0.024484,-0.369975,-0.899411,-0.232761,0.025294,0.016278,-0.005765,-27.846203,-38.143303,8.205481,,,,,,,
1558975195.377052,-1.005014,1.117273,-0.488785,-0.048246,0.075640,0.074207,-0.369860,-0.898909,-0.234874,0.034518,0.017195,-0.016057,-27.859695,-38.138512,8.181929,,,,,,,
1558975195.397043,-0.997087,1.115661,-0.493850,-0.006737,0.100874,0.127856,-0.369204,-0.898202,-0.238584,0.022097,0.011437,-0.020174,-27.894611,-38.163956,7.940759,,,,,,,
1558975195.417015,-0.997897,1.113480,-0.490906,0.027163,0.056317,0.138132,-0.371042,-0.897241,-0.239347,-0.005637,-0.000098,-0.006762,-27.968330,-38.125896,7.863910,,,,,,,
1558975195.437018,-1.001971,1.111610,-0.485942,0.053665,0.006443,0.101378,-0.373427,-0.896414,-0.238736,-0.015504,-0.001276,-0.003054,-28.044800,-38.075706,7.834711,,,,,,,
1558975195.457007,-1.006235,1.110460,-0.481588,0.038789,-0.010474,0.046756,-0.375312,-0.895903,-0.237693,-0.039849,0.002028,0.008781,-28.191677,-37.954670,7.894616,,,,,,,
1558975195.476975,-1.006502,1.110241,-0.481233,-0.019604,0.014072,-0.002167,-0.375541,-0.895806,-0.237698,-0.036996,0.008385,0.012906,-28.209167,-37.938316,7.910731,,,,,,,
1558975195.496982,-1.006117,1.109617,-0.481439,-0.039750,0.036369,-0.005171,-0.375922,-0.895528,-0.238142,-0.018823,0.012639,0.014082,-28.231207,-37.923138,7.904908,,,,,,,
1558975195.516972,-1.003677,1.109172,-0.483215,-0.053562,0.044899,-0.004032,-0.375676,-0.895330,-0.239272,-0.009563,0.012686,0.018722,-28.231737,-37.930355,7.868272,,,,,,,
1558975195.536935,-1.001854,1.108426,-0.484705,-0.086592,0.033439,-0.007370,-0.375802,-0.894998,-0.240316,-0.005592,0.018197,0.018621,-28.249521,-37.932476,7.793871,,,,,,,
1558975195.556946,-0.998468,1.107618,-0.488038,-0.076016,0.014364,-0.003274,-0.375594,-0.894637,-0.241979,-0.003388,0.021041,0.013326,-28.249071,-37.941372,7.752090,,,,,,,
1558975195.576935,-0.997095,1.106897,-0.489515,-0.030334,-0.000634,0.024378,-0.375803,-0.894314,-0.242845,0.006922,0.016034,-0.000105,-28.253080,-37.955978,7.665526,,,,,,,
1558975195.596895,-0.997456,1.106022,-0.488926,-0.001599,0.009825,0.051192,-0.376548,-0.893923,-0.243134,0.007712,0.009264,0.007508,-28.282179,-37.937981,7.647273,,,,,,,
1558975195.616905,-0.999045,1.104800,-0.487353,-0.014501,-0.015431,0.080834,-0.377852,-0.893374,-0.243126,0.006529,0.009204,0.005791,-28.304262,-37.921986,7.644923,,,,,,,
1558975195.636900,-1.000619,1.102891,-0.485802,-0.029339,0.005791,0.084230,-0.379669,-0.892515,-0.243451,-0.005799,0.006834,-0.000949,-28.392014,-37.856224,7.645416,,,,,,,
1558975195.656888,-1.001585,1.100759,-0.484419,-0.006992,0.008861,0.094954,-0.381506,-0.891551,-0.244109,-0.007807,0.003108,-0.008042,-28.482370,-37.795826,7.608086,,,,,,,
1558975195.676875,-1.004579,1.099204,-0.481402,0.046119,-0.029484,0.086090,-0.383405,-0.890846,-0.243709,-0.011935,-0.003090,-0.007160,-28.518024,-37.769108,7.607193,,,,,,,
1558975195.696865,-1.008940,1.097801,-0.477413,0.029072,-0.033622,0.087106,-0.385521,-0.890208,-0.242701,-0.016426,-0.013769,0.000605,-28.627209,-37.674789,7.664587,,,,,,,
1558975195.716852,-1.011405,1.096302,-0.475155,-0.023994,0.002555,0.060720,-0.387249,-0.889524,-0.242458,-0.017490,-0.011386,0.002635,-28.704033,-37.609135,7.699658,,,,,,,
1558975195.736838,-1.010633,1.095025,-0.475545,-0.041952,0.027964,0.024649,-0.388024,-0.888940,-0.243360,-0.011375,-0.007118,-0.001422,-28.725590,-37.595554,7.685535,,,,,,,
1558975195.756814,-1.010191,1.094634,-0.475923,-0.012222,-0.002872,0.007295,-0.388210,-0.888761,-0.243716,0.002865,-0.004611,0.004305,-28.769260,-37.573296,7.630845,,,,,,,
1558975195.776817,-1.012507,1.095528,-0.474203,0.009038,-0.023100,-0.014235,-0.388100,-0.889170,-0.242395,0.004921,-0.002294,0.022561,-28.757669,-37.574669,7.667701,,,,,,,
1558975195.796775,-1.012701,1.096208,-0.474517,-0.037731,-0.007014,-0.023728,-0.387634,-0.889481,-0.242000,0.006881,-0.000061,0.022853,-28.742458,-37.578888,7.703954,,,,,,,
1558975195.816773,-1.009612,1.096087,-0.477444,-0.096111,0.050394,-0.008280,-0.386976,-0.889425,-0.243253,0.009138,0.008200,-0.001849,-28.703577,-37.610241,7.695931,,,,,,,
1558975195.836781,-1.003665,1.094995,-0.482377,-0.078028,0.051371,0.001352,-0.386341,-0.888926,-0.246072,0.009770,0.010966,-0.013068,-28.701433,-37.637905,7.567600,,,,,,,
1558975195.856747,-1.001227,1.094648,-0.484499,-0.000489,-0.002955,-0.006581,-0.386000,-0.888767,-0.247179,0.012434,0.009632,-0.012602,-28.702404,-37.649036,7.508335,,,,,,,
1558975195.876741,-1.001574,1.095357,-0.484477,0.043043,-0.037010,-0.007941,-0.385555,-0.889092,-0.246706,0.013118,0.011696,0.004961,-28.680822,-37.670761,7.481775,,,,,,,
1558975195.896744,-1.002974,1.095779,-0.483249,0.014415,0.008629,0.017028,-0.385583,-0.889285,-0.245964,0.011926,0.012225,0.007713,-28.668091,-37.672985,7.519260,,,,,,,
1558975195.916710,-1.002127,1.095095,-0.482953,-0.033306,0.079753,0.052902,-0.385887,-0.888972,-0.246618,0.013451,0.014933,0.009038,-28.673065,-37.667694,7.526811,,,,,,,
1558975195.936717,-1.000197,1.093187,-0.482832,-0.064125,0.116980,0.100210,-0.386837,-0.888096,-0.248278,0.004620,0.022114,0.009447,-28.749426,-37.630821,7.419190,,,,,,,
1558975195.956709,-0.997969,1.090484,-0.482775,-0.090763,0.112904,0.108692,-0.388299,-0.886851,-0.250439,0.011514,0.023417,0.012860,-28.855879,-37.572254,7.301817,,,,,,,
1558975195.976677,-0.997224,1.087830,-0.482529,-0.044294,-0.002566,0.101218,-0.390088,-0.885621,-0.252004,0.001203,0.018586,0.006826,-28.903229,-37.546974,7.244371,,,,,,,
1558975195.996686,-1.000478,1.085699,-0.480731,-0.012731,-0.116894,0.098015,-0.392494,-0.884630,-0.251752,-0.005471,0.002916,-0.001635,-29.024612,-37.459045,7.214182,,,,,,,
1558975196.016673,-1.004878,1.083691,-0.478416,-0.007254,-0.077841,0.080246,-0.395096,-0.883692,-0.250975,-0.017685,-0.002402,-0.002763,-29.087692,-37.397552,7.278888,,,,,,,
1558975196.036660,-1.006349,1.081939,-0.477126,-0.036686,0.025868,0.058796,-0.396773,-0.882870,-0.251221,-0.021288,-0.009403,0.000001,-29.125719,-37.364857,7.294694,,,,,,,
1558975196.056650,-1.005684,1.080324,-0.477027,-0.073736,0.067216,0.012189,-0.397809,-0.882111,-0.252248,-0.029666,-0.017593,0.006032,-29.215202,-37.305637,7.239768,,,,,,,
1558975196.076610,-1.001819,1.079302,-0.479995,-0.106680,0.069456,-0.018777,-0.397590,-0.881629,-0.254270,-0.007454,-0.016992,-0.000476,-29.248821,-37.294758,7.159646,,,,,,,
1558975196.096625,-0.997325,1.078775,-0.484234,-0.089821,0.012273,-0.028920,-0.396833,-0.881380,-0.256306,-0.003283,-0.014280,-0.003170,-29.245216,-37.308720,7.101366,,,,,,,
1558975196.116615,-0.993600,1.078626,-0.488235,-0.045202,-0.009083,-0.017347,-0.395986,-0.881310,-0.257854,0.009084,-0.009773,-0.014729,-29.209423,-37.358185,6.987692,,,,,,,
1558975196.136598,-0.991505,1.078711,-0.490416,-0.005804,-0.006123,-0.020491,-0.395383,-0.881350,-0.258642,0.003705,-0.005476,-0.012568,-29.185467,-37.385059,6.943936,,,,,,,
1558975196.156590,-0.990161,1.079013,-0.491722,-0.000411,0.009684,-0.034215,-0.394812,-0.881492,-0.259027,-0.001428,-0.002922,-0.010199,-29.164795,-37.405064,6.923049,,,,,,,
1558975196.176579,-0.988203,1.079666,-0.493246,0.010309,0.027580,-0.045780,-0.393824,-0.881800,-0.259483,-0.001699,-0.003423,-0.010887,-29.129833,-37.437214,6.896398,,,,,,,
1558975196.196536,-0.986808,1.080141,-0.493885,0.009341,0.052939,-0.055145,-0.393112,-0.882024,-0.259801,-0.015732,-0.001811,-0.006358,-29.114342,-37.453270,6.874635,,,,,,,
1558975196.216554,-0.985139,1.080360,-0.494557,-0.000167,0.070943,-0.064585,-0.392517,-0.882127,-0.260350,-0.024048,-0.001555,-0.005244,-29.104635,-37.466404,6.844090,,,,,,,
1558975196.236543,-0.981467,1.080676,-0.496549,-0.029811,0.120720,-0.074801,-0.391326,-0.882276,-0.261634,-0.023393,-0.010470,-0.009499,-29.104290,-37.473186,6.808309,,,,,,,
1558975196.256530,-0.975243,1.081580,-0.500176,-0.036054,0.158785,-0.088321,-0.389030,-0.882701,-0.263618,0.002250,-0.008961,-0.001870,-29.056999,-37.537506,6.654262,,,,,,,
1558975196.276512,-0.969303,1.082872,-0.503569,-0.032966,0.127060,-0.087556,-0.386516,-0.883308,-0.265278,0.004909,-0.010018,0.000996,-29.018166,-37.583115,6.565695,,,,,,,
1558975196.296508,-0.963963,1.084413,-0.507196,-0.039454,0.095382,-0.088934,-0.383975,-0.884029,-0.266562,0.003620,-0.014332,-0.000024,-28.963863,-37.636574,6.498902,,,,,,,
1558975196.316496,-0.957940,1.086081,-0.511571,-0.034117,0.099581,-0.089960,-0.381157,-0.884807,-0.268021,0.006126,-0.016728,-0.004226,-28.857191,-37.740765,6.367887,,,,,,,
1558975196.336482,-0.953271,1.087504,-0.514663,-0.011787,0.092064,-0.090015,-0.378874,-0.885470,-0.269069,0.002730,-0.018629,-0.002034,-28.807173,-37.789062,6.307636,,,,,,,
1558975196.356457,-0.949945,1.089658,-0.516641,-0.026686,0.094262,-0.085738,-0.376424,-0.886469,-0.269217,-0.010447,-0.037893,0.010459,-28.712847,-37.870102,6.251462,,,,,,,
1558975196.376460,-0.944143,1.090815,-0.520414,-0.089287,0.152717,-0.091635,-0.374025,-0.887004,-0.270795,-0.015806,-0.056173,-0.000308,-28.654215,-37.926422,6.178620,,,,,,,
1558975196.396416,-0.934688,1.091494,-0.526791,-0.117832,0.204635,-0.108245,-0.370964,-0.887317,-0.273961,-0.013848,-0.059293,-0.002543,-28.622702,-37.961533,6.108654,,,,,,,
1558975196.416423,-0.923859,1.092076,-0.534136,-0.114517,0.228888,-0.135769,-0.367563,-0.887585,-0.277651,-0.022528,-0.094303,-0.021406,-28.521694,-38.084312,5.809570,,,,,,,
1558975196.436424,-0.911985,1.093091,-0.541700,-0.099458,0.267890,-0.154601,-0.363528,-0.888052,-0.281444,-0.017500,-0.130029,-0.027882,-28.442175,-38.177490,5.583405,,,,,,,
1558975196.456383,-0.900541,1.095019,-0.548459,-0.037661,0.271749,-0.184409,-0.358941,-0.888937,-0.284522,-0.020652,-0.142817,-0.028222,-28.396763,-38.227413,5.471874,,,,,,,
1558975196.476390,-0.888577,1.098275,-0.555212,-0.020306,0.342388,-0.244575,-0.353263,-0.890424,-0.286969,-0.025613,-0.238590,-0.028827,-28.216175,-38.399517,5.193986,,,,,,,
1558975196.496387,-0.871474,1.101787,-0.564577,-0.075079,0.499048,-0.287961,-0.345908,-0.892017,-0.290954,-0.038339,-0.277570,-0.028291,-28.098354,-38.509495,5.015396,,,,,,,
1558975196.516356,-0.847680,1.105214,-0.577718,-0.137268,0.654653,-0.356986,-0.336594,-0.893560,-0.297077,-0.094436,-0.383875,-0.049298,-27.969151,-38.635448,4.762492,,,,,,,
1558975196.536357,-0.817435,1.109716,-0.596091,-0.135819,0.707285,-0.498478,-0.324519,-0.895572,-0.304365,-0.114416,-0.433743,-0.077258,-27.615618,-38.969006,4.055487,,,,,,,
1558975196.556352,-0.786980,1.118305,-0.615106,0.105854,0.644469,-0.659033,-0.309641,-0.899361,-0.308663,-0.123572,-0.456215,-0.084205,-27.339518,-39.196941,3.715255,,,,,,,
1558975196.576317,-0.763932,1.133439,-0.628690,0.480083,0.443594,-0.786638,-0.292996,-0.905874,-0.305852,-0.089619,-0.531244,-0.088069,-26.854328,-39.550858,3.496732,,,,,,,
1558975196.596324,-0.750485,1.155515,-0.636742,0.797963,0.256734,-0.929102,-0.275148,-0.915003,-0.295064,-0.138884,-0.527960,-0.058268,-26.067787,-40.045807,3.802185,,,,,,,
1558975196.616301,-0.740782,1.182534,-0.642030,0.971629,0.247181,-1.052901,-0.255491,-0.925568,-0.279370,-0.185000,-0.546371,-0.001849,-25.313503,-40.467960,4.384477,,,,,,,
1558975196.636304,-0.722699,1.213369,-0.655321,0.972244,0.313375,-1.318111,-0.231405,-0.936800,-0.262407,-0.222651,-0.500746,0.029390,-24.654060,-40.816055,4.886693,,,,,,,
1558975196.656294,-0.684186,1.246171,-0.689276,0.826841,0.314773,-1.602209,-0.201592,-0.947770,-0.247168,-0.210578,-0.438399,-0.007425,-23.268763,-41.523731,5.656616,,,,,,,
1558975196.676271,-0.621490,1.280254,-0.749576,0.822608,0.212964,-1.842340,-0.166797,-0.958089,-0.232905,-0.161923,-0.389781,-0.089636,-22.249109,-42.023026,6.057641,,,,,,,
1558975196.696267,-0.545724,1.317238,-0.826094,1.079683,0.038219,-1.871565,-0.130200,-0.968026,-0.214414,-0.121615,-0.305457,-0.084460,-20.707590,-42.707527,6.701908,,,,,,,
1558975196.716258,-0.453201,1.354924,-0.921705,1.110288,-0.046517,-1.880893,-0.093786,-0.976790,-0.192576,-0.134241,-0.258501,-0.082509,-18.690214,-43.432262,7.871918,,,,,,,
1558975196.736238,-0.318488,1.389853,-1.061413,1.110040,-0.167163,-1.980272,-0.056350,-0.983674,-0.170907,-0.197159,-0.179305,-0.113410,-17.442831,-43.809608,8.609209,,,,,,,
1558975196.756232,-0.112090,1.422223,-1.277184,1.256186,-0.457753,-2.115324,-0.016558,-0.988983,-0.147098,-0.200239,-0.118484,-0.155591,-15.646667,-44.264709,9.667992,,,,,,,
1558975196.776223,0.193673,1.447488,-1.600240,1.352863,-0.838785,-2.114624,0.023672,-0.992407,-0.120696,-0.142584,-0.077768,-0.182466,-13.138427,-44.689579,11.308214,,,,,,,
1558975196.796209,0.572307,1.456167,-1.997634,1.207156,-0.717250,-1.933145,0.061944,-0.993437,-0.096153,-0.137658,-0.035646,-0.194603,-11.590092,-44.840675,12.354596,,,,,,,
1558975196.816196,0.900785,1.448085,-2.335987,0.927597,-0.128672,-1.619185,0.095942,-0.992480,-0.076012,-0.129633,0.015796,-0.172187,-10.155207,-44.924053,13.279815,,,,,,,
1558975196.836186,1.115168,1.432381,-2.547179,0.654307,0.436660,-1.277684,0.123898,-0.990436,-0.060712,-0.146329,0.054050,-0.160327,-8.603928,-44.969551,14.190306,,,,,,,
1558975196.856174,1.263326,1.414935,-2.690866,0.717819,0.052787,-1.172407,0.147951,-0.987878,-0.046980,-0.140459,0.155511,-0.232805,-7.033077,-44.975399,15.013407,,,,,,,
1558975196.876161,1.410076,1.396818,-2.854242,1.394994,-1.220335,-1.234230,0.170872,-0.984904,-0.027702,-0.162250,0.178629,-0.251229,-7.033077,-44.975399,15.013407,,,,,,,
1558975196.896135,1.585541,1.372427,-3.071511,2.198822,-2.235348,-1.425870,0.197049,-0.980389,0.002906,-0.187665,0.220380,-0.187415,-5.067201,-44.665028,16.643658,,,,,,,
1558975196.916120,1.738240,1.336696,3.003287,2.391432,-2.675339,-1.640253,0.228724,-0.972723,0.038660,-0.163035,0.304572,0.006567,-1.891057,-43.615509,19.793030,,,,,,,
1558975196.936119,1.820232,1.295561,2.864225,1.912822,-2.547025,-1.630867,0.263362,-0.962361,0.067089,-0.188335,0.322194,0.010014,-0.630521,-43.157131,20.849880,,,,,,,
1558975196.956096,1.844200,1.259786,2.793732,1.171555,-1.853425,-1.272499,0.294654,-0.952025,0.082629,-0.161567,0.427580,0.014173,3.008245,-41.909111,23.070101,,,,,,,
1558975196.976102,1.844542,1.238545,2.766789,0.439163,-0.958739,-0.712548,0.314027,-0.945310,0.088177,-0.168672,0.415998,-0.008542,4.268114,-41.507378,23.591816,,,,,,,
1558975196.996086,1.833150,1.227994,2.767671,-0.016846,-0.307977,-0.432299,0.324626,-0.941816,0.087176,-0.173595,0.449812,-0.010257,5.235341,-41.266266,23.818874,,,,,,,
1558975197.016063,1.816769,1.221886,2.782818,-0.259856,-0.025365,-0.317686,0.331584,-0.939746,0.083246,-0.138285,0.500461,-0.051310,5.789956,-41.255596,23.708750,,,,,,,
1558975197.036066,1.796722,1.218655,2.806186,-0.391322,0.180532,-0.219732,0.336143,-0.938636,0.077262,-0.159248,0.521354,-0.053718,5.962151,-41.337532,23.522635,,,,,,,
1558975197.056054,1.777910,1.216043,2.832855,-0.429981,0.385744,-0.254099,0.339936,-0.937732,0.071430,-0.152604,0.489978,-0.073306,6.048563,-41.497173,23.217489,,,,,,,
1558975197.076030,1.762934,1.211254,2.857930,-0.326467,0.415693,-0.361562,0.345371,-0.936058,0.067187,-0.105884,0.482140,-0.084720,6.109885,-41.691711,22.850021,,,,,,,
1558975197.096031,1.755450,1.203716,2.872373,-0.106658,0.211460,-0.449820,0.352790,-0.933379,0.065895,-0.094398,0.465682,-0.068870,6.222074,-41.746914,22.718569,,,,,,,
1558975197.116018,1.748569,1.193919,2.881148,-0.063544,0.001786,-0.556422,0.362218,-0.929819,0.065079,-0.087240,0.417306,-0.028611,6.525612,-41.733826,22.657389,,,,,,,
1558975197.136008,1.739025,1.182170,2.892019,-0.136630,0.074982,-0.637989,0.373569,-0.925430,0.063444,-0.046756,0.379150,-0.015700,7.122057,-41.678665,22.579155,,,,,,,
1558975197.155995,1.727829,1.169543,2.907500,-0.202117,0.202076,-0.699816,0.385766,-0.920572,0.061081,-0.040231,0.367258,-0.018646,7.491124,-41.663486,22.487539,,,,,,,
