timestamp(unix),attitude_roll(radians),attitude_pitch(radians),attitude_yaw(radians),rotation_rate_x(radians/s),rotation_rate_y(radians/s),rotation_rate_z(radians/s),gravity_x(G),gravity_y(G),gravity_z(G),user_acc_x(G),user_acc_y(G),user_acc_z(G),magnetic_field_x(microteslas),magnetic_field_y(microteslas),magnetic_field_z(microteslas),latitude(degree),longitude(degree),altitude(meter),speed(m/s),course(degree),timestamp(unix),User Mark
1558975135.013592,-0.957308,1.116358,-0.515437,0.078144,-0.373799,0.152586,-0.358911,-0.898508,-0.252718,0.006250,0.023966,0.001741,-28.369400,-37.194859,3.602046,,,,,,,
1558975135.033577,-0.967295,1.114551,-0.509921,0.021465,-0.140997,0.127010,-0.362753,-0.897713,-0.250042,-0.020563,-0.000984,-0.025944,-28.478842,-37.081585,3.894391,,,,,,,
1558975135.053592,-0.967914,1.112930,-0.507973,-0.019027,0.143466,0.068844,-0.364107,-0.896998,-0.250643,-0.022703,-0.003454,-0.024443,-28.556028,-37.021339,3.902350,,,,,,,
1558975135.073568,-0.967276,1.111148,-0.506640,0.060345,-0.008141,0.043970,-0.365262,-0.896208,-0.251782,-0.011935,0.003630,-0.014316,-28.627529,-36.976906,3.798388,,,,,,,
1558975135.093562,-0.976459,1.111787,-0.501478,0.129497,-0.344628,0.039757,-0.367084,-0.896492,-0.248096,0.013386,0.000282,-0.001766,-28.655119,-36.939960,3.946940,,,,,,,
1558975135.113558,-0.989398,1.111790,-0.495166,0.096475,-0.318980,0.111508,-0.370261,-0.896493,-0.243324,0.012427,-0.001044,0.000190,-28.660591,-36.910297,4.177926,,,,,,,
1558975135.133535,-0.996496,1.109774,-0.490669,-0.037023,-0.065445,0.250484,-0.373496,-0.895598,-0.241671,0.018790,-0.011674,0.000384,-28.689774,-36.861515,4.402330,,,,,,,
1558975135.153536,-0.997718,1.103951,-0.488176,-0.147248,0.083123,0.255021,-0.378166,-0.892993,-0.244038,-0.030540,-0.010068,0.001057,-28.929062,-36.679989,4.352324,,,,,,,
1558975135.173497,-0.991458,1.097912,-0.493012,-0.341774,0.128414,0.170955,-0.381137,-0.890258,-0.249348,-0.035337,0.000976,0.007039,-29.058140,-36.593742,4.216302,,,,,,,
1558975135.193511,-0.979594,1.090971,-0.503117,-0.510666,0.204239,0.098948,-0.383273,-0.887076,-0.257291,-0.016858,-0.012674,0.030041,-29.210197,-36.503105,3.942418,,,,,,,
1558975135.213501,-0.959595,1.083519,-0.520412,-0.526440,0.257152,0.085562,-0.383455,-0.883611,-0.268690,0.020418,-0.001887,-0.021044,-29.311081,-36.485561,3.304399,,,,,,,
1558975135.233459,-0.944631,1.076257,-0.530855,-0.330712,0.263680,0.191478,-0.384580,-0.880188,-0.278151,0.019285,-0.009919,-0.008974,-29.330837,-36.481544,3.170774,,,,,,,
1558975135.253477,-0.940781,1.070918,-0.533628,-0.073166,-0.094999,0.153018,-0.387298,-0.877641,-0.282394,-0.074616,-0.018782,0.005920,-29.529371,-36.371109,2.532459,,,,,,,
1558975135.273466,-0.946362,1.071061,-0.531364,0.058679,-0.225983,-0.033901,-0.388767,-0.877709,-0.280155,-0.011700,0.008599,-0.010037,-29.610586,-36.299931,2.604445,,,,,,,
1558975135.293426,-0.950796,1.073121,-0.534460,0.002704,-0.463674,-0.140852,-0.388532,-0.878695,-0.277377,-0.007571,-0.030851,-0.012967,-29.601471,-36.304176,2.648514,,,,,,,
1558975135.313442,-0.953400,1.073637,-0.542635,-0.229271,-0.429659,-0.121495,-0.388884,-0.878941,-0.276102,-0.034716,-0.003475,-0.065939,-29.423822,-36.422676,2.980289,,,,,,,
1558975135.333432,-0.945820,1.070096,-0.556674,-0.197264,-0.113884,-0.192113,-0.389301,-0.877247,-0.280861,-0.062267,0.003544,-0.000008,-29.347948,-36.488159,2.926983,,,,,,,
1558975135.353393,-0.933953,1.077702,-0.575665,-0.090269,-0.546605,-0.795119,-0.380566,-0.880872,-0.281485,-0.052372,0.097593,0.031622,-29.155102,-36.646915,2.870276,,,,,,,
1558975135.373407,-0.939249,1.091312,-0.600960,-0.073590,-1.657720,-0.867664,-0.372340,-0.887233,-0.272362,-0.031164,0.010234,-0.035179,-28.506725,-37.122757,3.243855,,,,,,,
1558975135.393398,-0.953453,1.097161,-0.614018,-0.061314,-1.141900,-0.115365,-0.371933,-0.889916,-0.264037,0.228759,-0.109870,-0.069581,-27.952185,-37.481823,3.878527,,,,,,,
1558975135.413360,-0.970617,1.095169,-0.610954,0.039887,-0.289887,0.283630,-0.377871,-0.889006,-0.258616,0.067981,0.085951,-0.050772,-27.664631,-37.611774,4.612725,,,,,,,
1558975135.433373,-0.982516,1.090080,-0.601339,-0.003793,-0.287500,0.312445,-0.384681,-0.886664,-0.256608,0.049018,0.029410,0.011735,-27.854752,-37.447563,4.800782,,,,,,,
1558975135.453362,-1.000011,1.083653,-0.599852,-0.221123,-1.010486,0.262645,-0.393898,-0.883674,-0.252913,-0.001091,0.018470,0.015104,-28.072376,-37.243740,5.108862,,,,,,,
1558975135.473350,-1.014011,1.077489,-0.603348,-0.232697,-0.672267,0.205017,-0.402017,-0.880772,-0.250248,-0.011191,0.010761,-0.051892,-28.132212,-37.157906,5.396599,,,,,,,
1558975135.493338,-1.013861,1.072860,-0.606115,-0.140187,0.239354,0.142284,-0.405436,-0.878570,-0.252461,-0.000036,0.004913,-0.024837,-28.191601,-37.090908,5.545591,,,,,,,
1558975135.513327,-1.000361,1.066792,-0.606531,-0.166336,0.766086,0.278625,-0.406471,-0.875656,-0.260785,0.015937,0.010498,-0.006732,-28.457947,-36.952148,5.093018,,,,,,,
1558975135.533315,-0.990210,1.061125,-0.605309,-0.055554,0.452585,0.249021,-0.407945,-0.872905,-0.267615,-0.000777,0.009914,0.007269,-28.652205,-36.854279,4.697694,,,,,,,
1558975135.553288,-0.986890,1.059492,-0.602380,0.049363,0.202226,0.011826,-0.408243,-0.872107,-0.269753,-0.049536,-0.003076,0.012597,-28.815361,-36.754704,4.474599,,,,,,,
1558975135.573290,-0.983076,1.061737,-0.600283,0.143710,0.361190,-0.088003,-0.405581,-0.873204,-0.270222,-0.033552,-0.025768,-0.053463,-28.859056,-36.739159,4.317834,,,,,,,
1558975135.593281,-0.975143,1.063611,-0.597950,0.177299,0.550247,-0.070151,-0.402070,-0.874115,-0.272512,-0.024688,-0.013947,-0.033732,-28.833645,-36.768963,4.233117,,,,,,,
1558975135.613256,-0.970827,1.066166,-0.593878,0.141061,0.223857,-0.045545,-0.399045,-0.875353,-0.272983,0.028409,-0.022748,-0.051403,-28.858711,-36.772068,4.030462,,,,,,,
1558975135.633245,-0.972138,1.068388,-0.591742,0.085857,-0.075055,-0.091157,-0.397795,-0.876425,-0.271363,-0.008196,-0.017602,-0.009002,-28.827753,-36.799919,3.997740,,,,,,,
1558975135.653246,-0.974522,1.070498,-0.592519,-0.049263,-0.090321,-0.170414,-0.396909,-0.877440,-0.269375,-0.022402,-0.010484,0.008190,-28.756027,-36.846874,4.080900,,,,,,,
1558975135.673221,-0.961659,1.069611,-0.602208,-0.327709,0.439876,-0.017160,-0.394050,-0.877014,-0.274903,0.003959,0.035324,-0.018188,-28.693630,-36.890255,4.127926,,,,,,,
1558975135.693215,-0.942961,1.063962,-0.615395,-0.474395,0.223039,0.074600,-0.392844,-0.874285,-0.285128,0.113868,0.051928,0.038622,-28.713894,-36.943012,3.461341,,,,,,,
1558975135.713211,-0.931278,1.056482,-0.630565,-0.532416,-0.255453,0.094530,-0.394723,-0.870630,-0.293593,0.117852,0.100183,0.005431,-28.763376,-36.933422,3.137730,,,,,,,
1558975135.733175,-0.926482,1.047520,-0.645179,-0.549387,-0.540693,0.136626,-0.399533,-0.866186,-0.300158,0.040295,0.053946,-0.025648,-28.833593,-36.897644,2.905653,,,,,,,
1558975135.753182,-0.925714,1.038516,-0.660779,-0.594706,-0.747699,0.089767,-0.405518,-0.861652,-0.305141,0.026810,-0.008435,-0.015599,-28.918436,-36.842724,2.755451,,,,,,,
1558975135.773176,-0.928510,1.029618,-0.680253,-0.729762,-1.062083,0.020456,-0.412492,-0.857102,-0.308587,0.047700,0.006547,0.010689,-28.923374,-36.834759,2.809562,,,,,,,
1558975135.793164,-0.930311,1.022602,-0.698656,-0.468014,-0.771717,0.024512,-0.417859,-0.853467,-0.311429,0.022641,-0.093341,-0.059695,-28.874784,-36.869076,2.858868,,,,,,,
1558975135.813155,-0.939021,1.019299,-0.708861,-0.235493,-0.974894,-0.019952,-0.422828,-0.851741,-0.309442,-0.064431,-0.002263,0.002847,-28.806070,-36.905556,3.073333,,,,,,,
1558975135.833126,-0.957137,1.017109,-0.711699,-0.107886,-0.959530,0.100941,-0.429888,-0.850592,-0.302804,-0.115934,0.075521,0.040979,-28.757696,-36.912300,3.425137,,,,,,,
1558975135.853129,-0.978626,1.016611,-0.708397,0.201219,-0.835367,0.103445,-0.436647,-0.850329,-0.293734,-0.008589,-0.097043,0.004427,-28.747646,-36.883656,3.797857,,,,,,,
1558975135.873119,-1.000430,1.016807,-0.690694,0.545127,-0.064173,0.321427,-0.442807,-0.850433,-0.284054,-0.020664,-0.072022,-0.091342,-28.825687,-36.724239,4.654538,,,,,,,
1558975135.893096,-1.011323,1.024243,-0.671777,0.606465,0.215871,-0.215005,-0.440502,-0.854321,-0.275850,-0.051533,0.044476,-0.077437,-28.926403,-36.614693,4.886958,,,,,,,
1558975135.913094,-1.031878,1.032651,-0.650086,0.755452,-0.310871,0.075811,-0.439899,-0.858661,-0.263042,-0.066144,-0.002042,0.042934,-28.841530,-36.647755,5.134522,,,,,,,
1558975135.933085,-1.068753,1.027793,-0.608670,0.784868,0.281105,0.922807,-0.452949,-0.856160,-0.248650,-0.067300,0.016042,0.019127,-29.164974,-36.237392,6.124561,,,,,,,
1558975135.953049,-1.092126,1.011479,-0.564220,0.597251,0.832746,1.600554,-0.470972,-0.847618,-0.244398,-0.113089,0.057243,-0.056277,-29.745426,-35.732716,6.295822,,,,,,,
1558975135.973061,-1.123096,0.988925,-0.523341,0.385845,-0.187802,1.207332,-0.495424,-0.835436,-0.237913,0.068407,0.009935,-0.084337,-30.649914,-34.966911,6.257218,,,,,,,
1558975135.993050,-1.134863,0.983213,-0.511728,0.025640,0.080686,-0.058752,-0.502506,-0.832283,-0.234078,0.041737,-0.092598,0.050530,-31.663849,-33.973080,6.669745,,,,,,,
1558975136.013030,-1.120047,0.988485,-0.521255,-0.230907,0.307929,-0.264978,-0.495027,-0.835194,-0.239583,0.012681,-0.015178,0.003361,-31.590481,-34.067070,6.536905,,,,,,,
1558975136.033025,-1.107835,0.987456,-0.531804,-0.268900,0.207056,0.004141,-0.492833,-0.834627,-0.245994,-0.018367,-0.018492,-0.000268,-31.421612,-34.283882,6.209082,,,,,,,
1558975136.052993,-1.092893,0.986539,-0.538702,-0.144079,0.557141,-0.121594,-0.489782,-0.834122,-0.253682,-0.013773,-0.008469,-0.016231,-31.454632,-34.333435,5.751194,,,,,,,
1558975136.073003,-1.070231,0.992299,-0.548875,-0.007387,0.844434,-0.494549,-0.479684,-0.837285,-0.262405,0.050851,0.081045,0.032943,-31.368870,-34.474106,5.365140,,,,,,,
1558975136.092991,-1.030034,1.013384,-0.567145,0.101422,1.150109,-1.396901,-0.453513,-0.848627,-0.272319,-0.143746,0.188883,0.054088,-30.989408,-34.902336,4.768477,,,,,,,
1558975136.112952,-1.013606,1.032259,-0.576910,0.390053,0.009488,-0.455228,-0.435305,-0.858460,-0.271213,0.211748,-0.283676,-0.041882,-30.016958,-35.801113,4.303200,,,,,,,
1558975136.132969,-1.036465,1.034742,-0.552919,0.799877,-0.194161,0.517909,-0.439555,-0.859730,-0.260106,0.280634,0.031483,-0.124400,-29.953793,-35.818565,4.588633,,,,,,,
1558975136.152940,-1.086423,1.037669,-0.504428,1.331542,-0.418029,0.411563,-0.449766,-0.861222,-0.236659,0.109220,0.068497,-0.109212,-30.163143,-35.575920,5.078732,,,,,,,
1558975136.172921,-1.138239,1.047218,-0.455120,1.351737,-0.658832,-0.095723,-0.453933,-0.866035,-0.209590,-0.016069,0.056068,-0.018270,-30.433151,-35.054478,6.801591,,,,,,,
1558975136.192934,-1.206009,1.061571,-0.406159,1.468738,-1.405932,-0.253319,-0.455423,-0.873123,-0.173916,-0.041601,-0.042313,-0.136158,-30.255421,-34.970093,7.934536,,,,,,,
1558975136.212911,-1.267842,1.072300,-0.361958,1.000947,-1.146352,-0.072912,-0.456332,-0.878303,-0.142639,0.064456,0.045676,0.019302,-29.959087,-34.887878,9.302880,,,,,,,
1558975136.232888,-1.319963,1.077075,-0.326140,0.784572,-0.855418,0.045006,-0.459076,-0.880575,-0.117629,0.003204,0.000418,0.067778,-29.543823,-34.634506,11.352021,,,,,,,
1558975136.252900,-1.352062,1.077352,-0.302413,0.413336,-0.409390,0.134389,-0.462376,-0.880707,-0.102782,-0.006130,-0.012115,0.058547,-29.458214,-34.477764,12.031307,,,,,,,
1558975136.272866,-1.361539,1.075866,-0.297841,-0.123489,-0.220653,0.054625,-0.464609,-0.880002,-0.098667,-0.043478,0.000241,0.122074,-29.452486,-34.317585,12.494368,,,,,,,
1558975136.292877,-1.350362,1.074675,-0.312760,-0.446243,-0.011944,-0.053604,-0.464500,-0.879435,-0.104083,-0.034203,-0.008886,0.046847,-29.420940,-34.367546,12.431210,,,,,,,
1558975136.312865,-1.333655,1.073896,-0.330456,-0.370478,0.043675,-0.056214,-0.463362,-0.879065,-0.111989,-0.015810,-0.009867,0.024221,-29.397953,-34.475132,12.185255,,,,,,,
1558975136.332852,-1.326315,1.073906,-0.341816,-0.200098,-0.272248,-0.081522,-0.462519,-0.879069,-0.115385,-0.009878,-0.013555,0.025785,-29.360786,-34.592308,11.940331,,,,,,,
1558975136.352815,-1.329510,1.075472,-0.347389,-0.069674,-0.437864,-0.106491,-0.461548,-0.879815,-0.113578,-0.018448,-0.005943,0.010321,-29.181273,-34.710163,12.037965,,,,,,,
1558975136.372830,-1.334962,1.076555,-0.349735,-0.037527,-0.342802,-0.039361,-0.461233,-0.880329,-0.110837,-0.012994,0.000324,-0.003802,-29.136412,-34.729877,12.089664,,,,,,,
1558975136.392790,-1.336974,1.077045,-0.353128,-0.099823,-0.192393,-0.048648,-0.461036,-0.880561,-0.109809,-0.022637,-0.007607,-0.006569,-28.949532,-34.796211,12.345171,,,,,,,
1558975136.412789,-1.333894,1.076646,-0.359856,-0.115662,-0.153203,-0.050420,-0.461037,-0.880372,-0.111311,-0.013069,-0.006637,-0.012026,-28.849789,-34.865997,12.381704,,,,,,,
1558975136.432768,-1.332111,1.076830,-0.364430,-0.089933,-0.083528,-0.018771,-0.460680,-0.880459,-0.112094,0.001680,-0.003467,-0.015347,-28.860338,-34.870461,12.344503,,,,,,,
1558975136.452780,-1.331351,1.076495,-0.366377,-0.029126,-0.028835,0.013831,-0.460882,-0.880300,-0.112514,-0.002238,-0.001948,-0.022953,-28.800293,-34.924213,12.332775,,,,,,,
1558975136.472771,-1.330469,1.076453,-0.367615,-0.037494,0.000755,-0.020058,-0.460818,-0.880280,-0.112930,-0.012021,-0.002410,-0.012940,-28.797974,-34.929607,12.322906,,,,,,,
1558975136.492736,-1.323745,1.075736,-0.372659,-0.079553,0.154224,-0.033568,-0.460660,-0.879940,-0.116180,-0.009448,0.002224,-0.016007,-28.823090,-34.952282,12.199265,,,,,,,
1558975136.512748,-1.312343,1.075188,-0.380029,-0.104950,0.214653,-0.004185,-0.459771,-0.879680,-0.121548,0.002679,0.005031,-0.018635,-28.833214,-34.971642,12.119616,,,,,,,
1558975136.532738,-1.300233,1.073456,-0.388592,-0.096723,0.131116,0.000361,-0.459733,-0.878855,-0.127514,0.003923,0.020502,-0.012806,-28.921452,-35.043278,11.695009,,,,,,,
1558975136.552726,-1.294070,1.072021,-0.393196,-0.118140,0.095297,0.005340,-0.460152,-0.878169,-0.130689,0.000023,0.023066,-0.000765,-28.994370,-35.048580,11.496904,,,,,,,
1558975136.572713,-1.287153,1.070479,-0.399143,-0.178869,0.086125,0.020152,-0.460536,-0.877430,-0.134248,0.001354,0.015599,0.002839,-29.007343,-35.060654,11.427135,,,,,,,
1558975136.592704,-1.275665,1.067698,-0.409033,-0.251017,0.157319,0.016506,-0.461296,-0.876093,-0.140238,-0.001900,0.003351,-0.005346,-29.102028,-35.082062,11.116455,,,,,,,
1558975136.612691,-1.260282,1.065689,-0.422207,-0.283969,0.163807,-0.002676,-0.460760,-0.875123,-0.147855,0.002798,0.004151,-0.018801,-29.155954,-35.148449,10.759727,,,,,,,
1558975136.632678,-1.244494,1.064272,-0.435214,-0.181778,0.163266,-0.007940,-0.459542,-0.874436,-0.155509,0.016824,0.012360,-0.036996,-29.180019,-35.193104,10.546402,,,,,,,
1558975136.652669,-1.233848,1.063859,-0.442879,-0.029614,0.142371,-0.018697,-0.458201,-0.874236,-0.160511,0.011790,0.010375,-0.036526,-29.195925,-35.306934,10.113012,,,,,,,
1558975136.672657,-1.223175,1.062851,-0.452650,-0.378741,0.141005,-0.038207,-0.457290,-0.873746,-0.165692,-0.005234,-0.029453,0.201718,-29.198097,-35.353630,9.942173,,,,,,,
1558975136.692617,-1.203981,1.060360,-0.468861,-0.400684,0.280694,-0.005926,-0.456056,-0.872531,-0.175219,0.022157,-0.007000,0.155459,-29.202007,-35.403572,9.751157,,,,,,,
1558975136.712624,-1.190293,1.058140,-0.480842,-0.255537,0.067457,-0.015324,-0.455413,-0.871445,-0.182163,0.031859,0.028534,-0.019070,-29.258671,-35.516518,9.152166,,,,,,,
1558975136.732621,-1.183609,1.057282,-0.488890,-0.173850,-0.028139,-0.039662,-0.454877,-0.871023,-0.185486,0.016981,0.019644,-0.012406,-29.247820,-35.559166,9.020285,,,,,,,
1558975136.752584,-1.178522,1.056675,-0.494828,-0.136462,0.025617,-0.009224,-0.454416,-0.870725,-0.187999,0.014764,0.005628,-0.001133,-29.222925,-35.599937,8.939800,,,,,,,
1558975136.772591,-1.172119,1.054967,-0.500464,-0.180940,0.121064,0.046104,-0.454573,-0.869884,-0.191482,0.022154,0.005138,0.019180,-29.229237,-35.640816,8.754357,,,,,,,
1558975136.792580,-1.160705,1.051821,-0.508041,-0.261332,0.290657,0.078625,-0.454865,-0.868328,-0.197748,0.019425,0.001735,0.026239,-29.283222,-35.641560,8.568945,,,,,,,
1558975136.812551,-1.147931,1.048218,-0.516186,-0.240131,0.268363,0.089105,-0.455153,-0.866535,-0.204825,0.021391,0.004902,0.019247,-29.360945,-35.640076,8.305099,,,,,,,
1558975136.832565,-1.139415,1.045214,-0.521008,-0.136090,0.179012,0.078724,-0.455754,-0.865032,-0.209781,0.007024,0.006389,-0.004605,-29.466843,-35.629139,7.970212,,,,,,,
1558975136.852529,-1.136219,1.043625,-0.522664,-0.033238,0.041009,0.044388,-0.456327,-0.864234,-0.211815,0.007566,0.007910,-0.014427,-29.579731,-35.594368,7.702948,,,,,,,
1558975136.872539,-1.137477,1.043062,-0.521196,0.056011,-0.012318,0.039679,-0.457035,-0.863950,-0.211445,0.009220,0.000059,-0.011669,-29.579731,-35.594368,7.702948,,,,,,,
1558975136.892506,-1.140423,1.043143,-0.518198,0.024131,-0.003721,0.022653,-0.457592,-0.863991,-0.210068,-0.000156,-0.001716,0.007752,-29.624447,-35.553345,7.720507,,,,,,,
1558975136.912505,-1.140474,1.042250,-0.518233,-0.050349,0.019968,0.051647,-0.458304,-0.863541,-0.210367,-0.002054,-0.003036,0.001550,-29.652754,-35.520741,7.761841,,,,,,,
1558975136.932505,-1.138441,1.040414,-0.519911,-0.067304,0.023161,0.006824,-0.459315,-0.862613,-0.211962,-0.014440,-0.005459,-0.005796,-29.652754,-35.520741,7.761841,,,,,,,
1558975136.952495,-1.135259,1.040525,-0.523291,-0.072618,-0.002271,-0.054280,-0.458550,-0.862670,-0.213382,-0.014106,-0.012849,-0.005750,-29.697332,-35.511097,7.634477,,,,,,,
1558975136.972462,-1.133463,1.041057,-0.525618,-0.025877,-0.022571,-0.035220,-0.457751,-0.862939,-0.214011,-0.002409,-0.008750,-0.003198,-29.687614,-35.521915,7.621929,,,,,,,
1558975136.992470,-1.133350,1.042033,-0.526197,-0.003476,0.006959,-0.000756,-0.456964,-0.863431,-0.213706,0.011758,-0.004870,0.007926,-29.412868,-35.712620,11.828796,,,,,,,
1558975137.012460,-1.131950,1.041976,-0.526470,-0.005493,0.069427,0.061762,-0.456708,-0.863403,-0.214366,0.016507,-0.004288,-0.001210,-29.387520,-35.728508,11.843799,,,,,,,
1558975137.032439,-1.132022,1.041046,-0.525302,0.015566,0.004857,0.073971,-0.457451,-0.862933,-0.214675,0.018929,0.012591,0.002623,-29.437630,-35.708481,11.779603,,,,,,,
1558975137.052436,-1.133357,1.040699,-0.523470,0.015769,0.047073,0.031669,-0.458008,-0.862758,-0.214190,0.008683,0.009456,0.010745,-29.461218,-35.687218,11.785081,,,,,,,
1558975137.072427,-1.132792,1.041581,-0.522325,-0.001108,0.092610,0.029953,-0.457198,-0.863203,-0.214126,0.017745,0.002135,0.011779,-29.490242,-35.664131,11.782354,,,,,,,
1558975137.092406,-1.132170,1.041646,-0.521427,0.012607,0.055545,0.031744,-0.457014,-0.863236,-0.214387,0.014814,0.004090,0.009415,-29.490082,-35.669754,11.765708,,,,,,,
1558975137.112402,-1.133792,1.041519,-0.518792,0.064560,0.015179,0.081577,-0.457460,-0.863172,-0.213691,0.019044,0.005491,0.008995,-29.509060,-35.656895,11.757129,,,,,,,
1558975137.132392,-1.139171,1.041977,-0.513303,0.091995,-0.038796,0.128073,-0.458244,-0.863403,-0.211062,0.018501,0.006241,0.020312,-29.514965,-35.636147,11.805093,,,,,,,
1558975137.152380,-1.148395,1.040777,-0.504729,0.071607,-0.057612,0.198340,-0.461116,-0.862797,-0.207252,0.017207,0.006474,0.030723,-29.588837,-35.515427,11.982640,,,,,,,
1558975137.172366,-1.155965,1.037180,-0.497178,0.058954,0.005964,0.258726,-0.465509,-0.860973,-0.205004,0.011056,0.003033,0.025560,-29.709930,-35.369980,12.112515,,,,,,,
1558975137.192344,-1.160479,1.033384,-0.490644,0.015774,0.112838,0.184980,-0.469423,-0.859036,-0.204203,0.007967,0.000195,0.014857,-29.932631,-35.147419,12.211670,,,,,,,
1558975137.212326,-1.165965,1.029528,-0.485775,-0.046000,-0.211308,0.208523,-0.473577,-0.857056,-0.202928,0.001714,0.055466,0.025453,-30.039425,-35.056023,12.212160,,,,,,,
1558975137.232318,-1.173534,1.027143,-0.484839,0.017318,-0.445458,0.062201,-0.476983,-0.855825,-0.200128,0.057519,-0.001200,0.035394,-30.133148,-34.948433,12.289401,,,,,,,
1558975137.252309,-1.180342,1.025987,-0.484572,-0.021510,-0.286738,0.038065,-0.479249,-0.855226,-0.197252,-0.013137,-0.019011,0.002123,-30.082436,-34.882095,12.598222,,,,,,,
1558975137.272310,-1.184421,1.024818,-0.484157,-0.022160,-0.139742,0.084313,-0.480976,-0.854620,-0.195672,0.000583,0.010870,0.022424,-30.058527,-34.857079,12.723902,,,,,,,
1558975137.292288,-1.186301,1.022966,-0.484710,-0.061373,-0.090925,0.076207,-0.482809,-0.853656,-0.195361,-0.000238,0.012775,0.016345,-30.070232,-34.835316,12.755799,,,,,,,
1558975137.312257,-1.185319,1.020752,-0.486675,-0.098370,-0.004031,0.093024,-0.484367,-0.852501,-0.196545,-0.007409,0.014901,-0.000003,-30.123541,-34.790024,12.753649,,,,,,,
1558975137.332275,-1.183521,1.018002,-0.488391,-0.032403,-0.006471,0.106933,-0.486181,-0.851061,-0.198300,0.000418,0.006182,-0.013675,-30.202316,-34.753464,12.666708,,,,,,,
1558975137.352247,-1.186719,1.016447,-0.485717,0.073874,-0.066246,0.090431,-0.488040,-0.850243,-0.197241,0.003070,0.006233,-0.019861,-30.237328,-34.723640,12.664967,,,,,,,
1558975137.372234,-1.192225,1.015908,-0.481243,0.100422,-0.102379,0.053806,-0.489544,-0.849959,-0.194720,-0.007709,-0.003312,-0.012006,-30.300354,-34.618156,12.802365,,,,,,,
1558975137.392240,-1.197992,1.015409,-0.478140,0.041610,-0.182401,0.055129,-0.491054,-0.849696,-0.192048,0.000514,-0.001561,0.006287,-30.301777,-34.565105,12.941572,,,,,,,
1558975137.412222,-1.201482,1.014387,-0.477584,-0.029447,-0.102754,0.053699,-0.492530,-0.849157,-0.190646,0.010353,-0.004710,0.010989,-30.294907,-34.536179,13.034555,,,,,,,
1558975137.432198,-1.202526,1.013722,-0.477512,-0.047282,-0.029747,0.040503,-0.493257,-0.848805,-0.190335,-0.007506,-0.015941,0.001386,-30.303959,-34.510441,13.081587,,,,,,,
1558975137.452206,-1.202771,1.013208,-0.478666,-0.029307,-0.085926,-0.001659,-0.493710,-0.848534,-0.190371,-0.007953,-0.013969,0.003787,-30.304646,-34.506542,13.090284,,,,,,,
1558975137.472190,-1.203570,1.013670,-0.479819,-0.029228,-0.072219,-0.023949,-0.493496,-0.848778,-0.189836,-0.009022,-0.026894,-0.003707,-30.271523,-34.523094,13.123233,,,,,,,
1558975137.492182,-1.203908,1.014622,-0.481051,-0.039823,-0.056305,-0.021671,-0.492805,-0.849281,-0.189379,-0.004478,-0.038246,0.003436,-30.228737,-34.550491,13.149740,,,,,,,
1558975137.512170,-1.201667,1.014366,-0.482606,-0.039257,0.129771,0.008937,-0.492583,-0.849146,-0.190562,-0.018648,-0.055014,-0.013586,-30.196083,-34.582863,13.139669,,,,,,,
1558975137.532136,-1.196933,1.014055,-0.482607,0.017610,0.261583,-0.001500,-0.491921,-0.848981,-0.192988,-0.034950,-0.102953,-0.040166,-30.241024,-34.580566,13.041995,,,,,,,
1558975137.552148,-1.195616,1.016131,-0.480917,0.126685,0.026146,-0.140326,-0.490025,-0.850077,-0.192989,-0.072032,-0.146673,-0.024479,-30.280548,-34.591789,12.919943,,,,,,,
1558975137.572135,-1.200295,1.021795,-0.478438,0.169918,-0.170920,-0.298054,-0.486426,-0.853046,-0.188948,-0.104089,-0.216763,-0.008348,-30.120937,-34.673298,13.073647,,,,,,,
1558975137.592123,-1.202212,1.029926,-0.479234,0.079910,-0.090321,-0.437216,-0.480302,-0.857261,-0.185509,-0.101607,-0.305566,-0.015312,-29.915068,-34.792145,13.229647,,,,,,,
1558975137.612097,-1.195637,1.039566,-0.486227,-0.026722,0.120398,-0.562335,-0.471361,-0.862184,-0.185627,-0.144331,-0.393294,-0.043194,-29.492628,-35.121666,13.307224,,,,,,,
1558975137.632083,-1.177874,1.051087,-0.499461,-0.134051,0.423017,-0.730348,-0.458782,-0.867964,-0.190153,-0.181187,-0.417986,-0.047868,-29.217222,-35.394753,13.190661,,,,,,,
1558975137.652059,-1.148777,1.065720,-0.520479,-0.199227,0.571007,-0.954257,-0.441421,-0.875138,-0.198197,-0.119706,-0.479934,-0.112869,-28.790867,-35.874599,12.826829,,,,,,,
1558975137.672079,-1.118177,1.084610,-0.543806,-0.009876,0.434395,-1.168943,-0.420207,-0.884121,-0.204342,-0.112218,-0.470417,-0.131717,-28.045151,-36.642551,12.297229,,,,,,,
1558975137.692041,-1.096376,1.109555,-0.561769,0.312220,0.200894,-1.385517,-0.395907,-0.895501,-0.203314,-0.130201,-0.474555,-0.109125,-27.857300,-36.806389,12.234747,,,,,,,
1558975137.712054,-1.083655,1.141867,-0.574664,0.606749,-0.029389,-1.668277,-0.367518,-0.909412,-0.194682,-0.128668,-0.491284,-0.087605,-26.416714,-37.816540,12.348907,,,,,,,
1558975137.732044,-1.075997,1.180407,-0.584690,0.792005,-0.100392,-1.847105,-0.334907,-0.924761,-0.180705,-0.130150,-0.468443,-0.063146,-24.758884,-38.707790,13.005120,,,,,,,
1558975137.752013,-1.067417,1.221104,-0.595832,0.787956,-0.060282,-1.899039,-0.300111,-0.939478,-0.165270,-0.149947,-0.413290,-0.030363,-23.648243,-39.225632,13.510674,,,,,,,
1558975137.772018,-1.053001,1.262269,-0.612278,0.774116,-0.082477,-1.946239,-0.263850,-0.952782,-0.150299,-0.173619,-0.381737,-0.037857,-22.126072,-39.880222,14.157440,,,,,,,
1558975137.792011,-1.033625,1.305212,-0.635562,0.811332,-0.158987,-2.086804,-0.225507,-0.964939,-0.134310,-0.227451,-0.322262,-0.015211,-20.096128,-40.637280,15.006190,,,,,,,
1558975137.811970,-1.001425,1.351232,-0.672224,0.838042,-0.198463,-2.238766,-0.183444,-0.975992,-0.117419,-0.239301,-0.243856,0.018145,-18.754131,-41.069649,15.556204,,,,,,,
1558975137.831984,-0.937937,1.396063,-0.741681,0.587708,-0.238323,-2.206251,-0.140178,-0.984773,-0.102821,-0.260380,-0.195494,0.021767,-17.325165,-41.476704,16.122959,,,,,,,
1558975137.851975,-0.806189,1.433634,-0.879025,0.295061,-0.147787,-2.065757,-0.098674,-0.990608,-0.094654,-0.193761,-0.095192,-0.059506,-14.471807,-42.247356,16.916143,,,,,,,
1558975137.871944,-0.599965,1.464532,-1.088961,0.452442,-0.123004,-1.903112,-0.059886,-0.994359,-0.087541,-0.163167,-0.037974,-0.081404,-13.152383,-42.592255,17.127274,,,,,,,
1558975137.891949,-0.293327,1.492557,-1.400810,0.703345,-0.218394,-1.901689,-0.022599,-0.996941,-0.074821,-0.187088,0.012352,-0.074273,-11.896057,-42.833801,17.440697,,,,,,,
1558975137.911941,0.259046,1.507369,-1.958582,0.633266,-0.204415,-1.989158,0.016236,-0.997989,-0.061270,-0.159166,0.081638,-0.027460,-10.191790,-43.013870,18.065512,,,,,,,
1558975137.931917,0.828087,1.496595,-2.533555,0.545682,-0.243957,-1.878571,0.054609,-0.997248,-0.050135,-0.137678,0.120158,-0.035421,-7.969534,-43.169720,18.796032,,,,,,,
1558975137.951915,1.147018,1.471782,-2.856255,0.426090,0.015797,-1.772619,0.090109,-0.995102,-0.040649,-0.208197,0.112045,0.013473,-6.281091,-43.230297,19.290348,,,,,,,
1558975137.971906,1.296293,1.439292,-3.000868,0.106970,0.377816,-1.838807,0.126216,-0.991366,-0.035544,-0.229396,0.149386,-0.015420,-4.413249,-43.302979,19.641888,,,,,,,
1558975137.991893,1.373026,1.402950,-3.072091,0.149104,0.205180,-1.920499,0.163803,-0.985947,-0.032824,-0.189209,0.198181,-0.063748,-3.315901,-43.387466,19.671329,,,,,,,
1558975138.011880,1.443543,1.366262,3.135640,0.553631,-0.430079,-1.909173,0.201469,-0.979156,-0.025777,-0.192375,0.216308,-0.074672,-2.125160,-43.418888,19.766443,,,,,,,
1558975138.031868,1.509335,1.331436,3.053354,0.796859,-0.840169,-1.739945,0.236633,-0.971490,-0.014562,-0.156845,0.275521,-0.059122,-0.331113,-43.267464,20.205090,,,,,,,
1558975138.051858,1.557712,1.301386,2.986813,0.766928,-0.715812,-1.384320,0.266140,-0.963928,-0.003482,-0.126904,0.310074,-0.064923,1.944012,-42.832935,21.023537,,,,,,,
1558975138.071830,1.596551,1.278624,2.935347,0.661958,-0.422981,-1.018601,0.287938,-0.957620,0.007417,-0.121678,0.307916,-0.019930,3.056125,-42.536541,21.487938,,,,,,,
1558975138.091835,1.617489,1.259885,2.908662,0.283816,-0.113201,-0.882483,0.305593,-0.952055,0.014279,-0.133260,0.332945,-0.023694,4.588110,-42.031635,22.197277,,,,,,,
1558975138.111823,1.623204,1.242907,2.901825,0.123246,-0.042530,-0.839229,0.321603,-0.946724,0.016870,-0.125558,0.345757,-0.077340,5.329085,-41.862602,22.350660,,,,,,,
1558975138.131796,1.635234,1.224677,2.886545,0.451821,-0.196621,-0.942935,0.338545,-0.940696,0.021845,-0.121962,0.331367,-0.072184,5.694506,-41.783176,22.409086,,,,,,,
1558975138.151788,1.657706,1.203408,2.854499,0.717199,-0.468752,-1.042468,0.357824,-0.933268,0.031177,-0.060339,0.341182,-0.015109,7.056212,-41.272240,22.961714,,,,,,,
1558975138.171789,1.678579,1.181776,2.821829,0.650123,-0.448237,-0.988943,0.377082,-0.925281,0.040801,-0.040625,0.348621,0.025346,8.125131,-40.780308,23.481424,,,,,,,
1558975138.191765,1.688870,1.162351,2.802473,0.375635,-0.351495,-0.876134,0.394417,-0.917740,0.046788,-0.041649,0.335312,0.034771,8.623588,-40.552536,23.697136,,,,,,,
1558975138.211739,1.688685,1.145653,2.795865,0.153340,-0.257184,-0.791065,0.409589,-0.910980,0.048511,-0.078564,0.318252,0.062512,9.918268,-40.059753,24.026506,,,,,,,
1558975138.231754,1.684645,1.130145,2.798414,-0.027847,0.009113,-0.767309,0.423767,-0.904474,0.048455,-0.047531,0.331476,0.011070,10.616999,-39.859749,24.060505,,,,,,,
1558975138.251707,1.683357,1.115948,2.803037,0.019464,0.200338,-0.664014,0.436546,-0.898328,0.049346,0.027657,0.365460,-0.030792,11.042788,-39.750446,24.049686,,,,,,,
1558975138.271698,1.686904,1.104471,2.801226,0.151651,0.002201,-0.516334,0.446580,-0.893226,0.052085,0.042922,0.398033,0.009972,11.568644,-39.541119,24.147367,,,,,,,
1558975138.291685,1.688886,1.095076,2.796889,0.123344,-0.148670,-0.427051,0.454789,-0.888963,0.053957,0.042831,0.396867,0.005827,11.972520,-39.351460,24.260046,,,,,,,
1558975138.311672,1.685487,1.087407,2.797320,-0.020359,-0.113981,-0.353167,0.461729,-0.885425,0.053190,0.057024,0.410342,-0.017026,12.273403,-39.244946,24.282232,,,,,,,
1558975138.331664,1.679427,1.081819,2.803513,-0.148870,0.020026,-0.253763,0.466954,-0.882814,0.050926,0.072993,0.424791,-0.025322,12.644808,-39.179127,24.197800,,,,,,,
1558975138.351649,1.675489,1.078589,2.809189,-0.085099,0.046299,-0.130681,0.469985,-0.881292,0.049385,0.090639,0.413305,-0.024955,12.759617,-39.187767,24.123442,,,,,,,
1558975138.371638,1.673713,1.077272,2.810644,0.004884,-0.059727,-0.031265,0.471226,-0.880669,0.048669,0.084667,0.414177,-0.021539,12.821796,-39.193253,24.081512,,,,,,,
1558975138.391628,1.672851,1.078300,2.809917,0.001440,-0.073247,0.105261,0.470367,-0.881155,0.048170,0.031556,0.418677,-0.001234,12.875813,-39.189133,24.059385,,,,,,,
1558975138.411586,1.671177,1.081869,2.811996,-0.124899,0.073431,0.203720,0.467315,-0.882837,0.047068,0.001130,0.403055,0.009420,12.812742,-39.222542,24.038612,,,,,,,
1558975138.431602,1.667128,1.087277,2.821524,-0.310522,0.303873,0.267700,0.462743,-0.885364,0.044715,-0.002492,0.396961,0.003564,12.664521,-39.307362,23.978529,,,,,,,
1558975138.451594,1.662817,1.094271,2.835328,-0.360282,0.422639,0.347803,0.456753,-0.888594,0.042150,0.038440,0.327818,-0.051046,12.103947,-39.633507,23.729908,,,,,,,
1558975138.471558,1.662215,1.103034,2.844806,-0.162681,0.361541,0.475494,0.449008,-0.892579,0.041162,0.039823,0.311509,-0.054010,11.736746,-39.816311,23.608030,,,,,,,
1558975138.491568,1.670089,1.115207,2.843152,0.041208,0.311113,0.692975,0.437824,-0.898002,0.043616,0.039471,0.318626,-0.034385,11.323403,-39.956760,23.572575,,,,,,,
1558975138.511558,1.680153,1.131254,2.838661,-0.044203,0.308632,0.855165,0.422983,-0.904947,0.046441,-0.028437,0.270761,0.042090,14.575453,-41.453484,22.771765,,,,,,,
1558975138.531528,1.681777,1.148771,2.844451,-0.332492,0.359808,0.842612,0.407089,-0.912261,0.045366,-0.077224,0.210540,0.011977,13.708572,-41.762573,22.745340,,,,,,,
1558975138.551533,1.671881,1.165675,2.862732,-0.493315,0.304537,0.778963,0.392118,-0.919055,0.039773,-0.093656,0.213244,-0.001885,13.066902,-42.061825,22.570934,,,,,,,
1558975138.571523,1.657635,1.181886,2.882256,-0.414107,0.111738,0.775045,0.377752,-0.925323,0.032886,-0.113195,0.212768,-0.030796,12.470429,-42.375240,22.320732,,,,,,,
1558975138.591486,1.643969,1.198355,2.898900,-0.371615,0.106298,0.820936,0.362917,-0.931442,0.026603,-0.058168,0.220046,-0.030799,11.390654,-42.924282,21.843697,,,,,,,
1558975138.611498,1.628274,1.217197,2.919885,-0.475699,0.248715,0.975957,0.345705,-0.938132,0.019892,-0.040102,0.234595,-0.010584,10.791309,-43.195259,21.612623,,,,,,,
1558975138.631473,1.602426,1.238868,2.952580,-0.701609,0.231055,1.096251,0.325704,-0.945416,0.010305,-0.097936,0.191921,-0.029715,9.563009,-43.730923,21.107889,,,,,,,
1558975138.651476,1.557902,1.261776,3.004744,-0.878244,0.284941,1.168158,0.304101,-0.952632,-0.003921,-0.141854,0.218608,-0.084656,8.479948,-44.260483,20.456980,,,,,,,
1558975138.671435,1.506977,1.285784,3.066443,-0.817049,0.494074,1.280176,0.280597,-0.959658,-0.017932,-0.134692,0.245028,-0.085126,7.895199,-44.535435,20.091007,,,,,,,
1558975138.691441,1.454973,1.310851,3.132382,-0.788190,0.557433,1.340594,0.255306,-0.966404,-0.029703,-0.030452,0.127018,-0.075567,6.581053,-45.046234,19.414288,,,,,,,
1558975138.711442,1.386177,1.334977,-3.070581,-0.761225,0.338480,1.334249,0.229670,-0.972323,-0.042890,-0.038660,0.120425,-0.127719,4.456545,-45.713833,18.432919,,,,,,,
1558975138.731400,1.314309,1.358694,-2.994939,-0.415440,-0.027975,1.355574,0.203629,-0.977590,-0.053405,-0.055558,0.154058,-0.119188,4.456545,-45.713833,18.432919,,,,,,,
1558975138.751398,1.248854,1.384320,-2.930394,-0.182762,-0.118900,1.452046,0.175872,-0.982664,-0.058662,-0.115371,0.168302,-0.022576,1.915971,-46.228607,17.567955,,,,,,,
1558975138.771407,1.155514,1.410907,-2.835985,-0.396226,0.092764,1.584154,0.145677,-0.987245,-0.064233,-0.049592,0.081666,0.013238,0.552612,-46.344723,17.356524,,,,,,,
1558975138.791394,0.974402,1.433717,-2.649061,-0.792137,0.172188,1.706309,0.113060,-0.990619,-0.076751,-0.011940,0.019138,-0.029221,-0.212310,-46.425121,17.147923,,,,,,,
1558975138.811385,0.700004,1.448656,-2.369858,-0.830837,0.092173,1.783450,0.078490,-0.992550,-0.093186,-0.136550,0.066113,-0.053207,-2.686160,-46.737347,16.055933,,,,,,,
1558975138.831373,0.373079,1.453640,-2.039438,-0.784207,0.047593,1.823631,0.042604,-0.993145,-0.108848,-0.200929,0.128521,-0.003533,-3.110126,-46.777763,15.860512,,,,,,,
1558975138.851359,0.049024,1.446341,-1.712753,-0.747285,-0.039228,1.855927,0.006083,-0.992265,-0.123984,-0.163828,-0.023482,-0.015405,-5.691764,-46.898510,14.748622,,,,,,,
1558975138.871322,-0.220116,1.427924,-1.443559,-0.777319,-0.110955,1.850945,-0.031089,-0.989811,-0.138951,-0.154977,-0.114971,-0.026592,-7.842892,-46.852520,13.882315,,,,,,,
1558975138.891323,-0.408405,1.399974,-1.253978,-0.935569,-0.006551,1.841141,-0.067512,-0.985445,-0.156012,-0.173897,-0.076689,-0.037744,-9.117579,-46.783001,13.326984,,,,,,,
1558975138.911317,-0.529576,1.363808,-1.127381,-1.159358,0.272720,1.908762,-0.103819,-0.978654,-0.177363,-0.162432,-0.028395,-0.032049,-10.408195,-46.696041,12.670330,,,,,,,
1558975138.931311,-0.608119,1.322065,-1.038135,-1.187559,0.486546,2.017550,-0.140646,-0.969226,-0.202041,-0.021708,-0.143827,-0.136017,-13.197323,-46.427776,10.939853,,,,,,,
1558975138.951290,-0.678837,1.281734,-0.957030,-0.801978,0.268999,2.091580,-0.178982,-0.958512,-0.221858,-0.071934,-0.184509,-0.123723,-14.688330,-46.175385,10.073473,,,,,,,
1558975138.971270,-0.751388,1.246319,-0.878925,-0.476963,0.012426,2.007175,-0.217639,-0.947818,-0.232970,-0.089093,-0.210294,-0.089936,-16.166975,-45.810017,9.458289,,,,,,,
1558975138.991277,-0.807894,1.211708,-0.818773,-0.583180,0.032903,1.897318,-0.254019,-0.936217,-0.242840,-0.183298,-0.123734,-0.036823,-18.886526,-44.902279,8.744835,,,,,,,
1558975139.011257,-0.846857,1.175495,-0.774830,-0.621210,0.108107,1.868114,-0.288508,-0.922881,-0.255058,-0.161901,-0.094499,-0.057457,-20.582603,-44.262039,8.161912,,,,,,,
1558975139.031255,-0.880163,1.140810,-0.736793,-0.489261,0.051253,1.774790,-0.321332,-0.908972,-0.265550,-0.108218,-0.144816,-0.063659,-21.410057,-43.920727,7.871930,,,,,,,
1558975139.051245,-0.912830,1.109045,-0.700603,-0.332944,-0.022583,1.720826,-0.352509,-0.895274,-0.272437,-0.052276,-0.194173,-0.075127,-23.717705,-42.830128,7.241445,,,,,,,
1558975139.071224,-0.944415,1.077493,-0.665452,-0.285068,-0.009023,1.767970,-0.383639,-0.880773,-0.277596,-0.087415,-0.251139,-0.017356,-25.187233,-42.025539,6.988963,,,,,,,
1558975139.091220,-0.972418,1.045485,-0.633844,-0.285096,-0.040810,1.716419,-0.414350,-0.865168,-0.282486,-0.102984,-0.290563,-0.003433,-25.926556,-41.593044,6.871727,,,,,,,
1558975139.111211,-0.997424,1.017126,-0.606596,-0.134876,-0.112781,1.473494,-0.441723,-0.850601,-0.285237,-0.136418,-0.339554,-0.030651,-27.972301,-40.291977,6.595068,,,,,,,
1558975139.131198,-1.022770,0.993915,-0.580607,0.024791,-0.200576,1.284876,-0.465539,-0.838168,-0.284162,-0.128745,-0.380643,-0.025057,-29.069992,-39.502220,6.625572,,,,,,,
1558975139.151181,-1.046682,0.974213,-0.556498,0.084738,-0.171533,1.125054,-0.486405,-0.827260,-0.281160,-0.126800,-0.412639,-0.014006,-29.553875,-39.128937,6.699458,,,,,,,
1558975139.171150,-1.065200,0.957916,-0.537544,0.044744,-0.146316,0.878651,-0.503257,-0.817995,-0.278599,-0.176141,-0.365675,0.016697,-30.780067,-38.129040,6.939125,,,,,,,
1558975139.191163,-1.077406,0.945159,-0.527053,-0.085968,-0.203111,0.607888,-0.515769,-0.810590,-0.277355,-0.148339,-0.287539,-0.004505,-31.342514,-37.649372,7.039866,,,,,,,
1558975139.211138,-1.085527,0.935294,-0.522685,-0.128415,-0.239075,0.440956,-0.525052,-0.804774,-0.276874,-0.082980,-0.235387,-0.039532,-31.546253,-37.473183,7.069832,,,,,,,
1558975139.231114,-1.090004,0.927177,-0.521625,-0.181143,-0.134305,0.339423,-0.532062,-0.799929,-0.277533,-0.027646,-0.182173,-0.048517,-31.982183,-37.092056,7.120919,,,,,,,
1558975139.251128,-1.091052,0.920258,-0.521621,-0.126386,-0.012044,0.295795,-0.537249,-0.795758,-0.279523,-0.016279,-0.158115,-0.050280,-32.205608,-36.912663,7.045717,,,,,,,
1558975139.271105,-1.093965,0.915197,-0.518613,0.024710,-0.053078,0.246412,-0.541632,-0.792683,-0.279801,-0.012964,-0.112224,-0.043151,-32.362160,-36.784267,6.999773,,,,,,,
1558975139.291098,-1.100876,0.912515,-0.512797,0.122451,-0.144605,0.173014,-0.545446,-0.791045,-0.277014,-0.026697,-0.096147,0.000387,-32.556210,-36.590332,7.115389,,,,,,,
1558975139.311076,-1.113734,0.913865,-0.503069,0.077842,-0.140215,0.124972,-0.548004,-0.791870,-0.269506,-0.037140,-0.079529,0.019582,-32.647369,-36.473526,7.295128,,,,,,,
1558975139.331072,-1.116210,0.912270,-0.502437,-0.083589,-0.062319,0.048717,-0.549804,-0.790895,-0.268703,-0.036698,-0.075270,0.024333,-32.647369,-36.473526,7.295128,,,,,,,
1558975139.351072,-1.112788,0.911682,-0.506813,-0.205514,0.051307,-0.028233,-0.549298,-0.790535,-0.270788,-0.020908,-0.041206,-0.003931,-32.644753,-36.417789,7.579766,,,,,,,
1558975139.371059,-1.107002,0.910945,-0.513293,-0.168369,0.001381,-0.062846,-0.548243,-0.790083,-0.274222,0.011714,-0.011156,-0.019632,-32.593037,-36.507275,7.368903,,,,,,,
1558975139.391046,-1.105349,0.910835,-0.517023,-0.068676,-0.095282,-0.029527,-0.547867,-0.790016,-0.275167,0.024598,-0.001259,-0.025752,-32.593037,-36.507275,7.368903,,,,,,,
1558975139.411037,-1.100582,0.911123,-0.522756,-0.042111,-0.083716,0.021846,-0.546346,-0.790193,-0.277673,0.007054,0.010408,-0.017875,-32.476177,-36.652153,7.162778,,,,,,,
1558975139.431024,-1.097754,0.908774,-0.526542,-0.042044,-0.067883,0.007052,-0.547210,-0.788751,-0.280061,-0.001420,0.012780,-0.025878,-32.474968,-36.647690,7.191061,,,,,,,
1558975139.451011,-1.099743,0.908630,-0.526709,0.017393,-0.122107,0.004446,-0.547866,-0.788662,-0.279024,-0.005280,0.009686,-0.027907,-32.474968,-36.647690,7.191061,,,,,,,
1558975139.470982,-1.101859,0.906252,-0.525888,0.057991,-0.066268,0.025304,-0.550127,-0.787198,-0.278711,-0.028089,-0.009418,-0.009085,-32.525246,-36.621048,7.098940,,,,,,,
1558975139.490962,-1.104890,0.905374,-0.523037,0.033865,0.028946,-0.003694,-0.551587,-0.786656,-0.277352,-0.041309,-0.022472,0.000161,-32.578545,-36.555000,7.194362,,,,,,,
1558975139.510977,-1.105437,0.905212,-0.521804,-0.012778,0.062935,-0.056785,-0.551852,-0.786556,-0.277108,-0.038663,-0.019795,0.003411,-32.659351,-36.468750,7.265341,,,,,,,
1558975139.530968,-1.104570,0.906358,-0.522727,-0.008697,-0.006902,-0.091613,-0.550806,-0.787263,-0.277180,-0.007498,-0.017256,-0.008388,-32.652794,-36.475819,7.259335,,,,,,,
1558975139.550926,-1.104630,0.909260,-0.523628,0.057115,-0.069631,-0.104976,-0.548779,-0.789050,-0.276119,-0.000140,-0.015684,-0.000797,-32.551750,-36.569191,7.243367,,,,,,,
1558975139.570942,-1.106934,0.911885,-0.523251,0.065514,-0.110918,-0.118176,-0.547560,-0.790659,-0.273927,-0.003267,-0.013387,0.003694,-32.444038,-36.644318,7.346203,,,,,,,
1558975139.590933,-1.108124,0.914334,-0.523778,0.027380,-0.053639,-0.117658,-0.546151,-0.792157,-0.272410,-0.009422,0.000180,-0.002813,-32.319351,-36.728348,7.475028,,,,,,,
1558975139.610920,-1.107047,0.916093,-0.525304,0.025416,-0.002891,-0.117173,-0.544611,-0.793228,-0.272374,0.003626,0.023346,-0.009959,-32.243256,-36.792908,7.486161,,,,,,,
1558975139.630907,-1.106031,0.917293,-0.526103,0.046758,0.020272,-0.103052,-0.543482,-0.793958,-0.272501,0.001124,0.033567,-0.005422,-32.201050,-36.827625,7.497110,,,,,,,
1558975139.650897,-1.106268,0.919674,-0.525743,0.072155,-0.023192,-0.098110,-0.541855,-0.795404,-0.271525,0.021515,0.033624,0.002558,-32.158760,-36.866180,7.489123,,,,,,,
1558975139.670885,-1.108471,0.921827,-0.524767,0.078308,-0.088741,-0.085920,-0.540918,-0.796707,-0.269565,0.018563,0.032822,0.009220,-32.064690,-36.930958,7.572870,,,,,,,
1558975139.690849,-1.110359,0.923454,-0.524155,0.026242,-0.044020,-0.050301,-0.540264,-0.797690,-0.267967,0.010478,0.027716,0.016655,-31.996143,-36.967995,7.681288,,,,,,,
1558975139.710856,-1.107879,0.923445,-0.526190,-0.056468,0.067446,-0.020474,-0.539604,-0.797684,-0.269310,0.012978,0.022370,-0.014931,-31.953669,-37.001366,7.697416,,,,,,,
1558975139.730850,-1.102194,0.922734,-0.529593,-0.053090,0.137232,0.006887,-0.538570,-0.797255,-0.272629,0.016933,0.018172,-0.015274,-31.963793,-37.032909,7.501187,,,,,,,
1558975139.750818,-1.098583,0.922277,-0.530862,0.000988,0.071406,0.002029,-0.537907,-0.796979,-0.274738,0.005406,0.007871,-0.001843,-31.977180,-37.033596,7.440469,,,,,,,
1558975139.770820,-1.100864,0.924141,-0.529462,0.034629,-0.086359,-0.060312,-0.537206,-0.798104,-0.272837,-0.001459,-0.011238,0.009653,-31.959785,-37.055786,7.404652,,,,,,,
1558975139.790816,-1.102977,0.926473,-0.529939,-0.014366,-0.106219,-0.082964,-0.536120,-0.799506,-0.270861,-0.002592,-0.022805,-0.000196,-31.869648,-37.107136,7.534834,,,,,,,
1558975139.810778,-1.100954,0.927026,-0.532976,-0.099098,0.036966,-0.053902,-0.535176,-0.799838,-0.271745,-0.004497,-0.028851,-0.003569,-31.817638,-37.145790,7.564131,,,,,,,
1558975139.830784,-1.094420,0.927604,-0.538009,-0.124345,0.133303,-0.043395,-0.532978,-0.800185,-0.275024,0.001362,-0.046311,-0.014817,-31.768555,-37.219753,7.405201,,,,,,,
1558975139.850781,-1.088871,0.927529,-0.541914,-0.093538,0.106691,-0.059640,-0.531497,-0.800140,-0.278005,0.002368,-0.058548,-0.021907,-31.718407,-37.296997,7.229430,,,,,,,
1558975139.870745,-1.084884,0.928190,-0.545048,-0.048992,0.051473,-0.072944,-0.529916,-0.800537,-0.279875,0.009149,-0.060120,-0.024538,-31.701853,-37.323685,7.164018,,,,,,,
1558975139.890739,-1.081216,0.930527,-0.548145,-0.018195,0.023812,-0.084933,-0.527234,-0.801935,-0.280936,-0.011417,-0.058951,-0.012170,-31.580929,-37.448265,7.047003,,,,,,,
1558975139.910746,-1.078004,0.933287,-0.551012,-0.020130,0.053322,-0.149782,-0.524377,-0.803581,-0.281580,-0.011008,-0.059685,-0.013479,-31.508030,-37.516136,7.012250,,,,,,,
1558975139.930733,-1.073963,0.936490,-0.554188,0.004533,0.083766,-0.202853,-0.520969,-0.805483,-0.282468,-0.001522,-0.062468,-0.017504,-31.389782,-37.621677,6.977053,,,,,,,
1558975139.950724,-1.069341,0.942238,-0.557547,0.049225,0.066582,-0.228611,-0.515589,-0.808876,-0.282643,0.007243,-0.070442,-0.013729,-31.205791,-37.783249,6.929130,,,,,,,
1558975139.970712,-1.066571,0.946909,-0.559560,0.059858,0.059114,-0.237215,-0.511491,-0.811614,-0.282242,-0.005217,-0.079576,-0.005890,-30.982166,-37.965084,6.938710,,,,,,,
1558975139.990699,-1.063293,0.954035,-0.562082,0.007838,0.090007,-0.259388,-0.505496,-0.815756,-0.281099,-0.027280,-0.095621,-0.005171,-32.981117,-34.400948,8.064090,,,,,,,
1558975140.010689,-1.055528,0.958623,-0.568227,-0.068478,0.167498,-0.307820,-0.500036,-0.818401,-0.283168,-0.045802,-0.112400,-0.012319,-32.736931,-34.649940,7.992726,,,,,,,
1558975140.030662,-1.044710,0.963779,-0.576612,-0.082112,0.203422,-0.365140,-0.493287,-0.821353,-0.286438,-0.055495,-0.125485,-0.003784,-32.591141,-34.816422,7.864027,,,,,,,
1558975140.050657,-1.033510,0.970057,-0.586168,-0.062001,0.137681,-0.433015,-0.485609,-0.824918,-0.289300,-0.059725,-0.121920,-0.005851,-32.422863,-35.004459,7.723658,,,,,,,
1558975140.070654,-1.023565,0.977670,-0.596013,-0.030184,0.074001,-0.494455,-0.477331,-0.829197,-0.290839,-0.060587,-0.166957,-0.027994,-31.988558,-35.441418,7.539673,,,,,,,
1558975140.090633,-1.012463,0.986455,-0.607064,-0.041603,0.132097,-0.561170,-0.467876,-0.834076,-0.292249,-0.077793,-0.194336,-0.034228,-31.724566,-35.688484,7.489502,,,,,,,
1558975140.110629,-0.996153,0.996372,-0.621178,-0.067579,0.276886,-0.667637,-0.456082,-0.839505,-0.295331,-0.078555,-0.209567,-0.039035,-31.437443,-35.959370,7.404027,,,,,,,
1558975140.130589,-0.976327,1.008431,-0.637464,0.002962,0.303802,-0.798644,-0.441718,-0.845996,-0.298623,-0.070077,-0.258832,-0.049140,-30.753395,-36.608379,7.089703,,,,,,,
1558975140.150587,-0.958386,1.024216,-0.653582,0.171909,0.145206,-0.942023,-0.425308,-0.854307,-0.298785,-0.071121,-0.291750,-0.066099,-30.320210,-36.987839,6.985250,,,,,,,
1558975140.170594,-0.945254,1.043999,-0.667160,0.353790,0.054252,-1.044175,-0.407567,-0.864422,-0.294389,-0.084835,-0.312565,-0.072600,-29.811356,-37.393768,7.014117,,,,,,,
1558975140.190585,-0.932136,1.066948,-0.679886,0.459668,0.150775,-1.158459,-0.387637,-0.875731,-0.287807,-0.131986,-0.349519,-0.048863,-29.042784,-37.953789,7.227397,,,,,,,
1558975140.210548,-0.913107,1.092940,-0.696453,0.473013,0.238155,-1.347654,-0.363949,-0.887983,-0.281118,-0.158298,-0.346575,-0.039180,-27.713013,-38.861961,7.612229,,,,,,,
1558975140.230559,-0.887439,1.121986,-0.721000,0.480442,0.137393,-1.553600,-0.336466,-0.900964,-0.273961,-0.168951,-0.333457,-0.066356,-26.916710,-39.381557,7.796986,,,,,,,
1558975140.250550,-0.858127,1.154410,-0.752046,0.595293,0.025550,-1.723267,-0.306021,-0.914556,-0.264457,-0.177454,-0.334482,-0.087838,-26.009314,-39.940426,8.030356,,,,,,,
1558975140.270529,-0.823002,1.190782,-0.789441,0.712724,0.041563,-1.913061,-0.271965,-0.928659,-0.252244,-0.196800,-0.283926,-0.067809,-23.893801,-41.095413,8.744257,,,,,,,
1558975140.290510,-0.775142,1.230564,-0.839610,0.773691,0.036709,-2.118047,-0.233533,-0.942677,-0.238373,-0.203860,-0.247646,-0.089340,-22.680588,-41.683296,9.181653,,,,,,,
1558975140.310490,-0.711032,1.272351,-0.906925,0.868418,-0.015742,-2.225238,-0.191892,-0.955795,-0.222787,-0.163806,-0.178895,-0.115485,-20.425095,-42.649612,10.001719,,,,,,,
1558975140.330502,-0.630134,1.315617,-0.992513,1.021477,-0.109645,-2.279397,-0.148739,-0.967618,-0.203942,-0.170124,-0.133868,-0.095177,-18.483585,-43.330204,10.819389,,,,,,,
1558975140.350481,-0.517340,1.358074,-1.111389,1.017203,-0.132937,-2.320194,-0.104414,-0.977460,-0.183494,-0.176866,-0.107410,-0.106973,-17.476549,-43.627247,11.289014,,,,,,,
1558975140.370457,-0.344819,1.395322,-1.287658,0.963524,0.057624,-2.308804,-0.059011,-0.984644,-0.164299,-0.142954,-0.051016,-0.103904,-14.381898,-44.373146,12.664656,,,,,,,
1558975140.390468,-0.095948,1.425570,-1.536618,1.091534,0.171208,-2.241421,-0.013864,-0.989473,-0.144051,-0.150473,-0.037398,-0.045051,-12.383118,-44.721596,13.522058,,,,,,,
1558975140.410441,0.247318,1.445664,-1.881923,1.182292,-0.066031,-2.236145,0.030553,-0.992181,-0.121009,-0.169011,-0.012503,-0.038476,-11.403161,-44.834938,14.000162,,,,,,,
1558975140.430423,0.639192,1.446566,-2.281829,1.029202,-0.307209,-2.186262,0.073919,-0.992293,-0.099448,-0.148488,0.007369,-0.032464,-8.352137,-44.986759,15.576967,,,,,,,
1558975140.450433,0.952915,1.428515,-2.602516,0.826340,-0.117829,-2.074644,0.115584,-0.989895,-0.082147,-0.156157,0.046734,-0.037207,-6.336071,-45.000202,16.463436,,,,,,,
1558975140.470420,1.162402,1.401486,-2.813911,0.731003,0.095365,-1.917871,0.154645,-0.985701,-0.066919,-0.173673,0.063277,-0.038520,-5.398046,-44.985146,16.834688,,,,,,,
1558975140.490410,1.295332,1.371545,-2.946201,0.577704,0.168298,-1.749675,0.190473,-0.980215,-0.053837,-0.125836,0.125341,-0.041378,-2.893904,-44.853123,17.777275,,,,,,,
1558975140.510398,1.381308,1.342982,-3.030811,0.553820,0.137071,-1.508705,0.221807,-0.974162,-0.042540,-0.111882,0.154597,-0.047822,-1.472960,-44.727348,18.262081,,,,,,,
1558975140.530386,1.445731,1.317644,-3.096138,0.563718,0.006264,-1.297487,0.248501,-0.968128,-0.031242,-0.139065,0.156604,-0.041710,-0.833209,-44.641521,18.510780,,,,,,,
1558975140.550348,1.490294,1.294157,3.141172,0.407203,0.035756,-1.209783,0.272240,-0.961979,-0.021963,-0.167076,0.201984,-0.033289,0.879126,-44.337376,19.225843,,,,,,,
1558975140.570335,1.520872,1.270298,3.110408,0.374260,0.045419,-1.225732,0.295628,-0.955189,-0.014771,-0.149998,0.207646,-0.096511,1.934127,-44.160728,19.552439,,,,,,,
1558975140.590339,1.554073,1.246471,3.075057,0.603773,-0.065667,-1.192447,0.318624,-0.947866,-0.005329,-0.154486,0.224310,-0.113339,2.467436,-44.056393,19.726997,,,,,,,
1558975140.610327,1.594904,1.223204,3.028206,0.867183,-0.221306,-1.145682,0.340536,-0.940196,0.008211,-0.140310,0.295649,-0.082827,4.082230,-43.553570,20.557976,,,,,,,
1558975140.630305,1.637466,1.200007,2.977022,0.975420,-0.303194,-1.098334,0.361546,-0.932042,0.024140,-0.107686,0.294972,-0.060197,4.895675,-43.192886,21.133268,,,,,,,
1558975140.650286,1.670568,1.177526,2.934104,0.813385,-0.339225,-1.021939,0.381306,-0.923661,0.038170,-0.107029,0.299820,-0.055199,5.700000,-42.794533,21.733536,,,,,,,
1558975140.670293,1.692869,1.156870,2.904438,0.634930,-0.183833,-0.934115,0.399214,-0.915549,0.048977,-0.110441,0.358206,-0.007183,7.185837,-42.073078,22.681023,,,,,,,
1558975140.690283,1.710911,1.137926,2.881866,0.562637,-0.109310,-0.832033,0.415367,-0.907765,0.058583,-0.062462,0.395238,0.008342,8.009387,-41.659901,23.162712,,,,,,,
1558975140.710282,1.726215,1.122412,2.862703,0.488934,-0.091702,-0.624800,0.428285,-0.901149,0.067105,-0.041536,0.396815,-0.006848,8.370424,-41.464710,23.384232,,,,,,,
1558975140.730272,1.739771,1.111347,2.846990,0.389964,0.009537,-0.421057,0.437138,-0.896297,0.074576,-0.015660,0.424938,0.022698,9.158972,-40.969738,23.954178,,,,,,,
1558975140.750260,1.750265,1.103184,2.835458,0.281213,-0.005625,-0.339081,0.443517,-0.892647,0.080463,-0.006688,0.412483,0.054409,9.461493,-40.729809,24.243990,,,,,,,
1558975140.770247,1.754861,1.095732,2.829586,0.143796,-0.037677,-0.343768,0.449669,-0.889263,0.083716,0.001609,0.397579,0.054071,9.602288,-40.632915,24.351004,,,,,,,
1558975140.790238,1.753998,1.089727,2.829449,0.007329,-0.060077,-0.251207,0.454984,-0.886501,0.084299,0.044681,0.401851,0.052374,10.029070,-40.443100,24.494537,,,,,,,
1558975140.810224,1.749454,1.086544,2.834814,-0.152057,0.078339,-0.138974,0.458137,-0.885023,0.082732,0.068490,0.378340,0.036684,10.208310,-40.427647,24.445953,,,,,,,
1558975140.830212,1.746245,1.085782,2.842405,-0.149654,0.215915,-0.020215,0.459064,-0.884668,0.081379,0.075986,0.374659,0.020794,10.234613,-40.454411,24.390625,,,,,,,
1558975140.850174,1.746637,1.087530,2.847117,-0.125341,0.227621,0.118711,0.457509,-0.885482,0.081288,0.070903,0.364577,0.041606,10.083471,-40.558907,24.279770,,,,,,,
1558975140.870189,1.745821,1.091589,2.852860,-0.197905,0.209093,0.197481,0.454032,-0.887361,0.080289,0.014764,0.364152,0.058032,9.850125,-40.662025,24.202963,,,,,,,
1558975140.890154,1.741202,1.096309,2.861876,-0.250316,0.130083,0.191345,0.450265,-0.889527,0.077479,-0.005029,0.365693,0.049321,9.719564,-40.732754,24.136730,,,,,,,
1558975140.910161,1.735336,1.100500,2.869640,-0.177215,0.009150,0.158216,0.447030,-0.891434,0.074225,-0.053658,0.324860,-0.006614,9.405833,-40.956455,23.881111,,,,,,,
1558975140.930137,1.731062,1.103174,2.873278,-0.052917,-0.092005,0.100762,0.444988,-0.892643,0.071933,-0.054714,0.289982,-0.023898,9.309263,-41.045101,23.766495,,,,,,,
1558975140.950121,1.729077,1.104670,2.872031,0.052214,-0.183508,0.069009,0.443811,-0.893316,0.070839,-0.046503,0.276571,-0.026757,9.309263,-41.045101,23.766495,,,,,,,
1558975140.970128,1.730064,1.105904,2.867220,0.102344,-0.145695,0.085425,0.442653,-0.893870,0.071102,-0.049983,0.262965,0.003391,9.315744,-41.057121,23.743174,,,,,,,
1558975140.990097,1.731051,1.107628,2.864094,0.018534,-0.051154,0.103346,0.441060,-0.894641,0.071293,-0.043447,0.255863,0.020992,9.302629,-41.020573,23.811384,,,,,,,
1558975141.010088,1.727888,1.110684,2.867182,-0.162348,0.001683,0.165630,0.438581,-0.896002,0.069470,-0.054151,0.269828,0.032962,9.302629,-41.020573,23.811384,,,,,,,
1558975141.030098,1.719503,1.115217,2.877286,-0.297547,0.015130,0.200883,0.435127,-0.898006,0.065187,-0.002021,0.221126,-0.009310,9.142098,-41.125126,23.692930,,,,,,,
1558975141.050085,1.709891,1.121076,2.887153,-0.208523,-0.053879,0.311329,0.430515,-0.900569,0.060271,0.001415,0.212473,-0.030288,8.870905,-41.375778,23.357243,,,,,,,
1558975141.070073,1.705376,1.130310,2.891970,-0.159487,0.067747,0.531400,0.422524,-0.904544,0.057209,-0.022759,0.235660,-0.018436,8.870905,-41.375778,23.357243,,,,,,,
1558975141.090063,1.704810,1.144898,2.900050,-0.381959,0.516433,0.801360,0.409434,-0.910668,0.055201,-0.040843,0.202843,0.018286,8.305641,-41.612957,23.142750,,,,,,,
1558975141.110051,1.695430,1.165059,2.926795,-0.820661,0.880502,0.979588,0.391635,-0.918812,0.049065,-0.070834,0.191349,-0.021569,6.889580,-42.113689,22.697578,,,,,,,
1558975141.130038,1.677089,1.187116,2.968022,-0.925700,0.999485,1.010536,0.372223,-0.927293,0.039714,-0.096573,0.215959,-0.034313,6.267127,-42.370720,22.397636,,,,,,,
1558975141.150028,1.657533,1.208348,3.007987,-0.735789,0.785957,0.962736,0.353232,-0.935032,0.030715,-0.095007,0.174198,-0.030562,4.354027,-43.115765,21.407515,,,,,,,
1558975141.169990,1.635859,1.227146,3.042075,-0.647613,0.355115,0.845512,0.336213,-0.941531,0.021906,-0.095368,0.141101,-0.038965,3.292396,-43.474091,20.865570,,,,,,,
1558975141.190004,1.602059,1.243899,3.081574,-0.714391,0.099608,0.804577,0.320950,-0.947043,0.010037,-0.097820,0.136298,-0.065777,2.865602,-43.635021,20.590822,,,,,,,
1558975141.209994,1.563888,1.261191,3.124584,-0.645058,0.188190,0.907986,0.304676,-0.952454,-0.002105,-0.131809,0.165970,-0.117249,1.707614,-44.112881,19.681120,,,,,,,
1558975141.229972,1.538967,1.281573,-3.125166,-0.363483,0.444912,1.103912,0.285064,-0.958466,-0.009077,-0.106703,0.141769,-0.012957,1.001050,-44.302784,19.299477,,,,,,,
1558975141.249969,1.512522,1.304206,-3.087966,-0.596745,0.428252,1.160151,0.262996,-0.964675,-0.015343,-0.066570,0.087447,0.024102,-0.158659,-44.459618,18.961168,,,,,,,
1558975141.269959,1.446645,1.325444,-3.014671,-0.938236,0.154121,1.129495,0.241028,-0.970052,-0.030079,-0.055237,0.034993,-0.080242,-1.049591,-44.616371,18.560345,,,,,,,
1558975141.289924,1.355951,1.345292,-2.918477,-0.905265,0.180486,1.205577,0.218458,-0.974681,-0.047670,-0.062116,0.103557,-0.119581,2.874167,-44.753216,18.009338,,,,,,,
1558975141.309933,1.261911,1.366348,-2.815487,-0.709892,0.424915,1.359679,0.193419,-0.979173,-0.061720,-0.063658,0.132570,-0.080202,2.012801,-45.036633,17.409710,,,,,,,
1558975141.329913,1.148157,1.388101,-2.691600,-0.792535,0.274377,1.480951,0.165695,-0.983357,-0.074520,0.030777,-0.016658,0.001186,-0.052431,-45.448864,16.426977,,,,,,,
1558975141.349911,0.977171,1.406231,-2.517968,-0.900377,-0.127707,1.528263,0.135796,-0.986490,-0.091638,-0.017053,-0.045355,-0.041648,-1.458468,-45.696365,15.657678,,,,,,,
1558975141.369886,0.755147,1.416868,-2.297685,-1.044420,-0.222054,1.546462,0.105085,-0.988176,-0.111644,-0.037199,-0.018186,-0.055089,-2.132188,-45.810169,15.242369,,,,,,,
1558975141.389864,0.502277,1.418006,-2.042680,-1.052976,0.109957,1.590206,0.073271,-0.988350,-0.133398,-0.101499,0.017449,-0.066171,-4.228001,-46.121517,13.797741,,,,,,,
1558975141.409877,0.269028,1.414025,-1.801819,-0.759931,0.238540,1.664271,0.041499,-0.987737,-0.150514,-0.102030,-0.100993,-0.021559,-5.781856,-46.213566,12.896679,,,,,,,
1558975141.429857,0.063512,1.406347,-1.591701,-0.644639,-0.046602,1.530314,0.010390,-0.986509,-0.163379,-0.126144,-0.073825,0.018664,-6.957110,-46.189777,12.391567,,,,,,,
1558975141.449830,-0.099655,1.389873,-1.432031,-0.914777,-0.409161,1.284271,-0.017902,-0.983678,-0.179045,-0.102108,0.046361,-0.031679,-8.611495,-46.115669,11.603230,,,,,,,
1558975141.469843,-0.216673,1.366421,-1.322712,-0.993702,-0.487068,1.215132,-0.043632,-0.979188,-0.198210,-0.006082,0.037324,-0.071199,-9.645881,-46.107822,10.792289,,,,,,,
1558975141.489824,-0.318789,1.342140,-1.226312,-0.801933,-0.351440,1.404490,-0.071042,-0.973972,-0.215248,0.062070,-0.056775,-0.060661,-10.161906,-46.090256,10.386127,,,,,,,
1558975141.509801,-0.422007,1.318880,-1.127307,-0.612774,-0.369087,1.578499,-0.102095,-0.968437,-0.227392,-0.004839,-0.135033,-0.001032,-12.015732,-45.846493,9.442934,,,,,,,
1558975141.529808,-0.511320,1.290930,-1.044106,-0.881435,-0.487096,1.593169,-0.135166,-0.961092,-0.240898,-0.039883,-0.135496,-0.017738,-13.401699,-45.565994,8.920888,,,,,,,
1558975141.549792,-0.571205,1.256401,-0.991703,-1.161210,-0.453990,1.543082,-0.167190,-0.950984,-0.260149,-0.060028,-0.113729,-0.026014,-14.077295,-45.430256,8.565587,,,,,,,
1558975141.569768,-0.617554,1.220637,-0.951055,-1.020475,-0.381782,1.552427,-0.198639,-0.939318,-0.279686,-0.041870,-0.181288,-0.106407,-16.068176,-44.999443,7.232681,,,,,,,
1558975141.589773,-0.667850,1.190957,-0.906475,-0.503382,-0.481827,1.497434,-0.229618,-0.928724,-0.291113,-0.036205,-0.222933,-0.080958,-17.391521,-44.600533,6.616282,,,,,,,
1558975141.609759,-0.726984,1.168804,-0.854792,-0.101484,-0.639360,1.470624,-0.260034,-0.920283,-0.292337,-0.007696,-0.274343,-0.068869,-18.018990,-44.366348,6.510819,,,,,,,
1558975141.629729,-0.788895,1.146531,-0.803188,-0.126432,-0.737391,1.564686,-0.292097,-0.911341,-0.290062,-0.096620,-0.226079,-0.050301,-19.844898,-43.548691,6.718569,,,,,,,
1558975141.649738,-0.842948,1.119757,-0.756731,-0.232203,-0.474510,1.689897,-0.325447,-0.899995,-0.289989,-0.150566,-0.242034,-0.066868,-21.153900,-42.908760,6.840936,,,,,,,
1558975141.669725,-0.884526,1.091463,-0.715029,-0.177643,-0.080572,1.662750,-0.356781,-0.887303,-0.292234,-0.147308,-0.265163,-0.076159,-22.199078,-42.381855,6.813734,,,,,,,
1558975141.689716,-0.917764,1.065561,-0.677639,-0.069641,-0.011636,1.488402,-0.384425,-0.875061,-0.294085,-0.175100,-0.232605,-0.059644,-23.890091,-41.472591,6.688478,,,,,,,
1558975141.709674,-0.945531,1.044074,-0.647589,-0.027014,-0.127501,1.202265,-0.407596,-0.864459,-0.294238,-0.164578,-0.202390,-0.070081,-25.015232,-40.807209,6.667639,,,,,,,
1558975141.729691,-0.971649,1.026782,-0.621484,0.094345,-0.199199,1.040461,-0.427422,-0.855638,-0.291881,-0.136131,-0.200164,-0.058354,-25.700615,-40.369095,6.727705,,,,,,,
1558975141.749681,-0.996289,1.012375,-0.596533,0.169210,-0.151162,0.911795,-0.444787,-0.848092,-0.287931,-0.080635,-0.267615,-0.045504,-26.678577,-39.689072,6.962692,,,,,,,
1558975141.769656,-1.017300,1.000453,-0.574782,0.166371,-0.111203,0.762705,-0.459307,-0.841715,-0.283818,-0.076445,-0.263021,-0.033611,-27.179359,-39.318760,7.124979,,,,,,,
1558975141.789656,-1.033342,0.990143,-0.557333,0.119956,-0.039266,0.639509,-0.471230,-0.836105,-0.280841,-0.075752,-0.270081,-0.032620,-27.615572,-38.987301,7.267637,,,,,,,
1558975141.809646,-1.044197,0.981784,-0.544781,0.067043,-0.023390,0.466660,-0.480276,-0.831490,-0.279212,-0.099527,-0.220787,-0.018929,-28.321552,-38.446075,7.432158,,,,,,,
1558975141.829611,-1.050967,0.976056,-0.537499,0.022542,-0.044572,0.281718,-0.486281,-0.828294,-0.278316,-0.083116,-0.168486,-0.024159,-28.559357,-38.261768,7.473166,,,,,,,
1558975141.849621,-1.054982,0.973043,-0.533490,0.027093,-0.021558,0.136742,-0.489564,-0.826602,-0.277591,-0.066451,-0.147718,-0.020001,-28.716467,-38.137768,7.504859,,,,,,,
1558975141.869611,-1.057801,0.972403,-0.530523,0.076203,-0.027261,0.028894,-0.490805,-0.826242,-0.276469,-0.029840,-0.085868,-0.001439,-28.854681,-38.020893,7.567495,,,,,,,
1558975141.889583,-1.060680,0.973640,-0.528405,0.079367,-0.072850,-0.051613,-0.490707,-0.826938,-0.274556,0.009902,-0.056989,0.001256,-28.853464,-38.009159,7.630792,,,,,,,
1558975141.909563,-1.063015,0.975554,-0.527311,0.070901,-0.066492,-0.070777,-0.489962,-0.828013,-0.272639,0.031496,-0.029791,-0.010213,-28.800888,-38.028755,7.731135,,,,,,,
1558975141.929577,-1.065340,0.977523,-0.526020,0.090070,-0.062360,-0.067519,-0.489167,-0.829115,-0.270709,0.021729,-0.024904,-0.007275,-28.721754,-38.064556,7.848431,,,,,,,
