timestamp(unix),attitude_roll(radians),attitude_pitch(radians),attitude_yaw(radians),rotation_rate_x(radians/s),rotation_rate_y(radians/s),rotation_rate_z(radians/s),gravity_x(G),gravity_y(G),gravity_z(G),user_acc_x(G),user_acc_y(G),user_acc_z(G),magnetic_field_x(microteslas),magnetic_field_y(microteslas),magnetic_field_z(microteslas),latitude(degree),longitude(degree),altitude(meter),speed(m/s),course(degree),timestamp(unix),User Mark
1558974057.594235,-0.257785,1.252083,-1.253926,-0.021917,-0.032227,0.000204,-0.079884,-0.949639,-0.302991,-0.003719,-0.003348,0.005109,-8.722362,-44.586113,2.909757,,,,,,,
1558974057.614208,-0.259801,1.251675,-1.252413,-0.030432,-0.019457,0.028079,-0.080594,-0.949511,-0.303204,-0.011691,-0.008847,0.010434,-8.732236,-44.584972,2.897633,,,,,,,
1558974057.634205,-0.262682,1.251046,-1.249577,-0.033614,-0.003544,0.055988,-0.081622,-0.949314,-0.303547,-0.003873,-0.005474,0.004429,-8.756445,-44.580120,2.899257,,,,,,,
1558974057.654191,-0.265435,1.250026,-1.246510,-0.051646,0.016635,0.057234,-0.082712,-0.948993,-0.304255,0.000558,0.000369,0.003230,-8.834691,-44.566868,2.865379,,,,,,,
1558974057.674176,-0.266036,1.248634,-1.245464,-0.067616,0.009299,0.043271,-0.083242,-0.948553,-0.305480,0.012151,-0.000788,-0.001069,-8.869251,-44.563408,2.811931,,,,,,,
1558974057.694161,-0.265854,1.246832,-1.245766,-0.100692,-0.019082,0.032295,-0.083635,-0.947981,-0.307144,0.014787,-0.006365,-0.001206,-8.887691,-44.561729,2.780184,,,,,,,
1558974057.714147,-0.264016,1.244685,-1.248084,-0.119860,-0.028518,0.016172,-0.083601,-0.947295,-0.309262,0.010466,-0.010301,-0.003330,-8.886514,-44.567055,2.697247,,,,,,,
1558974057.734114,-0.263331,1.241407,-1.249232,-0.129408,-0.015777,0.020557,-0.084197,-0.946240,-0.312315,-0.005006,0.006619,-0.017184,-8.899384,-44.574520,2.526069,,,,,,,
1558974057.754118,-0.262800,1.238224,-1.250052,-0.146416,-0.008290,0.019548,-0.084814,-0.945206,-0.315266,-0.005778,0.005432,-0.012706,-8.918895,-44.576508,2.419947,,,,,,,
1558974057.774103,-0.263440,1.235405,-1.249729,-0.104922,-0.012730,0.023811,-0.085709,-0.944282,-0.317783,-0.009293,0.006965,0.007587,-8.945584,-44.577511,2.300058,,,,,,,
1558974057.794080,-0.264746,1.235118,-1.248547,-0.006870,0.008905,-0.006864,-0.086195,-0.944187,-0.317933,-0.005358,-0.001812,0.006592,-8.987027,-44.573570,2.213144,,,,,,,
1558974057.814054,-0.263726,1.235535,-1.249246,0.019829,0.025645,-0.028035,-0.085768,-0.944324,-0.317640,-0.006807,-0.006283,-0.000979,-8.982677,-44.574001,2.222108,,,,,,,
1558974057.854024,-0.263365,1.235149,-1.247948,-0.006757,0.048025,0.002056,-0.085748,-0.944197,-0.318023,-0.018531,0.012007,-0.010590,-8.984075,-44.573368,2.229146,,,,,,,
1558974057.834035,-0.264358,1.235201,-1.247952,0.003926,0.055354,-0.007475,-0.086051,-0.944214,-0.317890,-0.018228,0.012025,-0.010723,-8.984075,-44.573368,2.229146,,,,,,,
1558974057.874025,-0.262279,1.234674,-1.248239,-0.026007,0.025945,0.012505,-0.085519,-0.944041,-0.318549,0.006890,0.009943,-0.002221,-9.000348,-44.572102,2.188527,,,,,,,
1558974057.894002,-0.261094,1.233643,-1.249002,-0.059069,0.013455,0.026236,-0.085392,-0.943700,-0.319590,0.009953,0.002569,-0.000890,-9.010917,-44.572304,2.140325,,,,,,,
1558974057.914002,-0.260989,1.232233,-1.248775,-0.075025,0.016710,0.026254,-0.085702,-0.943233,-0.320885,0.000162,0.012233,0.010140,-9.020844,-44.573479,2.072953,,,,,,,
1558974057.933961,-0.261640,1.231463,-1.247628,-0.018562,0.031214,0.028574,-0.086099,-0.942977,-0.321530,-0.000968,0.015273,0.016995,-9.033167,-44.572266,2.045246,,,,,,,
1558974057.953973,-0.265550,1.232491,-1.243049,0.055901,0.025572,0.052069,-0.087101,-0.943318,-0.320256,-0.004177,0.023549,0.014149,-9.090456,-44.559536,2.068706,,,,,,,
1558974057.973959,-0.269347,1.233503,-1.238507,0.066542,0.026579,0.056358,-0.088062,-0.943654,-0.319002,0.002857,0.023198,0.005251,-9.136087,-44.547966,2.116304,,,,,,,
1558974057.993929,-0.273327,1.233368,-1.233566,0.019764,0.051155,0.069368,-0.089366,-0.943609,-0.318772,-0.012594,0.017370,-0.013961,-9.203849,-44.532681,2.144121,,,,,,,
1558974058.013930,-0.276276,1.232142,-1.229463,-0.006878,0.039656,0.061765,-0.090621,-0.943202,-0.319620,-0.015275,0.021648,-0.012732,-9.279639,-44.517715,2.128199,,,,,,,
1558974058.033915,-0.281143,1.230224,-1.223877,-0.001630,0.022730,0.071220,-0.092677,-0.942564,-0.320912,-0.011892,0.021498,-0.018551,-9.384962,-44.498428,2.068811,,,,,,,
1558974058.053900,-0.283617,1.229674,-1.220363,-0.006840,0.048096,0.051173,-0.093616,-0.942380,-0.321180,-0.004010,-0.005298,-0.010165,-9.429691,-44.490227,2.041693,,,,,,,
1558974058.073886,-0.283695,1.228424,-1.219048,-0.065342,0.054721,0.035175,-0.093970,-0.941961,-0.322303,0.001990,-0.024332,-0.010736,-9.505374,-44.476578,1.987456,,,,,,,
1558974058.093845,-0.280450,1.226286,-1.221297,-0.130254,0.042317,-0.006635,-0.093481,-0.941241,-0.324541,0.014181,-0.022748,-0.010115,-9.520605,-44.476276,1.920169,,,,,,,
1558974058.113838,-0.275893,1.223577,-1.225919,-0.163321,-0.000921,-0.056188,-0.092696,-0.940323,-0.327416,0.021651,-0.031235,0.004463,-9.495123,-44.487156,1.789785,,,,,,,
1558974058.133824,-0.270503,1.221171,-1.231393,-0.161122,0.023390,-0.048480,-0.091534,-0.939501,-0.330090,-0.003071,-0.025923,0.015179,-9.432133,-44.507614,1.604795,,,,,,,
1558974058.153818,-0.267753,1.218546,-1.233532,-0.118574,0.048647,0.027599,-0.091278,-0.938599,-0.332717,-0.005921,-0.015594,0.022140,-9.421782,-44.510296,1.591081,,,,,,,
1558974058.173800,-0.266827,1.216588,-1.233216,-0.087721,0.051684,0.045801,-0.091454,-0.937921,-0.334573,0.012063,0.000269,0.001795,-9.442231,-44.511971,1.413032,,,,,,,
1558974058.193773,-0.266817,1.214774,-1.232266,-0.063236,0.049431,0.039393,-0.091899,-0.937291,-0.336215,0.004390,-0.000026,0.034656,-9.479437,-44.507439,1.302343,,,,,,,
1558974058.213783,-0.263224,1.215395,-1.234933,0.035713,0.008662,-0.017509,-0.090539,-0.937507,-0.335981,0.055581,0.015678,0.009718,-9.488517,-44.505981,1.285941,,,,,,,
1558974058.233745,-0.261072,1.215488,-1.238369,-0.056043,-0.080786,-0.073956,-0.089793,-0.937539,-0.336091,0.017604,0.008416,-0.033553,-9.421325,-44.519779,1.302348,,,,,,,
1558974058.253735,-0.259197,1.212283,-1.242275,-0.171051,-0.078019,-0.040922,-0.089933,-0.936420,-0.339161,-0.024630,0.008441,-0.027233,-9.347201,-44.537693,1.221452,,,,,,,
1558974058.273741,-0.257232,1.209061,-1.245448,-0.139013,-0.024208,0.007663,-0.090033,-0.935284,-0.342254,-0.027078,0.001690,0.018402,-9.364721,-44.535786,1.154909,,,,,,,
1558974058.293726,-0.262018,1.209370,-1.240214,0.094240,0.042303,0.068278,-0.091595,-0.935393,-0.341540,-0.025333,0.033813,0.040667,-9.357930,-44.541119,0.992882,,,,,,,
1558974058.313710,-0.266865,1.212888,-1.233744,0.243358,0.061576,0.050432,-0.092381,-0.936632,-0.337916,-0.006251,0.026216,0.011164,-9.444571,-44.520882,1.076607,,,,,,,
1558974058.333697,-0.272079,1.216595,-1.226995,0.213530,0.057511,0.054641,-0.093208,-0.937924,-0.334082,-0.013802,-0.000125,-0.004861,-9.532602,-44.494843,1.344064,,,,,,,
1558974058.353683,-0.278690,1.219384,-1.218523,0.155977,0.075913,0.142318,-0.094695,-0.938887,-0.330943,-0.019456,-0.014726,0.008678,-9.532602,-44.494843,1.344064,,,,,,,
1558974058.373646,-0.282209,1.219606,-1.212482,0.025098,0.081851,0.117709,-0.095801,-0.938964,-0.330408,0.051383,0.023177,-0.025610,-9.677032,-44.456692,1.557416,,,,,,,
1558974058.393653,-0.281283,1.219171,-1.212765,-0.032410,-0.004779,-0.055058,-0.095608,-0.938814,-0.330889,0.058682,0.017504,0.026049,-9.742539,-44.443478,1.525677,,,,,,,
1558974058.413637,-0.275233,1.220811,-1.219912,0.029220,-0.060133,-0.100385,-0.093186,-0.939378,-0.329978,0.038712,0.015184,0.040122,-9.713522,-44.450233,1.514054,,,,,,,
1558974058.433613,-0.273091,1.222931,-1.223650,0.110047,-0.070030,-0.072656,-0.091942,-0.940103,-0.328259,-0.009117,0.008752,0.028897,-9.538486,-44.484173,1.625956,,,,,,,
1558974058.453610,-0.274895,1.225353,-1.223081,0.116365,-0.056209,0.003284,-0.091915,-0.940925,-0.325900,-0.011463,0.000496,0.017627,-9.501871,-44.488716,1.713549,,,,,,,
1558974058.473574,-0.278513,1.226744,-1.220045,0.053551,-0.029458,0.045118,-0.092734,-0.941395,-0.324307,-0.015695,-0.004878,-0.005023,-9.506771,-44.483444,1.820055,,,,,,,
1558974058.493582,-0.283551,1.225934,-1.215445,-0.037000,-0.034216,0.080233,-0.094580,-0.941122,-0.324567,-0.006189,-0.002191,-0.007632,-9.581872,-44.466133,1.849012,,,,,,,
1558974058.513566,-0.286593,1.224156,-1.212823,-0.082703,-0.024501,0.054666,-0.096040,-0.940520,-0.325883,-0.006591,-0.005724,-0.000808,-9.632553,-44.456512,1.816731,,,,,,,
1558974058.533552,-0.288180,1.222659,-1.211540,-0.046452,-0.014145,0.038780,-0.096957,-0.940010,-0.327079,-0.013364,-0.005318,0.012596,-9.677893,-44.449295,1.751205,,,,,,,
1558974058.553538,-0.291442,1.222772,-1.208553,0.006811,-0.012342,0.018556,-0.097993,-0.940048,-0.326659,-0.009582,-0.004715,0.010513,-9.732463,-44.437477,1.748645,,,,,,,
1558974058.573504,-0.292790,1.222959,-1.207584,0.008894,-0.029275,0.011990,-0.098382,-0.940112,-0.326359,-0.007621,-0.000455,0.005344,-9.742496,-44.434853,1.759466,,,,,,,
1558974058.593508,-0.294093,1.222810,-1.207089,-0.013516,-0.047130,0.009665,-0.098848,-0.940061,-0.326365,0.004015,-0.004366,0.004435,-9.751484,-44.432404,1.771358,,,,,,,
1558974058.613494,-0.295071,1.222822,-1.207269,-0.030593,-0.065021,0.002006,-0.099164,-0.940066,-0.326257,0.000760,0.007631,0.011559,-9.750114,-44.432652,1.772805,,,,,,,
1558974058.633461,-0.296332,1.222683,-1.207605,-0.025284,-0.076701,-0.014116,-0.099613,-0.940018,-0.326257,-0.003231,0.007736,0.016168,-9.745941,-44.433475,1.775108,,,,,,,
1558974058.653465,-0.298099,1.223191,-1.207516,0.013041,-0.075844,-0.013009,-0.100050,-0.940191,-0.325624,-0.004656,0.007955,0.020830,-9.743347,-44.432320,1.817747,,,,,,,
1558974058.673451,-0.301316,1.224953,-1.206041,0.064084,-0.093026,-0.013132,-0.100604,-0.940790,-0.323718,0.000553,0.011957,0.017413,-9.739214,-44.431396,1.861880,,,,,,,
1558974058.693431,-0.302531,1.227571,-1.206932,0.107707,-0.113381,-0.042120,-0.100264,-0.941674,-0.321243,0.013197,0.016885,0.014861,-9.689707,-44.435074,2.025260,,,,,,,
1558974058.713422,-0.302974,1.230599,-1.208957,0.127963,-0.117760,-0.072041,-0.099555,-0.942689,-0.318476,0.009696,0.015076,0.011453,-9.665995,-44.437420,2.086246,,,,,,,
1558974058.733407,-0.303125,1.233799,-1.210827,0.122692,-0.090210,-0.045092,-0.098702,-0.943752,-0.315579,0.006554,-0.003178,-0.001468,-9.551775,-44.450974,2.311326,,,,,,,
1558974058.753368,-0.304150,1.235395,-1.211533,0.073703,-0.087810,-0.025891,-0.098574,-0.944278,-0.314041,0.002474,0.001606,-0.015427,-9.503841,-44.456402,2.402766,,,,,,,
1558974058.773378,-0.305824,1.235726,-1.211575,0.022560,-0.089615,0.000742,-0.099006,-0.944387,-0.313578,-0.002069,0.002996,-0.017172,-9.491870,-44.456890,2.440760,,,,,,,
1558974058.793363,-0.309160,1.235193,-1.210149,0.025729,-0.093854,0.004976,-0.100204,-0.944212,-0.313725,-0.007340,-0.000399,-0.011486,-9.501114,-44.453903,2.459108,,,,,,,
1558974058.813349,-0.312044,1.235520,-1.209007,0.067348,-0.080395,-0.036497,-0.101014,-0.944319,-0.313141,-0.011566,0.006117,-0.006485,-9.511976,-44.450294,2.482197,,,,,,,
1558974058.833335,-0.311139,1.237689,-1.211267,0.105831,-0.051065,-0.079959,-0.100103,-0.945031,-0.311282,-0.012476,0.006829,-0.008344,-9.489161,-44.452164,2.535552,,,,,,,
1558974058.853321,-0.313104,1.240181,-1.210457,0.148366,-0.049127,-0.046807,-0.099989,-0.945843,-0.308842,-0.013506,0.007137,-0.000758,-9.452470,-44.455837,2.607116,,,,,,,
1558974058.873306,-0.317630,1.242906,-1.206868,0.178138,-0.047132,-0.021137,-0.100580,-0.946724,-0.305937,-0.003759,0.022011,-0.001924,-9.433750,-44.447136,2.815020,,,,,,,
1558974058.893291,-0.321310,1.246760,-1.204536,0.216360,-0.086473,-0.041768,-0.100552,-0.947958,-0.302101,0.000653,0.036551,0.005195,-9.423494,-44.441353,2.938009,,,,,,,
1558974058.913277,-0.323939,1.252239,-1.204167,0.291907,-0.131380,-0.119007,-0.099692,-0.949688,-0.296907,0.001684,0.055523,0.018434,-9.395346,-44.437225,3.086804,,,,,,,
1558974058.933262,-0.324177,1.260378,-1.207067,0.426061,-0.159689,-0.200312,-0.097297,-0.952206,-0.289547,0.003654,0.075573,0.047924,-9.213179,-44.441223,3.544420,,,,,,,
1558974058.953217,-0.324506,1.271720,-1.210328,0.578254,-0.183794,-0.234586,-0.093942,-0.955609,-0.279260,-0.000616,0.092862,0.046700,-9.115026,-44.444027,3.756672,,,,,,,
1558974058.973224,-0.327723,1.285781,-1.211124,0.711213,-0.216208,-0.237993,-0.090506,-0.959657,-0.266208,0.014334,0.130128,0.042911,-8.780929,-44.432224,4.597900,,,,,,,
1558974058.993219,-0.334183,1.302031,-1.209917,0.800391,-0.295976,-0.253632,-0.087097,-0.964099,-0.250852,0.022384,0.140262,0.034299,-8.602333,-44.409889,5.121458,,,,,,,
1558974059.013191,-0.343311,1.318994,-1.207528,0.809743,-0.362609,-0.247856,-0.083865,-0.968465,-0.234610,0.030902,0.154943,0.029624,-8.409859,-44.377476,5.690478,,,,,,,
1558974059.033177,-0.354604,1.335371,-1.203959,0.762698,-0.419421,-0.234559,-0.080991,-0.972415,-0.218744,-0.002291,0.173282,0.025552,-8.012796,-44.287567,6.846506,,,,,,,
1558974059.053176,-0.367546,1.350072,-1.200215,0.657050,-0.486471,-0.205391,-0.078670,-0.975739,-0.204314,-0.013585,0.163575,0.022094,-7.812599,-44.235859,7.390531,,,,,,,
1558974059.073153,-0.384828,1.361007,-1.193285,0.461896,-0.529631,-0.065031,-0.078179,-0.978075,-0.193023,-0.023857,0.108980,0.018905,-7.622149,-44.184483,7.880512,,,,,,,
1558974059.093126,-0.417204,1.366326,-1.170132,0.265783,-0.471086,0.227908,-0.082276,-0.979169,-0.185632,-0.032241,0.114148,0.013406,-7.471929,-44.080952,8.573691,,,,,,,
1558974059.113120,-0.465111,1.366172,-1.130845,0.106909,-0.463622,0.421096,-0.091139,-0.979137,-0.181614,-0.020051,0.063885,0.015751,-7.667652,-43.997810,8.824268,,,,,,,
1558974059.133089,-0.515526,1.361896,-1.088077,-0.031467,-0.409875,0.534670,-0.102239,-0.978260,-0.180431,-0.004024,-0.003491,0.019786,-7.817949,-43.956375,8.898581,,,,,,,
1558974059.153104,-0.566959,1.353806,-1.043475,-0.155066,-0.393199,0.650036,-0.115626,-0.976550,-0.181606,0.028300,-0.156659,0.013042,-8.434397,-43.833679,8.940794,,,,,,,
1558974059.173088,-0.612024,1.343113,-1.005055,-0.234825,-0.378008,0.631968,-0.129683,-0.974192,-0.184750,0.044020,-0.186880,0.011837,-8.813226,-43.772842,8.873182,,,,,,,
1558974059.193073,-0.646621,1.332330,-0.977712,-0.247523,-0.401347,0.530308,-0.142316,-0.971701,-0.188527,0.009519,-0.338433,-0.004146,-9.287634,-43.702633,8.734278,,,,,,,
1558974059.213059,-0.669298,1.323049,-0.961567,-0.253422,-0.319086,0.384822,-0.152144,-0.969467,-0.192316,-0.009188,-0.471161,-0.017157,-9.742523,-43.639275,8.553655,,,,,,,
1558974059.233043,-0.681103,1.315046,-0.955342,-0.263724,-0.268470,0.267857,-0.159283,-0.967474,-0.196528,-0.015506,-0.502710,-0.031225,-9.935259,-43.620026,8.429224,,,,,,,
1558974059.253029,-0.684658,1.308877,-0.956330,-0.232422,-0.199074,0.131888,-0.163752,-0.965895,-0.200580,-0.042745,-0.576143,-0.064694,-10.110964,-43.613186,8.253859,,,,,,,
1558974059.273017,-0.679292,1.305562,-0.964256,-0.166750,-0.058053,-0.051413,-0.164684,-0.965031,-0.203946,-0.028812,-0.637569,-0.076084,-10.175390,-43.634735,8.058503,,,,,,,
1558974059.292980,-0.662943,1.306065,-0.980773,-0.086203,0.057468,-0.271246,-0.161029,-0.965163,-0.206228,-0.000271,-0.633531,-0.103434,-10.105358,-43.667782,7.967081,,,,,,,
1558974059.312986,-0.633036,1.309891,-1.010849,-0.093367,0.030707,-0.521337,-0.152606,-0.966157,-0.207973,0.009585,-0.665374,-0.112004,-9.933146,-43.719276,7.900979,,,,,,,
1558974059.332973,-0.587903,1.314962,-1.056049,-0.141944,0.088902,-0.653207,-0.140347,-0.967452,-0.210567,-0.014697,-0.675721,-0.104390,-9.245242,-43.896305,7.752951,,,,,,,
1558974059.352953,-0.535858,1.319739,-1.108837,-0.143126,0.028578,-0.707168,-0.126842,-0.968650,-0.213606,-0.062031,-0.565712,-0.083101,-8.662331,-44.040024,7.609727,,,,,,,
1558974059.372943,-0.480706,1.325847,-1.165115,-0.021495,0.076439,-0.788822,-0.112137,-0.970150,-0.215024,-0.069580,-0.552952,-0.057834,-8.662331,-44.040024,7.609727,,,,,,,
1558974059.392929,-0.414311,1.334051,-1.228787,0.059265,0.304156,-0.905086,-0.094416,-0.972106,-0.214697,-0.066091,-0.504716,-0.102427,-7.673009,-44.240566,7.507675,,,,,,,
1558974059.412896,-0.334884,1.341232,-1.303455,-0.017295,0.314021,-0.939218,-0.074788,-0.973765,-0.214913,-0.046870,-0.315251,-0.131034,-6.537911,-44.424187,7.497694,,,,,,,
1558974059.432900,-0.249889,1.345408,-1.386837,-0.097714,0.114595,-0.988168,-0.055267,-0.974707,-0.216544,-0.060486,-0.303888,-0.106332,-5.938945,-44.516823,7.446414,,,,,,,
1558974059.452884,-0.155115,1.347803,-1.482631,-0.093392,0.077392,-1.112368,-0.034166,-0.975240,-0.218495,-0.077085,-0.303279,-0.070598,-5.289886,-44.610676,7.373755,,,,,,,
1558974059.472858,-0.051018,1.348805,-1.587229,-0.043162,0.111924,-1.169650,-0.011228,-0.975461,-0.219886,-0.126925,-0.125171,-0.071557,-3.812937,-44.781929,7.246276,,,,,,,
1558974059.492856,0.056398,1.349335,-1.694569,0.088965,0.154495,-1.183024,0.012381,-0.975577,-0.219307,-0.159430,-0.082284,-0.064278,-3.036498,-44.844273,7.227638,,,,,,,
1558974059.512822,0.165769,1.351234,-1.803816,0.298427,0.081518,-1.182488,0.035940,-0.975993,-0.214817,-0.162664,0.005320,-0.071011,-2.258926,-44.881084,7.283778,,,,,,,
1558974059.532827,0.280103,1.351859,-1.923182,0.313796,-0.188389,-1.376166,0.060044,-0.976129,-0.208728,-0.107346,-0.009604,-0.052548,-0.650983,-44.869419,7.666772,,,,,,,
1558974059.552797,0.415810,1.345510,-2.066512,0.176877,-0.216698,-1.704315,0.090232,-0.974730,-0.204350,-0.143333,0.039504,-0.060970,0.001300,-44.850555,7.803550,,,,,,,
1558974059.572773,0.542321,1.330089,-2.202717,-0.026851,-0.353076,-1.729272,0.123039,-0.971170,-0.204184,-0.190269,0.215997,-0.022363,2.337375,-44.757183,7.987443,,,,,,,
1558974059.592784,0.631796,1.312186,-2.303386,-0.050947,-0.396816,-1.374183,0.151037,-0.966746,-0.206372,-0.194449,0.231379,0.030850,3.498519,-44.689934,7.939645,,,,,,,
1558974059.612764,0.687523,1.298927,-2.368224,0.028509,-0.303534,-0.916274,0.170417,-0.963271,-0.207527,-0.207084,0.263533,0.084725,4.729633,-44.588348,7.872592,,,,,,,
1558974059.632741,0.725780,1.289848,-2.413575,0.065691,-0.240029,-0.727730,0.184028,-0.960793,-0.207391,-0.142112,0.312340,0.057504,5.737129,-44.469055,7.877594,,,,,,,
1558974059.652740,0.764996,1.279561,-2.458923,0.043686,-0.219051,-0.914385,0.198852,-0.957890,-0.207136,-0.125121,0.370701,0.038145,6.263248,-44.393913,7.900633,,,,,,,
1558974059.672726,0.811080,1.264907,-2.512358,0.041734,-0.266938,-1.136916,0.218337,-0.953580,-0.207400,-0.124205,0.459927,0.031924,7.141542,-44.259487,7.909722,,,,,,,
1558974059.692712,0.852204,1.249938,-2.562127,0.081760,-0.325053,-0.981564,0.237398,-0.948965,-0.207624,-0.124544,0.463430,0.090436,8.422400,-44.033886,7.908731,,,,,,,
1558974059.712697,0.879475,1.240086,-2.598147,0.137505,-0.361795,-0.614600,0.250161,-0.945812,-0.207024,-0.083535,0.413372,0.092766,9.213912,-43.868889,7.943028,,,,,,,
1558974059.732676,0.894943,1.234538,-2.621530,0.084141,-0.299867,-0.385574,0.257424,-0.943996,-0.206409,-0.049202,0.415538,0.084598,9.495569,-43.803715,7.971005,,,,,,,
1558974059.752654,0.899281,1.229102,-2.631295,-0.122244,-0.206643,-0.265270,0.262331,-0.942188,-0.208480,-0.047594,0.477253,0.021941,10.062638,-43.680679,7.950438,,,,,,,
1558974059.772653,0.892260,1.224037,-2.627491,-0.236285,-0.171967,-0.095274,0.264572,-0.940479,-0.213310,-0.047852,0.523548,0.015235,10.229368,-43.666451,7.814671,,,,,,,
1558974059.792611,0.881678,1.221622,-2.620113,-0.100203,-0.177816,0.006205,0.264052,-0.939655,-0.217541,-0.017486,0.576267,0.076901,10.321936,-43.685574,7.582634,,,,,,,
1558974059.812611,0.885284,1.221852,-2.626255,0.194135,-0.065374,-0.106721,0.264667,-0.939734,-0.216450,0.023525,0.520743,0.074940,10.374274,-43.683544,7.522660,,,,,,,
1558974059.832591,0.900434,1.222941,-2.643603,0.267579,-0.084845,-0.146352,0.267114,-0.940106,-0.211780,0.058173,0.521634,0.014682,10.400026,-43.670689,7.561629,,,,,,,
1558974059.852572,0.906885,1.223744,-2.654226,0.088123,-0.223262,-0.034650,0.267880,-0.940380,-0.209587,0.065418,0.572276,0.016594,10.593793,-43.571247,7.860406,,,,,,,
1558974059.872581,0.902854,1.223567,-2.654814,-0.010851,-0.212159,-0.026081,0.267164,-0.940319,-0.210769,0.004137,0.616039,0.068160,10.665256,-43.554684,7.855567,,,,,,,
1558974059.892558,0.909100,1.223170,-2.662767,0.178568,0.042476,-0.137731,0.268770,-0.940184,-0.209325,-0.047533,0.562010,0.112340,10.679248,-43.553715,7.841893,,,,,,,
1558974059.912552,0.928094,1.224778,-2.679248,0.297256,0.239631,-0.058878,0.271486,-0.940731,-0.203276,-0.029009,0.548320,0.044142,10.823393,-43.483223,8.033142,,,,,,,
1558974059.932538,0.942531,1.228987,-2.688856,0.216113,0.265750,0.159107,0.271187,-0.942150,-0.197007,0.003777,0.591243,0.014176,10.776648,-43.424824,8.403360,,,,,,,
1558974059.952523,0.945260,1.235958,-2.687019,0.182605,0.210228,0.376348,0.266393,-0.944463,-0.192415,0.019832,0.561987,0.089281,10.603494,-43.435024,8.569271,,,,,,,
1558974059.972508,0.946534,1.245655,-2.683728,0.267680,0.210923,0.434076,0.259194,-0.947606,-0.186714,0.002815,0.478611,0.138969,10.231781,-43.480816,8.786207,,,,,,,
1558974059.992494,0.945219,1.255854,-2.678984,0.197123,0.138421,0.474964,0.251101,-0.950814,-0.181386,0.044996,0.425637,0.106999,9.707081,-43.534328,9.110598,,,,,,,
1558974060.012479,0.935058,1.264769,-2.666504,0.070155,0.039699,0.454699,0.242415,-0.953538,-0.178888,0.034502,0.508149,0.052285,9.377488,-43.581066,9.231543,,,,,,,
1558974060.032465,0.927519,1.271981,-2.658855,0.188314,-0.028796,0.303600,0.235550,-0.955686,-0.176580,-0.059738,0.558942,0.084677,8.996753,-43.645035,9.307903,,,,,,,
1558974060.052450,0.928785,1.282106,-2.661239,0.425225,-0.079421,0.505090,0.228012,-0.958618,-0.170479,-0.074279,0.457031,0.130989,8.640335,-43.660801,9.568029,,,,,,,
1558974060.072435,0.927485,1.301661,-2.662202,0.690718,-0.093982,0.891652,0.212749,-0.964001,-0.159498,-0.038371,0.312420,0.107527,8.245709,-43.667725,9.879568,,,,,,,
1558974060.092401,0.930672,1.324528,-2.666040,0.688904,-0.011569,0.862545,0.195522,-0.969829,-0.145613,-0.050548,0.213634,0.023283,7.489992,-43.664036,10.479509,,,,,,,
1558974060.112385,0.926995,1.343828,-2.662953,0.478231,-0.039187,0.738265,0.179979,-0.974353,-0.135069,-0.141146,0.236301,-0.028093,6.583264,-43.641632,11.159604,,,,,,,
1558974060.132392,0.928274,1.361041,-2.663396,0.587402,0.115537,0.682180,0.166699,-0.978082,-0.124769,-0.142971,0.188577,-0.024157,6.122804,-43.627712,11.471786,,,,,,,
1558974060.152374,0.941893,1.380964,-2.673073,0.683405,0.229363,0.798652,0.152592,-0.982036,-0.111001,-0.136769,0.109569,-0.003241,5.484154,-43.565971,12.016583,,,,,,,
1558974060.172347,0.942255,1.402601,-2.669117,0.556410,0.196416,0.940232,0.135410,-0.985888,-0.098428,-0.181538,0.022082,0.017648,4.502044,-43.469891,12.750229,,,,,,,
1558974060.192333,0.917693,1.424791,-2.641415,0.476139,0.129401,1.082591,0.115546,-0.989360,-0.088406,-0.184912,0.005306,0.019024,3.839723,-43.429077,13.101134,,,,,,,
1558974060.212308,0.879296,1.450800,-2.598064,0.685186,0.323020,1.235150,0.092210,-0.992809,-0.076337,-0.203706,-0.038792,-0.001635,2.836051,-43.370285,13.544113,,,,,,,
1558974060.232320,0.873482,1.480172,-2.580803,0.946285,0.696752,1.144983,0.069375,-0.995896,-0.058116,-0.094155,-0.145125,-0.071828,1.374459,-43.166985,14.394105,,,,,,,
1558974060.252305,0.870812,1.507874,-2.566566,0.721927,0.423025,1.088801,0.048095,-0.998021,-0.040508,-0.021102,-0.175304,-0.098515,0.502280,-42.977657,15.004553,,,,,,,
1558974060.272290,0.702283,1.529564,-2.394901,0.311847,0.011853,1.065320,0.026628,-0.999150,-0.031467,0.016051,-0.269496,-0.050045,-0.540820,-42.775684,15.569732,,,,,,,
1558974060.292276,0.269459,1.543173,-1.961261,0.252799,0.100683,0.884622,0.007353,-0.999618,-0.026623,-0.018812,-0.434509,0.009853,-1.643139,-42.636196,15.872076,,,,,,,
1558974060.312261,-0.357748,1.548824,-1.327958,0.314699,0.392888,0.709172,-0.007694,-0.999759,-0.020581,-0.031857,-0.432950,0.007931,-2.216005,-42.545639,16.044506,,,,,,,
1558974060.332247,-0.973520,1.542809,-0.704373,0.172708,0.334663,0.857971,-0.023140,-0.999608,-0.015739,-0.075829,-0.410731,-0.020913,-2.957952,-42.410183,16.281725,,,,,,,
1558974060.352234,-1.221477,1.525073,-0.451709,-0.070823,0.170277,1.049447,-0.042948,-0.998955,-0.015644,-0.031851,-0.471016,0.028812,-4.046585,-42.286774,16.368322,,,,,,,
1558974060.372192,-1.293646,1.505172,-0.376163,-0.106841,0.178776,0.951276,-0.063074,-0.997847,-0.017943,0.009882,-0.470704,0.037276,-4.749332,-42.240334,16.299261,,,,,,,
1558974060.392203,-1.324130,1.488302,-0.341601,-0.095913,0.198586,0.806274,-0.079907,-0.996599,-0.020120,0.011090,-0.421812,0.016534,-5.591855,-42.177990,16.193096,,,,,,,
1558974060.412189,-1.332590,1.471921,-0.330115,-0.187768,0.113479,0.825671,-0.095927,-0.995116,-0.023293,-0.022680,-0.362886,-0.007332,-6.151353,-42.130482,16.113705,,,,,,,
1558974060.432169,-1.325234,1.455240,-0.336643,-0.241234,0.009014,0.757366,-0.111841,-0.993331,-0.028030,-0.062308,-0.232835,-0.003755,-7.225259,-42.060543,15.848476,,,,,,,
1558974060.452160,-1.321658,1.442547,-0.340180,-0.120582,0.012257,0.521544,-0.123949,-0.991787,-0.031536,-0.043348,-0.242328,0.012645,-7.667239,-42.034882,15.708290,,,,,,,
1558974060.472145,-1.330437,1.433608,-0.330451,-0.021348,0.046493,0.438674,-0.132827,-0.990605,-0.032555,-0.038880,-0.311748,0.007195,-8.001191,-42.001747,15.630152,,,,,,,
1558974060.492132,-1.336075,1.423704,-0.324873,-0.146364,-0.056305,0.527273,-0.142544,-0.989201,-0.034086,0.024273,-0.294368,-0.045656,-8.593254,-41.908142,15.566999,,,,,,,
1558974060.512098,-1.316866,1.412032,-0.347209,-0.393718,-0.182991,0.494894,-0.153029,-0.987423,-0.039716,0.030104,-0.246219,-0.030887,-8.907823,-41.887165,15.446163,,,,,,,
1558974060.532083,-1.279725,1.403502,-0.387710,-0.416360,-0.080779,0.201183,-0.159511,-0.986039,-0.047786,0.018733,-0.223037,0.033672,-9.172970,-41.910454,15.226229,,,,,,,
1558974060.552088,-1.244738,1.400279,-0.422727,-0.273998,0.071457,0.011645,-0.160752,-0.985497,-0.054354,0.023331,-0.259895,0.043017,-9.375674,-42.035110,14.751760,,,,,,,
1558974060.572054,-1.222198,1.398144,-0.444480,-0.184858,0.019299,0.081682,-0.161463,-0.985133,-0.058682,0.037470,-0.255514,0.038373,-9.400013,-42.087082,14.587169,,,,,,,
1558974060.592030,-1.212293,1.394307,-0.455879,-0.149228,-0.110767,0.171216,-0.164412,-0.984466,-0.061604,0.044050,-0.212677,0.038579,-9.455462,-42.115864,14.467766,,,,,,,
1558974060.612044,-1.205559,1.390123,-0.464977,-0.150190,-0.088595,0.151142,-0.167839,-0.983723,-0.064181,0.029274,-0.185589,0.048296,-9.619708,-42.134563,14.304119,,,,,,,
1558974060.632028,-1.194886,1.386574,-0.476132,-0.169949,0.036180,0.113885,-0.170391,-0.983079,-0.067250,0.027019,-0.165679,0.043599,-9.696639,-42.146248,14.217491,,,,,,,
1558974060.651997,-1.177279,1.383577,-0.492681,-0.218787,0.054338,0.068111,-0.171901,-0.982526,-0.071368,0.032985,-0.115131,0.009815,-9.774902,-42.165916,14.105134,,,,,,,
1558974060.672001,-1.149858,1.385723,-0.520712,-0.271244,-0.054309,0.031776,-0.167955,-0.982923,-0.075193,0.050188,-0.067828,0.010985,-9.871120,-42.241997,13.807331,,,,,,,
1558974060.691958,-1.126004,1.383238,-0.546858,-0.264989,-0.104053,0.011019,-0.168317,-0.982462,-0.080228,0.040785,-0.045949,0.017682,-9.664132,-42.309525,13.746872,,,,,,,
1558974060.711964,-1.108735,1.381378,-0.566412,-0.159481,-0.078221,-0.015340,-0.168543,-0.982114,-0.083938,-0.013509,0.014966,0.019805,-9.634852,-42.407085,13.463913,,,,,,,
1558974060.731958,-1.097703,1.381958,-0.577924,-0.043005,0.017223,-0.104016,-0.167100,-0.982223,-0.085532,-0.015929,0.010085,0.013282,-9.598717,-42.438709,13.389873,,,,,,,
1558974060.751925,-1.089152,1.383602,-0.585995,-0.025924,0.026627,-0.116723,-0.164931,-0.982530,-0.086210,-0.003175,0.005022,-0.000704,-9.522315,-42.469215,13.347615,,,,,,,
1558974060.771901,-1.078126,1.385026,-0.597267,-0.081452,-0.022749,-0.108699,-0.162737,-0.982794,-0.087361,0.003176,0.033408,-0.018977,-9.404991,-42.509834,13.301438,,,,,,,
1558974060.791914,-1.066209,1.385295,-0.610652,-0.108361,-0.079578,-0.035597,-0.161453,-0.982844,-0.089167,-0.007751,0.039622,-0.012518,-9.334688,-42.541908,13.248295,,,,,,,
1558974060.811899,-1.068304,1.381918,-0.610057,-0.078638,-0.046779,0.091799,-0.164548,-0.982215,-0.090426,-0.017901,0.037178,0.008288,-9.385827,-42.548904,13.189564,,,,,,,
1558974060.831885,-1.068463,1.379480,-0.609613,-0.043190,0.053460,0.098125,-0.166661,-0.981755,-0.091553,-0.019176,0.030339,0.003677,-9.483856,-42.548332,13.121122,,,,,,,
1558974060.851869,-1.066455,1.377522,-0.609628,-0.060988,0.126429,0.059307,-0.168159,-0.981381,-0.092816,0.000755,0.025509,0.002987,-9.573818,-42.544460,13.068233,,,,,,,
1558974060.871855,-1.057217,1.375611,-0.615964,-0.121563,0.155281,0.055264,-0.168927,-0.981012,-0.095286,0.005673,0.015146,-0.004720,-9.628352,-42.545010,13.026326,,,,,,,
1558974060.891842,-1.036408,1.374325,-0.634486,-0.168745,0.075276,0.107833,-0.167993,-0.980762,-0.099423,0.038172,0.033145,-0.005069,-9.766048,-42.575539,12.822470,,,,,,,
1558974060.911818,-1.028975,1.370715,-0.641682,-0.133857,0.002157,0.107161,-0.170283,-0.980050,-0.102494,0.037516,0.047677,0.010728,-9.753515,-42.622150,12.676332,,,,,,,
1558974060.931811,-1.022958,1.369750,-0.647211,-0.027022,0.047870,-0.050328,-0.170470,-0.979858,-0.104009,0.026976,0.044967,0.014822,-9.827833,-42.636322,12.570824,,,,,,,
1558974060.951798,-1.024689,1.373227,-0.644628,0.067834,0.053623,-0.111055,-0.167737,-0.980547,-0.101944,0.007169,0.028703,0.013474,-9.744864,-42.648426,12.594339,,,,,,,
1558974060.971781,-1.027083,1.376186,-0.641470,0.080406,0.017703,-0.054806,-0.165497,-0.981123,-0.100041,0.018601,-0.001024,0.002125,-9.677552,-42.642159,12.667236,,,,,,,
1558974060.991768,-1.031101,1.376669,-0.637725,0.017318,-0.033646,0.021523,-0.165491,-0.981216,-0.099132,0.022303,0.002426,-0.008000,-9.621487,-42.632137,12.743467,,,,,,,
1558974061.011754,-1.030425,1.375603,-0.639293,-0.036011,-0.050231,0.053350,-0.166320,-0.981010,-0.099781,0.004394,0.011635,-0.005611,-9.641602,-42.624344,12.754311,,,,,,,
1558974061.031723,-1.031975,1.374324,-0.638189,-0.017682,0.003525,0.016513,-0.167553,-0.980761,-0.100168,-0.001622,0.011019,0.005044,-9.673134,-42.628075,12.717923,,,,,,,
1558974061.051725,-1.031724,1.374796,-0.637895,0.044202,0.029567,-0.022691,-0.167130,-0.980853,-0.099972,0.004761,0.014163,-0.000812,-9.692825,-42.624535,12.714800,,,,,,,
1558974061.071694,-1.034132,1.375949,-0.634680,0.097399,0.033554,0.003011,-0.166397,-0.981077,-0.098991,0.008393,0.008558,-0.005105,-9.672274,-42.616989,12.755667,,,,,,,
1558974061.091686,-1.034082,1.376931,-0.634020,0.103638,-0.000273,0.022972,-0.165565,-0.981267,-0.098506,0.014426,0.004720,-0.023487,-9.648853,-42.614895,12.780382,,,,,,,
1558974061.111681,-1.033968,1.377959,-0.633885,0.080271,0.000855,-0.012272,-0.164687,-0.981464,-0.098009,0.007872,0.004490,-0.015150,-9.617589,-42.617886,12.793970,,,,,,,
1558974061.131667,-1.035140,1.379381,-0.632320,0.055869,0.015748,-0.034572,-0.163601,-0.981736,-0.097104,0.002789,-0.016967,-0.003909,-9.578549,-42.614475,12.834563,,,,,,,
1558974061.151622,-1.034504,1.380566,-0.632647,0.011074,0.005466,0.000523,-0.162539,-0.981961,-0.096613,0.002551,-0.020099,-0.000478,-9.530597,-42.617920,12.858792,,,,,,,
1558974061.171637,-1.034195,1.380239,-0.633164,-0.025244,-0.024971,0.017285,-0.162786,-0.981899,-0.096828,0.000173,-0.014149,0.000011,-9.528618,-42.617992,12.860020,,,,,,,
1558974061.191569,-1.032100,1.380179,-0.635627,-0.044332,-0.010095,0.002463,-0.162633,-0.981887,-0.097199,0.003774,-0.012543,0.004792,-9.522228,-42.620796,12.855453,,,,,,,
1558974061.211555,-1.029899,1.380426,-0.637774,-0.027136,0.020406,-0.038869,-0.162210,-0.981934,-0.097431,0.000528,0.024094,0.007206,-9.504711,-42.632679,12.829005,,,,,,,
1558974061.231515,-1.028423,1.381860,-0.638706,0.051724,0.028388,-0.079300,-0.160860,-0.982204,-0.096944,0.002688,0.024456,0.009282,-9.480792,-42.639400,12.824356,,,,,,,
1558974061.251525,-1.031381,1.384859,-0.635328,0.119789,0.004760,-0.090151,-0.158618,-0.982763,-0.094954,0.003452,0.012304,-0.005357,-9.381994,-42.633675,12.915741,,,,,,,
1558974061.271511,-1.037028,1.387257,-0.629805,0.115399,-0.026901,-0.072307,-0.157122,-0.983204,-0.092858,-0.000654,0.020222,-0.014045,-9.323564,-42.624214,12.989048,,,,,,,
1558974061.291482,-1.042263,1.388763,-0.625464,0.070533,-0.056204,-0.033120,-0.156328,-0.983478,-0.091287,-0.001112,0.014453,-0.011648,-9.276335,-42.616123,13.049282,,,,,,,
1558974061.311459,-1.047231,1.389575,-0.621181,0.047144,-0.027478,0.009841,-0.156087,-0.983624,-0.090110,0.004476,0.006833,0.001930,-9.222017,-42.601444,13.135407,,,,,,,
1558974061.331468,-1.053137,1.389114,-0.615929,0.018237,-0.046249,0.079034,-0.157012,-0.983541,-0.089411,0.010115,0.015691,0.001277,-9.229339,-42.589981,13.167416,,,,,,,
1558974061.351428,-1.061410,1.387922,-0.608975,0.025525,-0.083240,0.107511,-0.158769,-0.983325,-0.088681,0.020906,0.028262,0.007581,-9.261581,-42.577095,13.186427,,,,,,,
1558974061.371426,-1.072789,1.388241,-0.598773,0.067328,-0.041325,0.009720,-0.159492,-0.983383,-0.086719,0.005103,0.005524,0.017505,-9.312046,-42.540970,13.267247,,,,,,,
1558974061.391425,-1.078258,1.390080,-0.593156,0.067683,0.025131,-0.080394,-0.158370,-0.983715,-0.084990,-0.002030,-0.006412,0.010328,-9.288569,-42.524406,13.336604,,,,,,,
1558974061.411386,-1.076756,1.391572,-0.594495,-0.001667,-0.005100,-0.041237,-0.156950,-0.983982,-0.084532,0.004362,-0.015926,-0.002413,-9.242935,-42.517872,13.389053,,,,,,,
1558974061.431396,-1.070875,1.391987,-0.600821,-0.050747,-0.025938,-0.011584,-0.156091,-0.984056,-0.085257,0.009866,-0.004851,0.000861,-9.172419,-42.537270,13.375921,,,,,,,
1558974061.451381,-1.064287,1.392274,-0.608105,-0.055055,-0.037530,-0.003160,-0.155280,-0.984107,-0.086147,0.016150,0.002021,0.003948,-9.131687,-42.558361,13.336633,,,,,,,
1558974061.471361,-1.059367,1.392275,-0.613592,-0.047475,-0.009065,-0.026371,-0.154853,-0.984107,-0.086909,0.009880,0.006446,0.008311,-9.109190,-42.568199,13.320602,,,,,,,
1558974061.491352,-1.052468,1.391831,-0.620487,-0.044257,0.004678,-0.013424,-0.154629,-0.984028,-0.088192,-0.004840,0.007664,-0.010410,-9.073786,-42.593433,13.264003,,,,,,,
1558974061.511309,-1.045154,1.390898,-0.627798,-0.051787,-0.003691,0.018519,-0.154774,-0.983862,-0.089781,0.005025,0.014608,-0.011186,-9.084230,-42.611813,13.197670,,,,,,,
1558974061.531322,-1.039218,1.390366,-0.633840,-0.046379,0.005738,-0.018755,-0.154690,-0.983767,-0.090963,0.005855,0.016192,-0.006586,-9.088806,-42.621559,13.162985,,,,,,,
1558974061.551307,-1.032912,1.390351,-0.639797,-0.029239,0.031999,-0.048384,-0.154126,-0.983764,-0.091945,-0.009143,0.015365,-0.002247,-9.062450,-42.649605,13.090117,,,,,,,
1558974061.571276,-1.025370,1.391204,-0.646173,0.000820,0.081429,-0.109809,-0.152710,-0.983917,-0.092669,-0.005310,0.014785,-0.006559,-9.052995,-42.660580,13.060862,,,,,,,
1558974061.591279,-1.016707,1.392850,-0.653364,0.024162,0.062291,-0.102499,-0.150525,-0.984209,-0.093137,-0.001147,0.026903,-0.012057,-8.990305,-42.682919,13.031151,,,,,,,
1558974061.611244,-1.012664,1.394053,-0.656795,0.016417,0.006417,-0.030441,-0.149142,-0.984421,-0.093117,0.003924,0.001878,-0.004921,-8.918617,-42.701023,13.021085,,,,,,,
1558974061.631222,-1.013990,1.394413,-0.656071,0.005527,-0.047366,0.014943,-0.148964,-0.984485,-0.092732,0.010552,-0.002972,0.006565,-8.900192,-42.703865,13.024372,,,,,,,
1558974061.651236,-1.015398,1.395075,-0.655516,0.013090,-0.035850,-0.032987,-0.148541,-0.984601,-0.092179,0.013272,0.003613,0.012314,-8.889477,-42.701157,13.040558,,,,,,,
1558974061.671222,-1.018407,1.397010,-0.652749,0.046315,0.009353,-0.082707,-0.147196,-0.984937,-0.090731,0.001047,0.010282,0.017443,-8.812622,-42.698524,13.101212,,,,,,,
1558974061.691201,-1.021458,1.398618,-0.649487,0.045154,0.002032,-0.033666,-0.146121,-0.985214,-0.089454,-0.001264,0.010879,0.006462,-8.766821,-42.690834,13.156875,,,,,,,
1558974061.711192,-1.022986,1.399355,-0.648213,0.012020,-0.024170,-0.000848,-0.145638,-0.985340,-0.088853,0.014046,0.004902,0.001771,-8.740307,-42.683517,13.198183,,,,,,,
1558974061.731178,-1.019733,1.400066,-0.651915,-0.020917,-0.020877,-0.035009,-0.144751,-0.985461,-0.088959,0.009375,0.003192,-0.000518,-8.697128,-42.688805,13.209602,,,,,,,
1558974061.751146,-1.015148,1.400165,-0.656789,-0.035774,-0.004937,-0.030597,-0.144259,-0.985478,-0.089571,-0.009214,0.008274,0.000688,-8.662236,-42.700710,13.194060,,,,,,,
1558974061.771148,-1.014022,1.399580,-0.657860,-0.021911,0.016175,-0.000487,-0.144647,-0.985378,-0.090038,-0.010321,0.016598,0.002986,-8.661888,-42.708527,13.168952,,,,,,,
1558974061.791107,-1.012675,1.399408,-0.658978,-0.000653,0.003367,-0.008066,-0.144669,-0.985349,-0.090322,0.004685,0.014066,-0.003977,-8.682058,-42.709984,13.150933,,,,,,,
1558974061.811114,-1.010049,1.400335,-0.661797,0.015282,-0.020015,-0.038174,-0.143659,-0.985507,-0.090216,0.013105,0.012103,-0.001291,-8.659500,-42.716244,13.145481,,,,,,,
1558974061.831088,-1.010149,1.401192,-0.662225,0.024793,-0.032723,-0.020138,-0.142952,-0.985652,-0.089753,0.002281,0.009822,-0.003433,-8.622450,-42.720612,13.155626,,,,,,,
1558974061.851070,-1.012939,1.400956,-0.660085,0.014084,-0.029423,0.028997,-0.143399,-0.985612,-0.089477,-0.005343,0.010270,-0.003449,-8.589815,-42.718056,13.185237,,,,,,,
1558974061.871076,-1.015484,1.400258,-0.657755,0.004583,-0.002941,0.033514,-0.144212,-0.985493,-0.089474,-0.002639,0.007466,-0.007327,-8.613585,-42.711540,13.190857,,,,,,,
1558974061.891061,-1.017471,1.399622,-0.655516,-0.000681,0.016116,0.035827,-0.144922,-0.985385,-0.089517,-0.003653,-0.002606,-0.001578,-8.649491,-42.705986,13.185328,,,,,,,
1558974061.911038,-1.017301,1.398805,-0.655214,-0.015561,0.020413,0.029451,-0.145592,-0.985246,-0.089965,-0.002083,-0.008834,-0.010225,-8.693957,-42.699669,13.176550,,,,,,,
1558974061.931033,-1.013934,1.398157,-0.658365,-0.036868,0.004634,0.005794,-0.145830,-0.985135,-0.090792,-0.001158,-0.000171,-0.009535,-8.711926,-42.703621,13.151834,,,,,,,
1558974061.951018,-1.010221,1.397658,-0.662255,-0.034802,-0.010161,0.015263,-0.145908,-0.985049,-0.091594,0.004688,0.001498,-0.002919,-8.715136,-42.716915,13.106466,,,,,,,
1558974061.970974,-1.010099,1.397189,-0.662459,-0.002857,-0.001857,0.026044,-0.146288,-0.984968,-0.091857,0.000811,0.007124,0.001098,-8.728337,-42.721916,13.081364,,,,,,,
1558974061.990989,-1.012257,1.397097,-0.660526,0.022654,-0.023165,0.003439,-0.146563,-0.984952,-0.091590,0.004702,0.007840,-0.000955,-8.743423,-42.717739,13.084923,,,,,,,
1558974062.010965,-1.015128,1.398120,-0.658181,0.043998,-0.024391,-0.034992,-0.145969,-0.985129,-0.090637,0.008045,-0.002054,0.004608,-8.737579,-42.714035,13.100915,,,,,,,
1558974062.030941,-1.018464,1.399343,-0.654829,0.048419,0.018903,-0.048452,-0.145245,-0.985338,-0.089517,-0.012577,-0.011626,0.002893,-8.673861,-42.705479,13.170958,,,,,,,
1558974062.050946,-1.019353,1.400447,-0.653364,0.012238,0.033929,-0.022714,-0.144398,-0.985526,-0.088818,0.000111,-0.020715,0.000760,-8.652842,-42.697670,13.210058,,,,,,,
1558974062.070901,-1.016139,1.400031,-0.656087,-0.052807,0.021656,0.024092,-0.144459,-0.985455,-0.089497,0.001179,-0.013065,-0.003688,-8.647141,-42.698223,13.211984,,,,,,,
1558974062.090907,-1.008191,1.399355,-0.663830,-0.076197,0.014327,-0.011230,-0.144307,-0.985340,-0.090998,0.006947,-0.003979,0.002894,-8.666279,-42.719200,13.131398,,,,,,,
1558974062.110902,-1.000753,1.399339,-0.671045,-0.052768,0.013134,-0.019765,-0.143640,-0.985337,-0.092077,0.002130,0.006913,0.006643,-8.639109,-42.741741,13.075833,,,,,,,
1558974062.130868,-0.999379,1.399209,-0.672338,-0.015573,0.006638,0.007962,-0.143621,-0.985315,-0.092344,0.003118,0.014902,0.008283,-8.632978,-42.747684,13.060429,,,,,,,
1558974062.150844,-1.000713,1.399672,-0.671090,0.016339,-0.009414,-0.011385,-0.143360,-0.985394,-0.091906,0.010959,0.011532,0.010882,-8.634001,-42.746433,13.063845,,,,,,,
1558974062.170859,-1.003297,1.400540,-0.668644,0.030236,-0.002122,-0.033725,-0.142876,-0.985541,-0.091076,-0.004097,0.010535,0.006084,-8.600887,-42.741482,13.101858,,,,,,,
1558974062.190835,-1.004362,1.400797,-0.667405,0.000474,0.018140,-0.018606,-0.142758,-0.985585,-0.090787,-0.015430,-0.004131,-0.000903,-8.591450,-42.736511,13.124229,,,,,,,
1558974062.210830,-1.004083,1.399549,-0.667171,-0.041098,0.032201,0.049828,-0.143771,-0.985373,-0.091488,-0.015942,0.001883,-0.000736,-8.621463,-42.736393,13.104919,,,,,,,
1558974062.230790,-1.002560,1.397534,-0.668177,-0.066701,0.027089,0.075383,-0.145305,-0.985028,-0.092775,0.003398,0.000500,0.000368,-8.690331,-42.734035,13.067078,,,,,,,
1558974062.250783,-0.998529,1.396034,-0.671594,-0.062390,0.029134,0.044443,-0.146172,-0.984768,-0.094160,0.012352,0.012493,0.002134,-8.740991,-42.737614,13.021496,,,,,,,
1558974062.270787,-0.993814,1.395233,-0.676124,-0.046458,0.006814,0.018617,-0.146388,-0.984628,-0.095278,0.010981,0.028970,0.002322,-8.788069,-42.753620,12.936995,,,,,,,
1558974062.290759,-0.991469,1.394631,-0.678316,-0.029416,0.008835,0.016515,-0.146660,-0.984523,-0.095946,0.004188,0.032588,0.006499,-8.797563,-42.761875,12.903204,,,,,,,
1558974062.310758,-0.992577,1.394057,-0.677130,-0.017780,0.006727,0.061344,-0.147239,-0.984422,-0.096092,0.014686,0.030977,0.011192,-8.811907,-42.762711,12.890651,,,,,,,
1558974062.330743,-0.994768,1.393123,-0.674898,-0.018924,-0.011216,0.075048,-0.148220,-0.984258,-0.096270,0.017941,0.036595,0.004885,-8.866173,-42.753227,12.884893,,,,,,,
1558974062.350728,-0.995179,1.392360,-0.675052,-0.029596,-0.029160,0.054579,-0.148889,-0.984122,-0.096617,0.021845,0.031287,0.009246,-8.882463,-42.753223,12.873669,,,,,,,
1558974062.370713,-0.995595,1.391862,-0.675254,-0.016777,-0.028211,0.026838,-0.149341,-0.984034,-0.096822,0.009448,0.023768,0.006048,-8.896009,-42.753456,12.863555,,,,,,,
1558974062.390700,-0.999466,1.391240,-0.671995,0.003393,-0.033565,0.052427,-0.150229,-0.983923,-0.096574,0.000937,0.015371,0.006212,-8.916130,-42.748241,12.866955,,,,,,,
1558974062.410685,-1.005130,1.390168,-0.666951,0.005556,-0.024066,0.050386,-0.151664,-0.983731,-0.096287,-0.006005,0.012463,0.001500,-8.951064,-42.736546,12.881536,,,,,,,
1558974062.430670,-1.008249,1.389116,-0.664101,-0.012548,-0.016540,0.071796,-0.152839,-0.983542,-0.096365,-0.013238,0.007147,-0.002512,-8.985807,-42.727161,12.888464,,,,,,,
1558974062.450657,-1.012632,1.387118,-0.659760,-0.009309,0.006727,0.092308,-0.154927,-0.983178,-0.096736,-0.022335,-0.020270,-0.005025,-9.091031,-42.710014,12.871513,,,,,,,
1558974062.470639,-1.017334,1.385986,-0.654509,0.023824,0.030809,0.055198,-0.156327,-0.982971,-0.096591,-0.025207,-0.036484,-0.002225,-9.149761,-42.698349,12.868601,,,,,,,
1558974062.490610,-1.021337,1.386158,-0.649653,0.050568,0.042202,-0.007663,-0.156568,-0.983003,-0.095876,-0.022296,-0.045897,-0.003367,-9.190659,-42.686146,12.879929,,,,,,,
1558974062.510587,-1.023505,1.387044,-0.646405,0.033596,0.054957,-0.019299,-0.156032,-0.983165,-0.095083,-0.011174,-0.082509,-0.004526,-9.200433,-42.669762,12.927168,,,,,,,
1558974062.530568,-1.022363,1.386919,-0.646358,-0.026056,0.061675,0.022356,-0.156028,-0.983142,-0.095325,-0.005395,-0.085080,-0.009320,-9.202594,-42.666641,12.935920,,,,,,,
1558974062.550577,-1.017418,1.385929,-0.650470,-0.065533,0.036478,0.013542,-0.156382,-0.982961,-0.096607,-0.009603,-0.047420,-0.015652,-9.226542,-42.669228,12.910309,,,,,,,
1558974062.570553,-1.012200,1.386209,-0.655226,-0.014344,0.029752,-0.063353,-0.155643,-0.983012,-0.097276,-0.002926,-0.025487,0.006090,-9.239425,-42.691200,12.828178,,,,,,,
1558974062.590555,-1.010033,1.388487,-0.656708,0.087959,0.037584,-0.120849,-0.153535,-0.983428,-0.096422,0.006059,-0.031663,0.012987,-9.191224,-42.697876,12.840567,,,,,,,
1558974062.610533,-1.013748,1.391874,-0.652318,0.132622,0.024669,-0.118801,-0.151064,-0.984036,-0.094089,0.016908,-0.054431,0.009739,-9.097138,-42.695415,12.915545,,,,,,,
1558974062.630526,-1.015719,1.395836,-0.649978,0.128328,0.018363,-0.109260,-0.147934,-0.984734,-0.091736,0.017792,-0.109062,-0.017792,-8.978737,-42.678864,13.052400,,,,,,,
1558974062.650512,-1.017781,1.399120,-0.646642,0.094540,0.092499,-0.130998,-0.145370,-0.985300,-0.089731,0.014511,-0.132147,-0.025579,-8.873713,-42.680771,13.117815,,,,,,,
1558974062.670496,-1.014073,1.401470,-0.647715,0.027567,0.144726,-0.076102,-0.143070,-0.985699,-0.089046,0.018421,-0.189900,-0.043324,-8.793512,-42.680183,13.173613,,,,,,,
1558974062.690483,-1.010665,1.401609,-0.647724,0.004101,0.178832,0.029903,-0.142650,-0.985722,-0.089460,0.028499,-0.337062,-0.033846,-8.796127,-42.684750,13.157052,,,,,,,
1558974062.710468,-1.012133,1.401312,-0.642205,0.048974,0.226152,0.023986,-0.143030,-0.985672,-0.089406,0.040964,-0.404740,-0.023020,-8.856375,-42.676868,13.142189,,,,,,,
1558974062.730453,-1.004397,1.402409,-0.642083,-0.003127,0.515878,-0.089657,-0.141421,-0.985856,-0.089930,0.026354,-0.596099,-0.002218,-8.931847,-42.663395,13.134871,,,,,,,
1558974062.750440,-0.972411,1.403282,-0.662577,-0.202878,0.603519,-0.145563,-0.137762,-0.986002,-0.093922,-0.034632,-0.672765,-0.039044,-8.995811,-42.703327,12.960298,,,,,,,
1558974062.770404,-0.918437,1.402840,-0.706139,-0.344614,0.507922,-0.249086,-0.132841,-0.985928,-0.101481,-0.054324,-0.668979,0.000697,-9.003717,-42.722965,12.889864,,,,,,,
1558974062.790409,-0.849925,1.406492,-0.766169,-0.199339,0.499230,-0.604580,-0.122876,-0.986532,-0.107960,-0.041629,-0.679926,0.032566,-8.880851,-42.907005,12.352644,,,,,,,
1558974062.810378,-0.765021,1.416881,-0.840725,0.002441,0.560145,-0.865408,-0.106174,-0.988178,-0.110591,-0.077786,-0.671917,-0.039342,-8.586341,-43.021744,12.160284,,,,,,,
1558974062.830371,-0.658675,1.430401,-0.938140,0.056642,0.443294,-1.062931,-0.085650,-0.990161,-0.110661,-0.106916,-0.557065,-0.070171,-8.163473,-43.131714,12.061539,,,,,,,
1558974062.850347,-0.510825,1.444797,-1.081616,0.092267,0.180673,-1.260795,-0.061438,-0.992073,-0.109624,-0.081842,-0.459740,-0.060130,-6.982318,-43.348637,12.025423,,,,,,,
1558974062.870337,-0.302904,1.459686,-1.289648,0.270048,0.055649,-1.542641,-0.033075,-0.993834,-0.105834,-0.101095,-0.416384,0.003143,-5.584089,-43.516125,12.150419,,,,,,,
1558974062.890307,0.013113,1.472239,-1.604165,0.422021,0.196139,-1.778192,0.001290,-0.995147,-0.098390,-0.164102,-0.474305,-0.011016,-4.175167,-43.594063,12.433573,,,,,,,
1558974062.910318,0.384579,1.471792,-1.974420,0.240670,0.081890,-1.769822,0.037083,-0.995103,-0.091623,-0.196613,-0.443480,-0.041342,-3.421561,-43.609455,12.608587,,,,,,,
1558974062.930309,0.666131,1.455068,-2.259172,-0.046583,-0.158543,-1.693348,0.071354,-0.993311,-0.090784,-0.205586,-0.229956,-0.049535,-1.129617,-43.655888,12.859056,,,,,,,
1558974062.950294,0.829498,1.431735,-2.428711,-0.152482,-0.225342,-1.496557,0.102240,-0.990347,-0.093598,-0.222037,-0.181773,0.000550,-0.007054,-43.685791,12.807013,,,,,,,
1558974062.970249,0.919045,1.409035,-2.521452,-0.224807,-0.076556,-1.211197,0.128044,-0.986945,-0.097694,-0.253777,-0.160729,0.027824,1.012836,-43.703304,12.706817,,,,,,,
1558974062.990265,0.964200,1.387471,-2.571429,-0.327995,-0.338016,-1.119830,0.149777,-0.983243,-0.103925,-0.300259,0.046201,-0.005145,2.636719,-43.727421,12.386620,,,,,,,
1558974063.010252,0.998255,1.363061,-2.616420,-0.293233,-0.564777,-1.372869,0.173354,-0.978500,-0.111737,-0.269637,0.131744,0.028897,3.476683,-43.734604,12.151754,,,,,,,
1558974063.030236,1.039490,1.334078,-2.669949,-0.244860,-0.530505,-1.611656,0.202185,-0.972113,-0.118819,-0.272467,0.167410,0.053709,4.476333,-43.705593,11.926922,,,,,,,
1558974063.050198,1.069916,1.303578,-2.714090,-0.303023,-0.712983,-1.557931,0.231613,-0.964509,-0.126796,-0.301621,0.279619,0.000468,6.757435,-43.527924,11.494547,,,,,,,
1558974063.070208,1.079103,1.274689,-2.742036,-0.350903,-0.957723,-1.400165,0.257231,-0.956479,-0.137764,-0.281111,0.366300,0.022133,7.879122,-43.417263,11.195024,,,,,,,
1558974063.090166,1.084648,1.247924,-2.766044,-0.283229,-0.745534,-1.342563,0.280530,-0.948328,-0.148246,-0.287702,0.447107,0.099250,8.947170,-43.297668,10.850260,,,,,,,
1558974063.110165,1.093643,1.223338,-2.785436,-0.310985,-0.339147,-1.108083,0.302476,-0.940241,-0.156380,-0.342043,0.482950,0.070183,10.861395,-42.998047,10.279388,,,,,,,
1558974063.130165,1.085900,1.206455,-2.784479,-0.469588,-0.391341,-0.517233,0.315257,-0.934359,-0.166093,-0.292002,0.542696,0.051500,11.531518,-42.888714,10.002522,,,,,,,
1558974063.150125,1.057770,1.196410,-2.766188,-0.536868,-0.648467,-0.227213,0.318622,-0.930732,-0.179492,-0.137714,0.664604,0.050387,11.925512,-42.865677,9.632414,,,,,,,
1558974063.170128,1.034873,1.185935,-2.754045,-0.382811,-0.500520,-0.416783,0.322795,-0.926850,-0.191708,-0.170146,0.801286,0.114529,12.452965,-42.903336,8.757607,,,,,,,
1558974063.190091,1.030387,1.176344,-2.757112,-0.086194,-0.283254,-0.400586,0.329539,-0.923207,-0.197719,-0.070170,0.755895,0.067775,12.797308,-42.858810,8.474627,,,,,,,
1558974063.210092,1.031849,1.173161,-2.763856,0.080580,-0.247728,-0.089427,0.332348,-0.921979,-0.198744,-0.072979,0.754667,0.068800,12.797308,-42.858810,8.474627,,,,,,,
1558974063.230091,1.033208,1.173979,-2.770955,0.166639,-0.272410,-0.034077,0.331969,-0.922296,-0.197906,0.089539,0.794229,-0.006867,13.273602,-42.732674,8.378425,,,,,,,
1558974063.250076,1.035883,1.175407,-2.780474,0.209100,-0.306452,-0.030098,0.331365,-0.922847,-0.196346,0.114009,0.807109,-0.012822,13.332170,-42.703339,8.434824,,,,,,,
1558974063.270062,1.041530,1.177332,-2.791603,0.239331,-0.170233,-0.014891,0.330934,-0.923586,-0.193574,0.110747,0.776431,0.019547,13.407694,-42.658485,8.541396,,,,,,,
1558974063.290049,1.046391,1.180372,-2.799430,0.176481,-0.128500,0.106102,0.329439,-0.924748,-0.190556,0.145964,0.687016,0.023060,13.422532,-42.615231,8.731851,,,,,,,
1558974063.310034,1.045058,1.184522,-2.801689,0.139993,-0.189521,0.169548,0.325862,-0.926319,-0.189067,0.176289,0.672962,0.031581,13.357136,-42.621346,8.802025,,,,,,,
1558974063.330019,1.049413,1.188641,-2.809257,0.289605,-0.064696,0.053421,0.323371,-0.927863,-0.185745,0.109200,0.671378,0.051361,13.256001,-42.634445,8.891027,,,,,,,
1558974063.350005,1.068061,1.192170,-2.827697,0.415987,0.138540,-0.016065,0.323907,-0.929173,-0.178104,0.030905,0.622136,0.070193,13.233909,-42.566429,9.242859,,,,,,,
1558974063.369964,1.084588,1.197390,-2.842471,0.323010,0.120307,0.188674,0.322514,-0.931090,-0.170458,0.039013,0.533156,0.070497,13.230889,-42.546059,9.340462,,,,,,,
1558974063.389975,1.094516,1.205872,-2.849657,0.309211,0.215782,0.371077,0.317160,-0.934151,-0.163620,0.037393,0.468300,0.066452,12.989134,-42.509178,9.834650,,,,,,,
1558974063.409960,1.100779,1.215112,-2.850854,0.159155,0.249411,0.420390,0.310470,-0.937408,-0.157715,-0.092407,0.513244,0.048462,12.526462,-42.561260,10.202707,,,,,,,
1558974063.429919,1.096539,1.222600,-2.842558,0.006660,0.133836,0.349765,0.303545,-0.939990,-0.155820,-0.198152,0.550601,0.089520,12.424309,-42.579327,10.252102,,,,,,,
1558974063.449914,1.100437,1.229258,-2.843650,0.321968,0.177553,0.298121,0.298565,-0.942240,-0.151796,-0.205944,0.441157,0.118883,11.910936,-42.695438,10.377720,,,,,,,
1558974063.469909,1.122900,1.242818,-2.862374,0.679487,0.265956,0.590721,0.290355,-0.946695,-0.139505,-0.165187,0.298731,0.074503,11.458759,-42.689884,10.896725,,,,,,,
1558974063.489903,1.140260,1.261486,-2.876311,0.464723,0.126843,0.819829,0.276623,-0.952544,-0.127045,-0.191723,0.313170,0.017914,10.811484,-42.699432,11.503819,,,,,,,
1558974063.509866,1.130083,1.277159,-2.865899,0.071449,-0.058310,0.733398,0.261779,-0.957198,-0.123469,-0.208755,0.321104,0.022120,10.451259,-42.739746,11.685606,,,,,,,
1558974063.529875,1.120969,1.292343,-2.855311,0.355220,0.155915,0.791193,0.247526,-0.961482,-0.119516,-0.193388,0.065074,0.074182,9.492135,-42.914642,11.861723,,,,,,,
1558974063.549860,1.139370,1.313813,-2.868240,0.696191,0.336183,0.961880,0.230876,-0.967161,-0.106283,-0.102275,0.039823,0.002722,8.914929,-42.943054,12.201885,,,,,,,
1558974063.569833,1.147087,1.336718,-2.871322,0.308944,0.123753,1.043882,0.211435,-0.972729,-0.095363,-0.073191,0.077724,-0.031727,8.234538,-42.939899,12.681692,,,,,,,
1558974063.589832,1.105167,1.355237,-2.829868,-0.134777,-0.146619,1.047345,0.191123,-0.976857,-0.096035,-0.109626,0.024830,0.079144,6.871951,-43.082310,13.006113,,,,,,,
1558974063.609817,1.045714,1.376343,-2.771083,0.105729,-0.042834,1.319713,0.167199,-0.981154,-0.096863,-0.074456,-0.199266,0.072495,5.915239,-43.250671,12.917326,,,,,,,
1558974063.629800,1.006562,1.402191,-2.728674,0.432406,0.216440,1.258398,0.141797,-0.985820,-0.089738,-0.051633,-0.212529,0.039872,5.341474,-43.304398,12.987124,,,,,,,
1558974063.649762,0.956278,1.425584,-2.675352,0.155112,0.019058,1.177280,0.118230,-0.989475,-0.083431,-0.086644,-0.173718,-0.024907,3.651376,-43.327164,13.486756,,,,,,,
1558974063.669773,0.845117,1.440765,-2.566086,-0.231806,-0.225484,0.981385,0.096996,-0.991558,-0.086052,-0.070934,-0.221669,0.034218,2.924974,-43.376400,13.505562,,,,,,,
1558974063.689737,0.723691,1.449637,-2.447814,-0.139730,-0.162869,0.765326,0.080031,-0.992669,-0.090571,-0.068190,-0.310065,0.092982,2.330145,-43.459473,13.353374,,,,,,,
1558974063.709744,0.620058,1.461049,-2.343871,0.193900,0.039598,0.911663,0.063644,-0.993984,-0.089138,-0.111374,-0.354191,0.020916,1.331467,-43.535892,13.240908,,,,,,,
1558974063.729730,0.461802,1.476430,-2.183811,0.209423,0.029353,1.184895,0.041984,-0.995551,-0.084356,-0.075416,-0.342096,-0.010660,0.675500,-43.504662,13.392404,,,,,,,
1558974063.749703,0.218941,1.485770,-1.940549,-0.009005,-0.059428,1.129421,0.018445,-0.996387,-0.082896,-0.033597,-0.335430,-0.017705,-0.357222,-43.460316,13.547741,,,,,,,
1558974063.769680,-0.008397,1.486889,-1.714588,-0.032205,-0.122092,0.845876,-0.000704,-0.996482,-0.083806,-0.071577,-0.351647,0.021352,-1.473274,-43.443771,13.525395,,,,,,,
1558974063.789686,-0.206136,1.485866,-1.519142,0.073017,-0.163843,0.862643,-0.017363,-0.996396,-0.083032,-0.049425,-0.383411,0.018121,-1.979216,-43.423203,13.526855,,,,,,,
1558974063.809671,-0.433503,1.480880,-1.295765,0.046726,-0.285980,1.089929,-0.037719,-0.995960,-0.081490,-0.048417,-0.379543,0.005241,-2.703057,-43.361671,13.598772,,,,,,,
1558974063.829647,-0.630285,1.469360,-1.104599,-0.068218,-0.323573,0.993389,-0.059682,-0.994860,-0.081806,-0.068477,-0.347319,0.002888,-3.777310,-43.269501,13.636342,,,,,,,
1558974063.849624,-0.734710,1.460168,-1.004742,0.014772,-0.214741,0.549288,-0.074011,-0.993887,-0.081922,-0.109476,-0.333338,-0.042743,-3.969977,-43.254925,13.627861,,,,,,,
1558974063.869628,-0.805991,1.453343,-0.936780,0.002071,-0.195657,0.543054,-0.084550,-0.993110,-0.081138,-0.142699,-0.302819,-0.099404,-4.696302,-43.174259,13.652699,,,,,,,
1558974063.889614,-0.863256,1.442471,-0.883489,-0.206839,-0.225041,0.658979,-0.097255,-0.991778,-0.083178,-0.145924,-0.294218,-0.108335,-5.248431,-43.119846,13.623533,,,,,,,
1558974063.909582,-0.895361,1.427798,-0.855627,-0.371844,-0.214618,0.687773,-0.111221,-0.989793,-0.089104,-0.108185,-0.287886,-0.074867,-5.375092,-43.116421,13.584946,,,,,,,
1558974063.929585,-0.912634,1.413961,-0.840450,-0.290162,-0.044030,0.541068,-0.123567,-0.987727,-0.095538,-0.062575,-0.219289,-0.051267,-6.168416,-43.134895,13.183301,,,,,,,
1558974063.949571,-0.921456,1.405251,-0.829993,-0.155189,0.114546,0.323827,-0.131252,-0.986329,-0.099642,-0.037754,-0.215667,-0.045790,-6.405076,-43.139820,13.053700,,,,,,,
1558974063.969531,-0.922861,1.399897,-0.826754,-0.144439,0.082571,0.183667,-0.135601,-0.985432,-0.102643,0.007961,-0.217906,-0.043704,-6.891920,-43.138851,12.806592,,,,,,,
1558974063.989542,-0.916012,1.395640,-0.832166,-0.176251,0.092160,0.122878,-0.138221,-0.984699,-0.106124,0.022071,-0.221233,-0.012803,-7.062711,-43.152519,12.666721,,,,,,,
1558974064.009527,-0.903038,1.392996,-0.842026,-0.131008,0.200618,0.004375,-0.138876,-0.984235,-0.109520,0.021170,-0.212298,-0.002144,-7.128850,-43.165405,12.585520,,,,,,,
1558974064.029498,-0.884735,1.391460,-0.856555,-0.175690,0.195524,-0.024536,-0.138018,-0.983962,-0.113001,0.010974,-0.169327,-0.028128,-7.231141,-43.213356,12.360607,,,,,,,
1558974064.049498,-0.859583,1.388844,-0.878987,-0.273872,0.124178,-0.014621,-0.137082,-0.983492,-0.118116,0.012372,-0.152067,-0.018847,-7.251381,-43.263908,12.170454,,,,,,,
1558974064.069484,-0.839943,1.384301,-0.897388,-0.250820,0.065035,0.100137,-0.138062,-0.982660,-0.123767,0.016068,-0.122534,0.006289,-7.301710,-43.343616,11.852587,,,,,,,
1558974064.089455,-0.832692,1.381118,-0.902990,-0.085606,0.110606,0.053729,-0.139474,-0.982065,-0.126868,0.019616,-0.064352,-0.001062,-7.401620,-43.373657,11.679453,,,,,,,
1558974064.109455,-0.825414,1.381097,-0.907395,-0.022397,0.172438,-0.080152,-0.138562,-0.982061,-0.127894,0.011121,-0.055537,-0.010152,-7.438850,-43.380890,11.628841,,,,,,,
1558974064.129432,-0.800080,1.381758,-0.929069,-0.118129,0.185594,-0.101461,-0.134812,-0.982185,-0.130911,-0.004409,-0.041817,-0.036249,-7.345845,-43.430695,11.501360,,,,,,,
1558974064.149412,-0.776553,1.380559,-0.949973,-0.208818,0.123710,-0.098923,-0.132521,-0.981959,-0.134886,0.015592,-0.021886,-0.024691,-7.299280,-43.481293,11.338668,,,,,,,
1558974064.169411,-0.741420,1.379030,-0.983283,-0.175804,0.099125,-0.166397,-0.128714,-0.981669,-0.140565,0.008445,0.005427,-0.013458,-7.247329,-43.528893,11.188387,,,,,,,
1558974064.189388,-0.716111,1.380125,-1.007285,-0.073608,0.078431,-0.215625,-0.124410,-0.981877,-0.142966,-0.009913,0.056996,0.003333,-7.039618,-43.625233,10.943089,,,,,,,
1558974064.209383,-0.702342,1.382070,-1.019498,-0.000088,0.111909,-0.188551,-0.121196,-0.982244,-0.143207,-0.001835,0.019842,0.001209,-6.908547,-43.651787,10.920709,,,,,,,
1558974064.229342,-0.683963,1.383582,-1.035421,-0.000041,0.140491,-0.159451,-0.117605,-0.982527,-0.144259,-0.002924,0.020002,-0.009305,-6.851402,-43.663757,10.908823,,,,,,,
1558974064.249325,-0.667879,1.384450,-1.049194,-0.077912,0.113492,-0.109592,-0.114742,-0.982688,-0.145462,-0.002217,0.049674,-0.015472,-6.706840,-43.707455,10.823323,,,,,,,
1558974064.269340,-0.649041,1.383255,-1.066682,-0.109984,0.061831,-0.133598,-0.112691,-0.982466,-0.148533,-0.003627,0.029264,0.012928,-6.652240,-43.748772,10.689268,,,,,,,
1558974064.289316,-0.631179,1.383854,-1.083787,-0.039746,0.051934,-0.143246,-0.109673,-0.982577,-0.150047,-0.007438,0.023562,0.028221,-6.598194,-43.769115,10.639393,,,,,,,
1558974064.309286,-0.631585,1.385935,-1.082465,0.066675,0.071553,-0.078910,-0.108526,-0.982962,-0.148352,-0.012384,0.029043,0.013602,-6.487917,-43.781605,10.655799,,,,,,,
1558974064.329296,-0.629194,1.388716,-1.083141,0.125314,0.087059,-0.106474,-0.106562,-0.983469,-0.146400,-0.008565,0.019556,-0.006477,-6.435446,-43.771839,10.727495,,,,,,,
1558974064.349259,-0.615139,1.392046,-1.096049,0.085824,0.019498,-0.187228,-0.102604,-0.984067,-0.145208,0.011112,-0.010700,-0.007380,-6.373394,-43.768929,10.776306,,,,,,,
1558974064.369251,-0.598020,1.394292,-1.114227,-0.058108,-0.051631,-0.192295,-0.098858,-0.984464,-0.145116,0.020397,-0.035113,0.017888,-6.128986,-43.793194,10.819415,,,,,,,
1558974064.389252,-0.590303,1.393435,-1.123493,-0.156198,-0.047774,-0.077024,-0.098205,-0.984313,-0.146575,-0.028825,0.005736,0.018097,-5.980029,-43.834675,10.734453,,,,,,,
1558974064.409237,-0.581630,1.391208,-1.132433,-0.102913,0.020815,0.032575,-0.098134,-0.983917,-0.149253,-0.034603,0.019898,0.039984,-6.014834,-43.843460,10.678986,,,,,,,
1558974064.429223,-0.592935,1.391048,-1.119709,0.010213,0.113257,0.046366,-0.099903,-0.983889,-0.148265,-0.016308,0.015093,0.033000,-6.067865,-43.857403,10.591377,,,,,,,
1558974064.449209,-0.596179,1.391204,-1.113578,0.040080,0.133187,0.048716,-0.100297,-0.983917,-0.147813,-0.014556,0.021514,0.001801,-6.173239,-43.821346,10.679346,,,,,,,
1558974064.469194,-0.601675,1.390535,-1.106257,0.025960,0.055065,0.063972,-0.101481,-0.983797,-0.147802,0.000651,0.024278,-0.003672,-6.230815,-43.810223,10.691538,,,,,,,
1558974064.489181,-0.604896,1.391209,-1.102480,0.069649,0.020854,-0.040950,-0.101579,-0.983918,-0.146929,-0.002257,0.032563,0.004793,-6.293949,-43.797928,10.704935,,,,,,,
1558974064.509143,-0.607980,1.394047,-1.098668,0.136943,0.055266,-0.118500,-0.100436,-0.984421,-0.144322,-0.016538,0.032608,0.011418,-6.250978,-43.790367,10.760902,,,,,,,
1558974064.529151,-0.609328,1.397373,-1.095584,0.151880,0.103935,-0.034746,-0.098756,-0.985000,-0.141501,-0.019789,0.007323,0.011146,-6.211899,-43.762566,10.895797,,,,,,,
