timestamp(unix),attitude_roll(radians),attitude_pitch(radians),attitude_yaw(radians),rotation_rate_x(radians/s),rotation_rate_y(radians/s),rotation_rate_z(radians/s),gravity_x(G),gravity_y(G),gravity_z(G),user_acc_x(G),user_acc_y(G),user_acc_z(G),magnetic_field_x(microteslas),magnetic_field_y(microteslas),magnetic_field_z(microteslas),latitude(degree),longitude(degree),altitude(meter),speed(m/s),course(degree),timestamp(unix),User Mark
1558972658.090394,-2.253633,1.475900,2.550474,0.103571,-0.028362,-0.020145,-0.073509,-0.995501,0.059789,0.023078,0.000445,0.004084,-20.267759,-42.227024,-10.250423,,,,,,,
1558972658.110387,-2.273352,1.474671,2.569416,0.103502,-0.047382,-0.016056,-0.073249,-0.995384,0.062017,0.009833,0.001029,0.016230,-20.264826,-42.240936,-10.198779,,,,,,,
1558972658.130373,-2.296599,1.474273,2.592081,0.034430,-0.022745,-0.040433,-0.072084,-0.995345,0.063966,0.015916,0.002135,0.009535,-20.231617,-42.296913,-10.031334,,,,,,,
1558972658.150332,-2.300778,1.474370,2.596341,0.005755,0.015518,-0.000587,-0.071745,-0.995355,0.064203,0.036482,0.017480,0.003500,-20.212824,-42.310238,-10.013019,,,,,,,
1558972658.170342,-2.307054,1.474954,2.603042,0.009988,0.024004,0.034726,-0.070909,-0.995411,0.064261,0.021623,0.022342,-0.005820,-20.157223,-42.336182,-10.015432,,,,,,,
1558972658.190328,-2.306258,1.474549,2.602304,0.002452,-0.019352,-0.004131,-0.071260,-0.995372,0.064476,0.012590,0.015422,0.014046,-20.182493,-42.325085,-10.011438,,,,,,,
1558972658.210298,-2.315355,1.474931,2.610226,-0.038108,-0.066749,-0.033444,-0.070390,-0.995408,0.064863,0.000047,0.002702,0.016176,-20.169268,-42.341053,-9.970496,,,,,,,
1558972658.230298,-2.313319,1.475612,2.607080,-0.021067,-0.047760,0.001984,-0.070023,-0.995473,0.064262,0.001572,-0.005335,-0.001762,-20.156498,-42.345577,-9.977109,,,,,,,
1558972658.250283,-2.306036,1.475286,2.599206,0.048191,-0.020622,0.015112,-0.070729,-0.995442,0.063968,-0.005519,-0.018947,-0.011416,-20.186108,-42.332256,-9.973768,,,,,,,
1558972658.270254,-2.305123,1.474718,2.597862,0.062057,-0.029209,-0.024460,-0.071208,-0.995388,0.064283,-0.011616,-0.002201,-0.009137,-20.210293,-42.319183,-9.980247,,,,,,,
1558972658.290252,-2.308767,1.474339,2.601013,0.056779,-0.024987,-0.046842,-0.071252,-0.995352,0.064795,-0.012961,0.006124,-0.006857,-20.228119,-42.317543,-9.951074,,,,,,,
1558972658.310238,-2.319123,1.474518,2.611120,0.050416,-0.020736,-0.054279,-0.070446,-0.995369,0.065408,-0.002933,0.001518,-0.009057,-20.206955,-42.339752,-9.899462,,,,,,,
1558972658.330212,-2.332944,1.474560,2.624952,0.014301,0.006950,-0.044434,-0.069506,-0.995373,0.066347,-0.000578,0.001705,0.007582,-20.169626,-42.364189,-9.870991,,,,,,,
1558972658.350207,-2.339225,1.475046,2.631602,-0.008034,0.022956,-0.021879,-0.068740,-0.995419,0.066446,0.006499,0.003125,0.004966,-20.144516,-42.378689,-9.860013,,,,,,,
1558972658.370193,-2.341037,1.475678,2.633624,0.008905,0.011292,0.013253,-0.068167,-0.995480,0.066131,0.014685,0.004665,-0.004288,-20.112425,-42.390945,-9.872837,,,,,,,
1558972658.390178,-2.347417,1.476417,2.640222,-0.000663,0.015572,0.014349,-0.067220,-0.995550,0.066050,0.027639,0.012380,-0.002910,-20.080027,-42.404598,-9.880151,,,,,,,
1558972658.410146,-2.347659,1.476634,2.640616,-0.014558,-0.003386,0.010952,-0.067049,-0.995570,0.065915,0.014361,0.012492,0.004764,-20.055521,-42.414505,-9.887390,,,,,,,
1558972658.430125,-2.351257,1.476843,2.643730,-0.017834,-0.018133,0.034293,-0.066664,-0.995590,0.066009,0.016814,-0.004243,-0.000091,-20.041870,-42.421619,-9.884563,,,,,,,
1558972658.450133,-2.347977,1.476663,2.640340,0.000350,-0.000288,0.015260,-0.067008,-0.995573,0.065915,0.009619,-0.000948,0.002765,-20.051882,-42.417145,-9.883468,,,,,,,
1558972658.470116,-2.357427,1.476300,2.649560,0.013140,-0.021579,-0.040451,-0.066637,-0.995539,0.066802,-0.002714,-0.002386,0.024827,-20.051601,-42.418068,-9.880059,,,,,,,
1558972658.490092,-2.372356,1.476482,2.663807,0.016252,-0.039541,-0.024607,-0.065507,-0.995556,0.067659,0.014237,0.008465,-0.000154,-20.018778,-42.452545,-9.798201,,,,,,,
1558972658.510087,-2.385972,1.476292,2.676170,0.086348,-0.078989,-0.004645,-0.064709,-0.995538,0.068682,0.017941,0.019982,-0.007586,-19.997265,-42.470478,-9.764350,,,,,,,
1558972658.530052,-2.405556,1.475182,2.693801,0.130910,-0.115137,0.012125,-0.064094,-0.995432,0.070755,0.022010,0.027186,-0.021790,-19.967178,-42.504528,-9.677378,,,,,,,
1558972658.550048,-2.417833,1.473891,2.704440,0.067273,-0.068373,-0.040860,-0.064071,-0.995308,0.072500,-0.010910,0.020455,-0.005545,-19.993511,-42.529362,-9.512500,,,,,,,
1558972658.570042,-2.428560,1.474367,2.714240,0.005672,-0.033192,-0.056586,-0.062979,-0.995354,0.072824,-0.006921,0.026559,-0.007547,-19.980829,-42.544746,-9.470242,,,,,,,
1558972658.590007,-2.432351,1.474960,2.718491,0.019672,0.057772,0.033975,-0.062319,-0.995411,0.072615,0.019747,0.022251,-0.008589,-19.949093,-42.559036,-9.472965,,,,,,,
1558972658.609994,-2.423917,1.474306,2.711719,0.004779,0.081170,0.077959,-0.063357,-0.995348,0.072577,0.003085,0.012438,-0.003744,-19.946022,-42.553814,-9.502828,,,,,,,
1558972658.629998,-2.408223,1.472495,2.697071,0.015320,0.035618,0.047641,-0.065695,-0.995172,0.072913,-0.022776,0.006159,0.002130,-20.009199,-42.520363,-9.519732,,,,,,,
1558972658.649967,-2.405460,1.471382,2.694864,0.007987,0.033471,-0.008966,-0.066640,-0.995062,0.073552,-0.014339,0.008475,0.006801,-20.064920,-42.496960,-9.506958,,,,,,,
1558972658.669942,-2.401353,1.471355,2.692000,-0.070609,0.084615,-0.012809,-0.066960,-0.995060,0.073298,-0.005016,-0.009960,0.016012,-20.075642,-42.487896,-9.524828,,,,,,,
1558972658.689937,-2.387946,1.472637,2.680171,-0.103710,0.075347,0.035119,-0.067063,-0.995186,0.071462,0.011597,-0.006095,0.005976,-20.064743,-42.472637,-9.615401,,,,,,,
1558972658.709938,-2.371174,1.473551,2.664163,-0.059224,0.022309,0.066674,-0.067618,-0.995275,0.069675,0.014136,0.007238,-0.003360,-20.057514,-42.458279,-9.693588,,,,,,,
1558972658.729923,-2.360864,1.473316,2.654247,-0.049583,0.024320,0.031468,-0.068498,-0.995253,0.069141,-0.001372,-0.006701,0.010403,-20.095360,-42.425819,-9.757092,,,,,,,
1558972658.749879,-2.358548,1.473040,2.652259,-0.021884,0.022033,0.013318,-0.068852,-0.995226,0.069177,0.004689,-0.005095,0.019858,-20.112215,-42.415173,-9.768674,,,,,,,
1558972658.769892,-2.359270,1.473229,2.653035,-0.038964,-0.009641,-0.022231,-0.068669,-0.995244,0.069093,-0.004421,-0.009105,0.014999,-20.108156,-42.417217,-9.768152,,,,,,,
1558972658.789878,-2.364649,1.473658,2.658025,-0.027303,-0.029802,-0.033091,-0.067997,-0.995286,0.069156,0.002491,-0.002837,0.013089,-20.088928,-42.426163,-9.768833,,,,,,,
1558972658.809845,-2.370035,1.474392,2.662466,-0.023111,-0.048846,-0.030068,-0.067114,-0.995357,0.068998,0.010519,-0.001790,0.010882,-20.059586,-42.444492,-9.749517,,,,,,,
1558972658.829847,-2.372209,1.475315,2.664027,-0.029439,-0.022361,-0.011670,-0.066325,-0.995445,0.068484,0.013545,0.005165,0.002927,-20.051420,-42.447948,-9.751271,,,,,,,
1558972658.849833,-2.370400,1.475623,2.661923,0.037613,-0.008919,0.023743,-0.066236,-0.995474,0.068145,0.007291,0.012305,-0.013854,-20.030384,-42.454346,-9.766630,,,,,,,
1558972658.869818,-2.373758,1.474683,2.665210,0.077029,-0.010220,-0.000794,-0.066655,-0.995385,0.069039,-0.008021,0.006951,-0.009392,-20.037848,-42.453167,-9.756446,,,,,,,
1558972658.889803,-2.384851,1.474541,2.676227,0.003716,-0.001485,-0.072300,-0.065983,-0.995371,0.069877,-0.012844,-0.001333,0.000847,-20.045082,-42.459316,-9.714712,,,,,,,
1558972658.909788,-2.390554,1.476455,2.682224,-0.074983,0.017945,-0.078583,-0.064283,-0.995553,0.068859,0.003904,0.006128,0.000004,-19.966791,-42.494236,-9.723267,,,,,,,
1558972658.929773,-2.394154,1.478169,2.685841,0.000419,-0.007730,-0.017915,-0.062875,-0.995713,0.067839,0.016870,0.002000,-0.006285,-19.910980,-42.508640,-9.774628,,,,,,,
1558972658.949757,-2.401476,1.477721,2.692906,0.063180,-0.006958,0.012035,-0.062677,-0.995672,0.068627,0.011758,-0.002940,-0.012658,-19.884720,-42.520435,-9.776789,,,,,,,
1558972658.969717,-2.406226,1.476667,2.697779,0.030265,0.016463,0.007963,-0.063054,-0.995573,0.069701,-0.004451,-0.000322,0.018754,-19.884678,-42.530182,-9.734371,,,,,,,
1558972658.989727,-2.408868,1.476225,2.700528,-0.041088,-0.019182,-0.046883,-0.063164,-0.995531,0.070194,-0.013909,-0.002180,0.017605,-19.895092,-42.535019,-9.691851,,,,,,,
1558972659.009697,-2.413585,1.477541,2.704512,-0.044288,-0.036126,-0.079076,-0.061961,-0.995655,0.069515,-0.015554,-0.002712,0.011998,-19.895092,-42.535019,-9.691851,,,,,,,
1558972659.029673,-2.416548,1.479133,2.707330,-0.035661,0.005075,-0.063727,-0.060703,-0.995802,0.068511,-0.000790,0.004728,-0.014511,-19.818579,-42.565174,-9.716202,,,,,,,
1558972659.049669,-2.419871,1.479801,2.710815,0.016425,0.008055,-0.008140,-0.060035,-0.995863,0.068212,0.007331,0.006742,-0.008856,-19.788057,-42.572021,-9.748357,,,,,,,
1558972659.069651,-2.425446,1.479568,2.716326,0.028096,-0.000453,-0.001807,-0.059807,-0.995842,0.068722,0.007927,0.004646,-0.003628,-19.774128,-42.578445,-9.748590,,,,,,,
1558972659.089640,-2.446869,1.479172,2.738364,-0.080384,0.025480,-0.004853,-0.058574,-0.995805,0.070290,0.020305,0.006395,0.029960,-19.750353,-42.602005,-9.693668,,,,,,,
1558972659.109618,-2.439624,1.481006,2.731444,-0.165530,0.029101,-0.002753,-0.057901,-0.995972,0.068469,0.011118,0.001877,0.012052,-19.685568,-42.623795,-9.729621,,,,,,,
1558972659.129601,-2.421432,1.483174,2.712859,-0.094450,-0.043148,-0.001253,-0.057713,-0.996164,0.065781,0.005314,0.011239,-0.004853,-19.685568,-42.623795,-9.729621,,,,,,,
1558972659.149607,-2.410483,1.484463,2.700648,0.016173,-0.070164,-0.007829,-0.057573,-0.996276,0.064189,-0.011855,0.002516,-0.028453,-19.666891,-42.594421,-9.894633,,,,,,,
1558972659.169593,-2.423591,1.484148,2.712685,0.053551,-0.050333,-0.044977,-0.056933,-0.996248,0.065176,-0.018537,-0.006910,-0.008672,-19.677456,-42.591869,-9.884584,,,,,,,
1558972659.189578,-2.436314,1.484357,2.724948,0.007936,-0.012074,-0.067067,-0.055964,-0.996266,0.065735,-0.013723,-0.013087,-0.003251,-19.656914,-42.614132,-9.829359,,,,,,,
1558972659.209563,-2.446456,1.485402,2.734951,-0.014412,-0.009841,-0.065996,-0.054628,-0.996356,0.065501,-0.009505,-0.005322,-0.004816,-19.589298,-42.646500,-9.823957,,,,,,,
1558972659.229548,-2.459944,1.486546,2.748239,0.014326,-0.009991,-0.064908,-0.053021,-0.996453,0.065346,0.012463,0.011697,-0.011086,-19.575718,-42.652252,-9.826064,,,,,,,
1558972659.249532,-2.471056,1.486989,2.759249,0.006872,0.001715,-0.038111,-0.052018,-0.996490,0.065586,0.014390,0.011566,-0.004917,-19.486490,-42.694550,-9.819739,,,,,,,
1558972659.269426,-2.472508,1.487502,2.760995,-0.008031,0.014519,-0.010242,-0.051605,-0.996533,0.065260,0.002213,0.015805,-0.009214,-19.452028,-42.709595,-9.822615,,,,,,,
1558972659.289428,-2.476001,1.487365,2.764550,0.031286,-0.006830,-0.011483,-0.051461,-0.996522,0.065547,0.000253,0.012086,-0.004649,-19.444599,-42.710152,-9.834897,,,,,,,
1558972659.309408,-2.486789,1.487045,2.775152,0.028105,-0.007886,-0.022172,-0.050945,-0.996495,0.066351,0.006023,0.012379,0.000528,-19.429491,-42.724823,-9.800983,,,,,,,
1558972659.329409,-2.497313,1.487286,2.785906,-0.036709,0.027334,-0.022957,-0.050100,-0.996515,0.066692,0.010656,0.012155,0.009754,-19.399727,-42.744305,-9.774957,,,,,,,
1558972659.349365,-2.493510,1.488691,2.782534,-0.047420,0.023213,0.011158,-0.049509,-0.996631,0.065385,0.010248,0.021518,-0.006288,-19.361151,-42.755047,-9.804416,,,,,,,
1558972659.369379,-2.485617,1.488855,2.774921,0.042948,0.002697,0.039859,-0.049922,-0.996645,0.064861,0.003475,0.014314,-0.017025,-19.352598,-42.746006,-9.860559,,,,,,,
1558972659.389336,-2.491840,1.487592,2.780861,0.073797,-0.023957,-0.005213,-0.050280,-0.996540,0.066174,-0.001523,0.005116,-0.007962,-19.365635,-42.739075,-9.864990,,,,,,,
1558972659.409350,-2.505462,1.486845,2.793932,0.037647,-0.021687,-0.027640,-0.049816,-0.996478,0.067451,-0.001911,-0.007611,0.009102,-19.377296,-42.760517,-9.748518,,,,,,,
1558972659.429322,-2.513566,1.487233,2.801862,-0.024011,-0.002356,-0.040317,-0.049041,-0.996511,0.067540,0.001113,-0.004573,0.005320,-19.366154,-42.769218,-9.732487,,,,,,,
1558972659.449291,-2.517872,1.488088,2.806263,-0.035686,0.009337,-0.037011,-0.048252,-0.996582,0.067059,0.001652,0.001770,0.005878,-19.317001,-42.787182,-9.751168,,,,,,,
1558972659.469290,-2.520342,1.489040,2.808812,-0.026173,-0.002312,-0.017898,-0.047534,-0.996660,0.066406,0.006731,0.000276,-0.000427,-19.278812,-42.798504,-9.777010,,,,,,,
1558972659.489279,-2.518733,1.489439,2.807169,-0.009148,0.006088,0.004616,-0.047408,-0.996692,0.066006,0.002746,0.004276,-0.005139,-19.272903,-42.799095,-9.786088,,,,,,,
1558972659.509276,-2.511197,1.489368,2.799936,-0.009073,0.014496,-0.027330,-0.047946,-0.996687,0.065705,-0.014904,0.009733,-0.001405,-19.279119,-42.790161,-9.812875,,,,,,,
1558972659.529260,-2.520214,1.490185,2.808924,0.000461,-0.012021,-0.055336,-0.046878,-0.996753,0.065473,0.002521,0.015918,-0.005796,-19.255161,-42.797508,-9.827852,,,,,,,
1558972659.549245,-2.535034,1.490767,2.823341,0.011092,-0.021608,-0.067163,-0.045571,-0.996799,0.065682,0.001107,0.015537,-0.001611,-19.232470,-42.808666,-9.823700,,,,,,,
1558972659.569230,-2.554998,1.491485,2.842751,0.024858,-0.029032,-0.035197,-0.043855,-0.996857,0.065984,0.012712,0.007049,-0.002232,-19.147228,-42.853897,-9.792950,,,,,,,
1558972659.589181,-2.561828,1.491406,2.849605,0.012165,0.004890,-0.014597,-0.043447,-0.996850,0.066348,0.021245,0.005288,0.004423,-19.117397,-42.871265,-9.775196,,,,,,,
1558972659.609200,-2.570495,1.491070,2.858278,0.029161,-0.014253,-0.032916,-0.043051,-0.996823,0.067004,-0.004571,-0.010730,0.007672,-19.106291,-42.877895,-9.767835,,,,,,,
1558972659.629185,-2.581611,1.490693,2.868454,0.036515,-0.057675,-0.063218,-0.042503,-0.996793,0.067796,-0.009148,-0.015597,0.010070,-19.092564,-42.898373,-9.704548,,,,,,,
1558972659.649170,-2.597938,1.490713,2.883792,0.021717,-0.043857,-0.073772,-0.041380,-0.996795,0.068464,-0.009675,-0.016556,-0.001616,-19.064219,-42.920887,-9.660643,,,,,,,
1558972659.669148,-2.615113,1.491130,2.900424,0.005818,-0.018391,-0.063932,-0.039990,-0.996828,0.068805,-0.004627,-0.018019,-0.000477,-19.033255,-42.940102,-9.636271,,,,,,,
1558972659.689126,-2.622694,1.491703,2.908209,-0.057941,0.031680,-0.026136,-0.039184,-0.996874,0.068611,0.001006,-0.028608,0.030052,-18.964293,-42.975239,-9.615558,,,,,,,
1558972659.709106,-2.622770,1.493142,2.909155,-0.105876,0.035148,0.004818,-0.038467,-0.996986,0.067367,0.021331,-0.019203,0.024338,-18.915989,-42.983517,-9.673530,,,,,,,
1558972659.729086,-2.623812,1.494537,2.910025,-0.076200,-0.011540,-0.010555,-0.037708,-0.997094,0.066199,0.022740,-0.010002,0.017739,-18.885849,-42.986912,-9.717262,,,,,,,
1558972659.749092,-2.636743,1.496163,2.921987,-0.084855,-0.072861,-0.050654,-0.036065,-0.997216,0.065262,0.009896,0.007668,0.007538,-18.846579,-42.992390,-9.769133,,,,,,,
1558972659.769079,-2.650906,1.497595,2.934630,-0.040158,-0.075205,-0.047440,-0.034464,-0.997322,0.064507,0.016886,0.014046,0.007621,-18.783640,-43.018784,-9.774132,,,,,,,
1558972659.789046,-2.661086,1.498989,2.943215,-0.021036,-0.071027,-0.013222,-0.033162,-0.997423,0.063620,0.022115,0.017458,-0.012931,-18.741657,-43.033623,-9.789412,,,,,,,
1558972659.809021,-2.660470,1.498897,2.941532,0.003499,-0.043637,0.011615,-0.033245,-0.997416,0.063683,0.006038,0.028651,-0.013435,-18.753468,-43.032948,-9.769746,,,,,,,
1558972659.829022,-2.658928,1.499217,2.939590,-0.031450,-0.000152,-0.012552,-0.033195,-0.997439,0.063348,-0.006310,0.028811,-0.010614,-18.763449,-43.030289,-9.762292,,,,,,,
1558972659.849019,-2.653968,1.500589,2.934960,-0.052659,0.011543,-0.041283,-0.032867,-0.997536,0.061973,-0.009308,0.025094,-0.013069,-18.760494,-43.020191,-9.812323,,,,,,,
1558972659.869005,-2.661117,1.501643,2.942293,-0.021786,0.008196,-0.050899,-0.031937,-0.997610,0.061274,0.000916,0.031668,-0.013041,-18.711622,-43.029362,-9.865304,,,,,,,
1558972659.888976,-2.671655,1.501991,2.952758,0.039840,-0.010045,-0.015793,-0.031132,-0.997634,0.061298,0.004780,0.033431,-0.010486,-18.700275,-43.033039,-9.870758,,,,,,,
1558972659.908975,-2.676226,1.501653,2.956887,0.066322,-0.033389,0.018169,-0.031003,-0.997611,0.061741,0.001783,0.026877,-0.014088,-18.658623,-43.053886,-9.858663,,,,,,,
1558972659.928960,-2.666212,1.500230,2.946420,0.057845,-0.015356,0.031149,-0.032269,-0.997511,0.062689,-0.014697,0.016280,-0.004950,-18.699711,-43.049164,-9.801268,,,,,,,
1558972659.948915,-2.661010,1.498867,2.941394,0.027101,0.015434,0.014338,-0.033224,-0.997414,0.063727,-0.004007,0.021676,-0.004858,-18.726858,-43.039303,-9.792744,,,,,,,
1558972659.968930,-2.649567,1.498686,2.930068,0.010057,0.016595,0.023946,-0.034037,-0.997401,0.063503,-0.003149,0.008677,-0.004405,-18.786041,-43.020741,-9.760929,,,,,,,
1558972659.988915,-2.640126,1.498322,2.921094,0.020698,0.026086,0.046466,-0.034808,-0.997375,0.063495,0.001788,0.007492,-0.012866,-18.798912,-43.014542,-9.763460,,,,,,,
1558972660.008880,-2.626575,1.497484,2.908252,0.045197,0.038665,0.062621,-0.036077,-0.997314,0.063745,-0.004740,-0.017838,-0.013650,-18.844069,-42.993946,-9.767112,,,,,,,
1558972660.028886,-2.616010,1.496517,2.898692,0.046313,0.049210,0.049910,-0.037234,-0.997243,0.064196,0.002993,-0.048656,-0.008623,-18.896166,-42.970333,-9.770375,,,,,,,
1558972660.048870,-2.605655,1.494904,2.889077,0.061126,0.042858,0.095770,-0.038717,-0.997122,0.065189,0.009512,-0.078532,-0.019367,-18.908346,-42.964424,-9.772796,,,,,,,
1558972660.068847,-2.583341,1.491887,2.868099,0.103750,0.092430,0.174217,-0.041755,-0.996888,0.066860,0.039710,-0.292449,-0.064525,-19.042988,-42.919403,-9.708979,,,,,,,
1558972660.088839,-2.555174,1.487464,2.843301,0.137183,0.238167,0.204465,-0.046061,-0.996530,0.069329,0.028712,-0.379065,-0.057992,-19.111364,-42.895321,-9.681020,,,,,,,
1558972660.108818,-2.536954,1.484946,2.831721,0.027221,0.382230,0.024256,-0.048743,-0.996317,0.070543,-0.063104,-0.587988,0.029280,-19.261505,-42.828209,-9.680588,,,,,,,
1558972660.128810,-2.562264,1.488681,2.865790,-0.137973,0.451170,-0.401208,-0.044905,-0.996630,0.068639,-0.085070,-0.664594,0.066996,-19.080603,-42.866245,-9.868662,,,,,,,
1558972660.148775,-2.686800,1.498444,2.998846,-0.150433,0.350179,-0.831379,-0.031754,-0.997384,0.064940,-0.095428,-0.668418,0.066911,-18.837111,-42.938896,-10.019451,,,,,,,
1558972660.168766,-2.957954,1.504941,-3.008302,0.098346,0.131779,-1.103385,-0.012017,-0.997832,0.064701,-0.043815,-0.653138,0.029903,-17.633764,-43.374046,-10.330408,,,,,,,
1558972660.188765,2.960869,1.499614,-2.643229,0.351246,-0.092868,-1.297509,0.012784,-0.997468,0.069964,0.005115,-0.613723,0.016385,-16.582397,-43.823727,-10.172503,,,,,,,
1558972660.208738,2.678314,1.482812,-2.363996,0.474135,-0.273209,-1.299137,0.039268,-0.996132,0.078609,0.007531,-0.589302,0.026967,-16.020102,-44.074242,-9.989614,,,,,,,
1558972660.228707,2.510978,1.461426,-2.202279,0.513159,-0.330320,-1.183279,0.064361,-0.994025,0.088159,0.062470,-0.462167,0.023367,-14.390552,-44.795105,-9.235003,,,,,,,
1558972660.248720,2.402199,1.438294,-2.098064,0.458427,-0.193850,-1.298390,0.089025,-0.991234,0.097617,-0.058492,-0.339332,0.081002,-13.374372,-45.216663,-8.692211,,,,,,,
1558972660.268698,2.292829,1.413536,-1.989775,0.198124,-0.122979,-1.473014,0.117532,-0.987660,0.103507,-0.095514,-0.243007,0.124688,-12.465484,-45.532616,-8.388548,,,,,,,
1558972660.288674,2.181640,1.390730,-1.881079,-0.145041,-0.232121,-1.445508,0.146708,-0.983832,0.102722,-0.095225,-0.067529,0.109223,-10.823196,-45.982441,-8.212709,,,,,,,
1558972660.308675,2.073963,1.371143,-1.776253,-0.399728,-0.234748,-1.268507,0.173749,-0.980135,0.095635,-0.097089,-0.020902,0.074302,-9.574018,-46.224457,-8.403126,,,,,,,
1558972660.328634,1.993511,1.355244,-1.699126,-0.278896,-0.245473,-0.946084,0.195061,-0.976858,0.087745,-0.089287,0.079901,-0.010550,-8.780724,-46.336742,-8.647552,,,,,,,
1558972660.348641,1.954322,1.341421,-1.663535,0.014689,-0.211814,-0.730930,0.210851,-0.973809,0.085080,-0.115407,0.172402,-0.026593,-7.812495,-46.475456,-8.830162,,,,,,,
1558972660.368618,1.934036,1.326659,-1.644741,0.055856,-0.028223,-0.806010,0.225948,-0.970346,0.085884,-0.119609,0.176920,-0.014870,-7.141314,-46.596886,-8.758226,,,,,,,
1558972660.388615,1.912979,1.310839,-1.622015,-0.012963,0.070393,-0.838218,0.242137,-0.966401,0.086248,-0.117809,0.224580,-0.031835,-6.562285,-46.686207,-8.735512,,,,,,,
1558972660.408578,1.895012,1.296743,-1.602195,-0.014272,0.056857,-0.704893,0.256536,-0.962682,0.086215,-0.042379,0.317662,-0.073459,-5.616195,-46.804688,-8.760949,,,,,,,
1558972660.428584,1.886501,1.284661,-1.592766,0.139679,0.000237,-0.563315,0.268298,-0.959342,0.087634,-0.078280,0.378104,-0.080584,-5.000151,-46.878544,-8.739294,,,,,,,
1558972660.448551,1.891638,1.273211,-1.598939,0.320343,-0.060866,-0.498629,0.278250,-0.956047,0.092469,-0.101477,0.407769,-0.056123,-4.621926,-46.942837,-8.601296,,,,,,,
1558972660.468556,1.898981,1.260707,-1.608541,0.318290,-0.085321,-0.602426,0.288858,-0.952306,0.098356,-0.086374,0.394018,-0.040372,-4.029272,-47.067535,-8.208948,,,,,,,
1558972660.488539,1.895369,1.245501,-1.605295,0.101785,0.020160,-0.804443,0.302902,-0.947556,0.101918,-0.080597,0.397385,-0.020939,-3.391455,-47.158852,-7.969675,,,,,,,
1558972660.508526,1.877248,1.229571,-1.583547,-0.199929,0.168559,-0.879067,0.319051,-0.942345,0.100954,-0.067662,0.476296,-0.030229,-2.791562,-47.200439,-7.956152,,,,,,,
1558972660.528511,1.854667,1.216784,-1.555725,-0.263118,0.162911,-0.635749,0.332790,-0.937989,0.097091,-0.058452,0.542436,-0.041427,-1.782686,-47.201530,-8.234845,,,,,,,
1558972660.548475,1.842344,1.209615,-1.540940,-0.061885,0.012277,-0.286841,0.340431,-0.935480,0.094784,-0.078254,0.604380,-0.033353,-1.378888,-47.186314,-8.397937,,,,,,,
1558972660.568480,1.843968,1.206644,-1.544717,0.193734,-0.158890,-0.048054,0.342952,-0.934426,0.096087,-0.099162,0.619042,-0.022860,-1.172146,-47.184273,-8.440720,,,,,,,
1558972660.588465,1.851196,1.205305,-1.556901,0.207357,-0.205409,-0.006850,0.343450,-0.933948,0.098909,-0.170507,0.603641,0.001295,-1.141636,-47.232235,-8.172359,,,,,,,
1558972660.608443,1.850756,1.203855,-1.558808,-0.063408,-0.036042,-0.087655,0.344795,-0.933429,0.099132,-0.182411,0.604617,0.021489,-1.141722,-47.251469,-8.060389,,,,,,,
1558972660.628435,1.837097,1.203656,-1.541263,-0.446791,0.239750,-0.079984,0.346295,-0.933358,0.094462,-0.173214,0.611184,0.028112,-1.084850,-47.244961,-8.106237,,,,,,,
1558972660.648420,1.812487,1.207101,-1.506674,-0.728443,0.447592,0.084062,0.345390,-0.934589,0.085142,-0.182549,0.674625,-0.039366,-0.942084,-47.124641,-8.795218,,,,,,,
1558972660.668395,1.785993,1.214654,-1.468510,-0.709520,0.457329,0.292362,0.340619,-0.937249,0.074453,-0.141477,0.624901,-0.097860,-1.012050,-46.985134,-9.505136,,,,,,,
1558972660.688391,1.767035,1.224071,-1.440005,-0.482279,0.330490,0.386350,0.333298,-0.940491,0.066259,-0.142822,0.622421,-0.107305,-1.177693,-46.883121,-9.978020,,,,,,,
1558972660.708375,1.759502,1.232556,-1.426825,-0.189870,0.206256,0.329877,0.325937,-0.943340,0.062247,-0.165414,0.597546,-0.073828,-1.552513,-46.766052,-10.464275,,,,,,,
1558972660.728339,1.761721,1.236763,-1.425346,-0.006565,0.183868,0.138701,0.321899,-0.944728,0.062216,-0.164581,0.613948,-0.002692,-1.715718,-46.738274,-10.562435,,,,,,,
1558972660.748345,1.769900,1.240190,-1.430843,0.084502,0.096905,0.267127,0.318204,-0.945846,0.064206,-0.113141,0.574187,0.012759,-1.789736,-46.733253,-10.572344,,,,,,,
1558972660.768331,1.780073,1.249492,-1.441142,0.022990,0.003679,0.619576,0.308914,-0.948824,0.065609,0.008240,0.457201,-0.002957,-1.991113,-46.739449,-10.508768,,,,,,,
1558972660.788315,1.785863,1.265294,-1.448287,-0.078838,-0.090529,0.880167,0.293843,-0.953696,0.064189,0.015529,0.351600,-0.063624,-2.709509,-46.708321,-10.486459,,,,,,,
1558972660.808275,1.797343,1.283131,-1.460892,0.033388,0.054772,0.895527,0.276465,-0.958909,0.063726,-0.014502,0.318192,-0.061544,-3.334718,-46.657341,-10.533121,,,,,,,
1558972660.828284,1.824145,1.299497,-1.482962,0.134605,0.400922,0.883974,0.259429,-0.963424,0.067169,0.086976,0.169371,-0.011048,-4.537621,-46.566635,-10.484918,,,,,,,
1558972660.848270,1.866622,1.319083,-1.519768,0.236705,0.217011,1.250633,0.238245,-0.968487,0.072609,0.191016,0.096737,-0.045433,-5.367961,-46.504295,-10.368717,,,,,,,
1558972660.868246,1.937469,1.348502,-1.596700,0.484579,-0.486183,1.937004,0.205813,-0.975394,0.079040,0.233427,0.058966,-0.074844,-5.973274,-46.455322,-10.256608,,,,,,,
1558972660.888222,2.071395,1.381100,-1.750522,0.891555,-0.919224,2.177676,0.165424,-0.982062,0.090500,-0.084842,-0.042673,-0.005707,-8.839247,-46.185612,-9.366524,,,,,,,
1558972660.908225,2.277710,1.403670,-1.972269,0.964174,-0.321731,1.913339,0.126487,-0.986067,0.108043,-0.185432,-0.245470,0.113790,-10.910285,-45.940285,-8.332525,,,,,,,
1558972660.928183,2.498958,1.419190,-2.193708,0.384197,0.333352,1.818785,0.090511,-0.988530,0.120900,-0.148785,-0.299221,0.123363,-11.787061,-45.802002,-7.887721,,,,,,,
1558972660.948184,2.743036,1.440306,-2.430374,-0.362631,0.559550,2.021070,0.050498,-0.991498,0.119921,-0.045356,-0.463183,0.046994,-14.261425,-45.136990,-7.631432,,,,,,,
1558972660.968180,3.049143,1.462511,-2.726264,-0.712394,0.646842,1.910590,0.009977,-0.994143,0.107613,-0.094786,-0.453657,0.007851,-15.957158,-44.445358,-8.303885,,,,,,,
1558972660.988150,-2.871340,1.471092,-3.077929,-0.457821,0.593376,1.686076,-0.026574,-0.995034,0.095926,-0.077994,-0.502220,-0.016733,-17.100224,-43.898140,-8.916851,,,,,,,
1558972661.008151,-2.588295,1.463408,2.929464,-0.095046,0.342466,1.279327,-0.056324,-0.994239,0.091190,-0.078091,-0.560494,0.007244,-18.712355,-43.101658,-9.543051,,,,,,,
1558972661.028106,-2.461436,1.453115,2.806723,0.080028,0.188339,0.609644,-0.073841,-0.993084,0.091283,-0.112698,-0.584874,0.014094,-19.538555,-42.704674,-9.671120,,,,,,,
1558972661.048121,-2.434322,1.444669,2.780644,0.324572,-0.026880,0.329124,-0.081736,-0.992056,0.095620,-0.069082,-0.572030,0.025565,-19.837189,-42.576435,-9.628498,,,,,,,
1558972661.068106,-2.446446,1.434637,2.789812,0.430627,-0.191422,0.230478,-0.086941,-0.990745,0.104242,-0.051136,-0.577188,0.054159,-20.188290,-42.506622,-9.197557,,,,,,,
1558972661.088073,-2.462436,1.427830,2.803124,0.237422,-0.088066,0.103195,-0.089497,-0.989798,0.110864,-0.080471,-0.538523,0.086433,-20.367912,-42.501873,-8.815542,,,,,,,
1558972661.108076,-2.467836,1.426611,2.808957,-0.028949,0.084324,-0.061921,-0.089649,-0.989623,0.112288,-0.111507,-0.472153,0.103624,-20.417044,-42.503906,-8.691198,,,,,,,
1558972661.128061,-2.469697,1.432135,2.814365,-0.275128,0.220584,-0.283953,-0.086036,-0.990402,0.108175,-0.117562,-0.370804,0.100535,-20.262787,-42.543938,-8.854801,,,,,,,
1558972661.148040,-2.475049,1.442243,2.824416,-0.387880,0.196704,-0.392104,-0.079262,-0.991748,0.100760,-0.043510,-0.295529,0.067392,-20.023293,-42.600006,-9.125906,,,,,,,
1558972661.168029,-2.488311,1.453303,2.839465,-0.359610,0.034772,-0.433134,-0.071247,-0.993106,0.093086,-0.038647,-0.261441,0.046486,-19.747463,-42.662773,-9.428690,,,,,,,
1558972661.188015,-2.523537,1.464562,2.875509,-0.328589,0.033397,-0.536685,-0.061442,-0.994362,0.086419,-0.048940,-0.167716,0.020560,-19.157139,-42.822300,-9.911092,,,,,,,
1558972661.207993,-2.581146,1.476183,2.934385,-0.311415,0.060737,-0.571642,-0.050218,-0.995528,0.080019,-0.051314,-0.089540,0.027037,-18.668835,-42.968880,-10.204149,,,,,,,
1558972661.227985,-2.655048,1.487047,3.010106,-0.287976,0.074379,-0.555478,-0.039113,-0.996495,0.073944,-0.035121,-0.023326,0.020996,-18.291069,-43.078701,-10.422920,,,,,,,
1558972661.247971,-2.734918,1.494035,3.090621,-0.139445,-0.019229,-0.428134,-0.030334,-0.997055,0.070431,0.003875,0.019623,-0.002499,-17.747370,-43.239273,-10.694435,,,,,,,
1558972661.267945,-2.824592,1.497212,-3.103669,0.024227,-0.058012,-0.340827,-0.022917,-0.997294,0.069855,0.017607,0.069926,-0.003647,-17.418531,-43.361187,-10.741367,,,,,,,
1558972661.287941,-2.921182,1.496412,-3.008152,0.130525,-0.067964,-0.260767,-0.016248,-0.997235,0.072518,0.009671,0.080044,0.002998,-17.219284,-43.453320,-10.690172,,,,,,,
1558972661.307926,-3.006115,1.495888,-2.923729,0.010589,-0.007235,-0.361708,-0.010108,-0.997196,0.074152,-0.023950,0.082736,0.036993,-17.022118,-43.563019,-10.558686,,,,,,,
1558972661.327880,-3.105519,1.496500,-2.823090,-0.178481,0.076082,-0.445403,-0.002677,-0.997241,0.074179,0.003669,0.090274,0.014368,-16.579782,-43.752502,-10.478748,,,,,,,
1558972661.347895,3.077643,1.499990,-2.721610,-0.159710,0.028649,-0.289966,0.004521,-0.997494,0.070603,0.023723,0.101559,-0.000275,-16.289835,-43.827324,-10.619879,,,,,,,
1558972661.367867,3.033421,1.501510,-2.678079,-0.037956,-0.072079,-0.069829,0.007474,-0.997601,0.068826,0.041598,0.110149,-0.016199,-16.096199,-43.871849,-10.730716,,,,,,,
1558972661.387865,3.033398,1.500798,-2.679882,0.068309,-0.089425,0.014434,0.007553,-0.997551,0.069532,0.030244,0.077980,-0.020964,-16.040543,-43.893135,-10.726992,,,,,,,
1558972661.407823,3.025896,1.499325,-2.673375,0.051604,-0.024973,-0.061833,0.008243,-0.997447,0.070933,0.025158,0.063670,-0.018061,-16.052462,-43.899944,-10.681199,,,,,,,
1558972661.427834,2.978617,1.499429,-2.626513,-0.032556,-0.031891,-0.035284,0.011570,-0.997454,0.070363,0.050091,0.073031,-0.011235,-15.898876,-43.966198,-10.638330,,,,,,,
1558972661.447820,2.923967,1.502165,-2.573236,-0.017048,-0.072888,0.173577,0.014807,-0.997646,0.066961,0.066309,0.058086,-0.040594,-15.934688,-43.948067,-10.659657,,,,,,,
1558972661.467794,3.024889,1.501437,-2.676621,0.175029,-0.136938,0.429353,0.008070,-0.997596,0.068832,0.069415,0.041022,-0.051788,-15.829971,-43.962193,-10.756973,,,,,,,
1558972661.487771,-3.139007,1.496988,-2.799198,0.249652,-0.134259,0.362177,-0.000191,-0.997277,0.073741,-0.018074,-0.012000,0.013936,-16.415337,-43.821274,-10.450247,,,,,,,
1558972661.507776,-3.064833,1.492288,-2.874846,0.084335,-0.045039,0.067170,-0.006014,-0.996920,0.078197,-0.040678,-0.025724,0.024174,-16.645714,-43.781593,-10.250227,,,,,,,
1558972661.527761,-3.061228,1.491641,-2.879270,0.021574,-0.052176,0.022210,-0.006348,-0.996869,0.078818,-0.018020,-0.027271,0.016855,-16.783049,-43.751530,-10.154203,,,,,,,
1558972661.547746,-3.052659,1.491287,-2.889129,0.027738,-0.070016,0.130941,-0.007054,-0.996841,0.079111,0.015187,-0.026002,-0.001627,-16.854721,-43.737080,-10.097585,,,,,,,
1558972661.567730,-3.007467,1.490184,-2.936059,0.034975,-0.093172,0.222542,-0.010768,-0.996753,0.079802,0.016460,-0.018995,-0.000701,-16.979185,-43.699207,-10.052931,,,,,,,
1558972661.587715,-2.957667,1.489065,-2.987812,0.005274,-0.076151,0.190652,-0.014931,-0.996662,0.080263,0.010125,-0.021176,0.009154,-17.087780,-43.664116,-10.021365,,,,,,,
1558972661.607701,-2.912759,1.489246,-3.033109,-0.096374,0.021408,0.043107,-0.018478,-0.996677,0.079336,-0.030502,-0.044507,0.009699,-17.388840,-43.549683,-10.001416,,,,,,,
1558972661.627686,-2.904658,1.491764,-3.039937,-0.133415,0.064868,-0.005618,-0.018531,-0.996879,0.076744,0.007499,-0.065103,-0.011574,-17.386477,-43.522232,-10.124264,,,,,,,
1558972661.647664,-2.889640,1.493325,-3.054276,-0.045305,0.020105,0.058083,-0.019294,-0.997001,0.074950,0.021400,-0.075753,-0.017256,-17.381321,-43.508808,-10.190599,,,,,,,
1558972661.667644,-2.876660,1.492117,-3.067119,0.093047,0.008801,0.053815,-0.020581,-0.996906,0.075856,0.018551,-0.167873,-0.021993,-17.447960,-43.472401,-10.232019,,,,,,,
1558972661.687621,-2.877442,1.489350,-3.065914,0.139007,0.040239,0.024258,-0.021241,-0.996685,0.078535,0.047303,-0.306782,-0.013258,-17.479120,-43.483921,-10.129358,,,,,,,
1558972661.707601,-2.875010,1.487799,-3.065887,0.026671,0.188800,0.017048,-0.021839,-0.996558,0.079973,0.055576,-0.365900,-0.006411,-17.483799,-43.492867,-10.082768,,,,,,,
1558972661.727604,-2.868192,1.488615,-3.065890,-0.068271,0.424928,-0.039488,-0.022165,-0.996625,0.079040,-0.010627,-0.548999,0.012910,-17.426706,-43.492714,-10.181796,,,,,,,
1558972661.747588,-2.890759,1.491036,-3.033752,-0.076290,0.475379,-0.260015,-0.019776,-0.996821,0.077182,-0.026900,-0.639089,0.010769,-17.243271,-43.511280,-10.412144,,,,,,,
1558972661.767569,-3.000371,1.492847,-2.915589,0.056940,0.362098,-0.620790,-0.010961,-0.996963,0.077096,-0.033885,-0.662537,0.015860,-17.063251,-43.556301,-10.519925,,,,,,,
1558972661.787566,3.054543,1.490803,-2.680354,0.154284,0.285817,-1.105086,0.006947,-0.996802,0.079606,-0.021184,-0.649987,0.054091,-16.044910,-43.920532,-10.607664,,,,,,,
1558972661.807552,2.766369,1.482096,-2.385941,0.109832,0.242317,-1.371382,0.032465,-0.996069,0.082422,0.026038,-0.568552,0.065589,-14.897453,-44.333858,-10.561697,,,,,,,
1558972661.827535,2.527132,1.468836,-2.141487,-0.016021,0.209288,-1.281049,0.058680,-0.994807,0.083166,0.035009,-0.528875,0.036066,-14.263919,-44.543598,-10.553843,,,,,,,
1558972661.847521,2.363149,1.455112,-1.970887,-0.107504,0.319997,-1.080413,0.081049,-0.993316,0.082184,0.097403,-0.365113,-0.009110,-12.514159,-45.037251,-10.677867,,,,,,,
1558972661.867506,2.233391,1.441322,-1.832473,-0.202860,0.437765,-1.121001,0.101793,-0.991630,0.079426,0.074431,-0.244286,0.004940,-11.475710,-45.260551,-10.897952,,,,,,,
1558972661.887490,2.121365,1.422668,-1.709918,-0.108965,0.417963,-1.311156,0.125778,-0.989049,0.077213,0.038361,-0.194972,0.031246,-10.905777,-45.366760,-11.040638,,,,,,,
1558972661.907476,2.062318,1.399115,-1.649711,0.398409,-0.292727,-1.193705,0.150615,-0.985299,0.080631,-0.026057,-0.077918,0.018506,-9.062210,-45.739216,-11.170292,,,,,,,
1558972661.927461,2.066627,1.371493,-1.671459,1.074655,-1.129063,-1.097607,0.174143,-0.980205,0.094194,-0.087824,-0.047993,0.012175,-8.150007,-46.079453,-10.451620,,,,,,,
1558972661.947419,2.088931,1.339016,-1.720677,1.263833,-1.292014,-1.254892,0.199560,-0.973259,0.113767,-0.152319,-0.020500,0.021472,-7.762814,-46.281399,-9.835953,,,,,,,
1558972661.967415,2.082259,1.303893,-1.734753,0.802699,-0.831246,-1.522033,0.229994,-0.964592,0.129091,-0.239180,0.017266,0.093733,-6.262085,-46.869759,-7.936403,,,,,,,
1558972661.987416,2.046173,1.274593,-1.708899,0.142709,-0.429019,-1.343618,0.259526,-0.956452,0.133591,-0.170354,0.112656,0.084610,-4.948834,-47.121456,-7.352028,,,,,,,
1558972662.007376,2.008304,1.256635,-1.675146,-0.110760,-0.233496,-0.834817,0.279913,-0.951056,0.130926,-0.159231,0.193228,0.044870,-4.125416,-47.208702,-7.300281,,,,,,,
1558972662.027382,1.990870,1.247488,-1.663084,0.138142,-0.372485,-0.305327,0.290083,-0.948190,0.129569,-0.201399,0.255807,0.000329,-3.352839,-47.263531,-7.341111,,,,,,,
1558972662.047360,1.993791,1.242392,-1.677603,0.384001,-0.621897,-0.118544,0.294106,-0.946558,0.132398,-0.290490,0.255747,0.011996,-3.247880,-47.312386,-7.068534,,,,,,,
1558972662.067328,1.993891,1.234090,-1.689065,0.281770,-0.451641,-0.427682,0.301248,-0.943848,0.135649,-0.309946,0.268921,0.012682,-3.247880,-47.312386,-7.068534,,,,,,,
1558972662.087319,1.981056,1.222322,-1.681064,-0.002160,-0.153497,-0.674885,0.313129,-0.939895,0.136192,-0.216037,0.328307,-0.020836,-2.922294,-47.407894,-6.551840,,,,,,,
1558972662.107326,1.956083,1.209874,-1.655561,-0.241025,0.001950,-0.763271,0.327249,-0.935571,0.132718,-0.137934,0.428995,-0.050809,-1.982308,-47.451725,-6.586267,,,,,,,
1558972662.127311,1.930769,1.198783,-1.628288,-0.227464,-0.024358,-0.636462,0.340194,-0.931597,0.128039,-0.103119,0.465197,-0.076968,-1.982308,-47.451725,-6.586267,,,,,,,
1558972662.147296,1.913762,1.189965,-1.612995,-0.043182,-0.213161,-0.425660,0.350046,-0.928356,0.124993,-0.009287,0.483211,-0.129189,-1.003249,-47.433945,-6.927418,,,,,,,
1558972662.167279,1.904157,1.183422,-1.609317,0.088214,-0.337331,-0.297558,0.356962,-0.925904,0.123610,-0.029508,0.513612,-0.132338,-0.463746,-47.436821,-6.964752,,,,,,,
1558972662.187266,1.900956,1.177401,-1.612055,0.170407,-0.252093,-0.262512,0.362623,-0.923613,0.124272,-0.040937,0.517729,-0.126622,-0.349636,-47.445107,-6.914785,,,,,,,
1558972662.207251,1.900787,1.171406,-1.615942,0.161194,-0.137879,-0.257155,0.367876,-0.921298,0.126003,-0.073794,0.579333,-0.093624,-0.025805,-47.480030,-6.679893,,,,,,,
1558972662.227233,1.900823,1.165503,-1.618118,0.119793,-0.105961,-0.263289,0.373010,-0.918987,0.127776,-0.043145,0.575100,-0.087478,0.210751,-47.498886,-6.541121,,,,,,,
1558972662.247221,1.898819,1.161299,-1.619582,0.076663,-0.214414,-0.134109,0.376920,-0.917321,0.128272,-0.027280,0.582101,-0.076408,0.323122,-47.505730,-6.486619,,,,,,,
1558972662.267207,1.893864,1.160292,-1.620634,0.017517,-0.330159,0.011004,0.378426,-0.916920,0.126696,-0.015923,0.614079,-0.079577,0.442404,-47.517166,-6.395158,,,,,,,
1558972662.287190,1.888849,1.161690,-1.622156,0.001491,-0.302444,0.110547,0.377839,-0.917477,0.124396,-0.068650,0.642147,-0.088370,0.352070,-47.518940,-6.387549,,,,,,,
1558972662.307177,1.885316,1.164412,-1.623150,-0.046013,-0.167910,0.140623,0.375900,-0.918556,0.122287,-0.105530,0.675926,-0.082508,0.277828,-47.519241,-6.388994,,,,,,,
1558972662.327162,1.881471,1.167306,-1.619423,-0.159038,0.082087,0.105558,0.373834,-0.919696,0.120028,-0.202936,0.783557,-0.017153,0.069269,-47.507385,-6.482160,,,,,,,
1558972662.347137,1.877885,1.173097,-1.612122,-0.265686,0.142233,0.369757,0.369179,-0.921955,0.117074,-0.152794,0.765827,-0.011331,-0.070280,-47.481461,-6.669372,,,,,,,
1558972662.367131,1.870035,1.187062,-1.603405,-0.418035,-0.063631,0.712514,0.357749,-0.927273,0.110366,-0.099036,0.716869,-0.029556,-0.266577,-47.461483,-6.805245,,,,,,,
1558972662.387104,1.858804,1.204017,-1.593749,-0.398022,-0.104884,0.763382,0.343840,-0.933487,0.101861,-0.181593,0.643235,-0.044106,-1.289366,-47.359062,-7.377759,,,,,,,
1558972662.407084,1.850504,1.220766,-1.586066,-0.344526,-0.012115,0.785666,0.329599,-0.939362,0.094673,-0.213053,0.612183,-0.067421,-2.021038,-47.276882,-7.732166,,,,,,,
1558972662.427066,1.845703,1.237791,-1.577092,-0.425339,0.333938,0.776102,0.314610,-0.945064,0.088735,-0.237523,0.607494,-0.036581,-2.391174,-47.232735,-7.894663,,,,,,,
1558972662.447048,1.835922,1.257486,-1.556027,-0.688781,0.565962,0.917973,0.297441,-0.951318,0.080761,-0.122102,0.401285,-0.048763,-3.444033,-47.045692,-8.591635,,,,,,,
1558972662.467057,1.818209,1.282801,-1.527015,-0.718391,0.448209,1.238184,0.275382,-0.958815,0.069558,-0.054648,0.327605,-0.060678,-4.321413,-46.834713,-9.317171,,,,,,,
1558972662.487013,1.809824,1.312267,-1.509928,-0.471959,0.388050,1.458809,0.248391,-0.966767,0.060530,-0.026848,0.317887,-0.058317,-4.871665,-46.710472,-9.663004,,,,,,,
1558972662.507006,1.833234,1.344712,-1.525805,-0.063576,0.401120,1.740052,0.216488,-0.974552,0.058156,-0.032452,0.187717,-0.049123,-6.831834,-46.326706,-10.302307,,,,,,,
1558972662.527012,1.904985,1.381342,-1.591505,0.174321,0.383442,2.065706,0.177904,-0.982107,0.061770,0.010756,-0.054560,-0.076510,-8.479373,-46.051125,-10.313526,,,,,,,
1558972662.546987,2.032384,1.421289,-1.708342,0.075359,0.828268,2.307969,0.133363,-0.988845,0.066338,0.016051,-0.240007,-0.050561,-9.877481,-45.784489,-10.256252,,,,,,,
1558972662.566964,2.245475,1.463277,-1.898345,-0.201739,1.444074,2.459909,0.083801,-0.994225,0.067032,-0.002960,-0.479224,0.022262,-12.293579,-45.132259,-10.531940,,,,,,,
1558972662.586967,2.644583,1.499134,-2.270410,-0.297839,1.283683,2.305624,0.034139,-0.997433,0.062938,-0.034521,-0.621036,0.030202,-14.161193,-44.429138,-11.157377,,,,,,,
1558972662.606924,-3.013575,1.509984,-2.878683,-0.022527,0.659061,1.905903,-0.007759,-0.998151,0.060278,-0.075005,-0.748171,-0.010168,-15.423604,-43.899040,-11.574157,,,,,,,
1558972662.626931,-2.536708,1.493283,2.933662,0.286022,0.218548,1.750328,-0.044036,-0.996997,0.063697,-0.103547,-0.824551,-0.020851,-17.296312,-43.154434,-11.726356,,,,,,,
1558972662.646922,-2.325004,1.465144,2.722708,0.504986,0.030008,1.550116,-0.076858,-0.994424,0.072207,-0.114732,-0.879432,-0.014315,-18.718836,-42.632347,-11.448280,,,,,,,
1558972662.666891,-2.244206,1.439662,2.643033,0.425219,0.159739,1.079394,-0.102213,-0.991414,0.081548,-0.202871,-0.903880,0.040385,-19.633957,-42.302368,-11.135183,,,,,,,
1558972662.686867,-2.201893,1.423944,2.606273,0.181710,0.353772,0.623035,-0.118140,-0.989237,0.086336,-0.220880,-0.815512,0.084654,-20.582052,-41.920662,-10.863333,,,,,,,
1558972662.706876,-2.170166,1.416818,2.580945,-0.018066,0.288781,0.275266,-0.126636,-0.988169,0.086520,-0.153057,-0.682150,0.075132,-20.913414,-41.740334,-10.924676,,,,,,,
1558972662.726858,-2.149717,1.415688,2.563798,-0.090711,0.104900,0.044971,-0.129314,-0.987995,0.084523,-0.092930,-0.567959,0.055262,-21.002504,-41.667110,-11.032749,,,,,,,
1558972662.746847,-2.145791,1.417042,2.559931,-0.043101,-0.042466,-0.083451,-0.128522,-0.988203,0.083287,-0.056445,-0.453691,0.022075,-20.996719,-41.639683,-11.146723,,,,,,,
1558972662.766817,-2.154965,1.420195,2.568585,-0.028943,-0.007864,-0.220835,-0.125153,-0.988681,0.082744,-0.042388,-0.335614,0.025792,-20.894333,-41.687801,-11.159263,,,,,,,
1558972662.786817,-2.175851,1.425188,2.589895,0.005347,0.005516,-0.342392,-0.119336,-0.989418,0.082531,-0.025973,-0.229866,0.029316,-20.737432,-41.762005,-11.174461,,,,,,,
1558972662.806803,-2.215706,1.432066,2.629212,0.033037,-0.067816,-0.511760,-0.110511,-0.990392,0.083127,-0.020180,-0.140696,0.027072,-20.343847,-41.961521,-11.150483,,,,,,,
1558972662.826777,-2.277996,1.441253,2.690870,0.037529,-0.063831,-0.659053,-0.098202,-0.991621,0.083930,-0.019474,-0.084200,0.031716,-19.869690,-42.201859,-11.098355,,,,,,,
1558972662.846772,-2.356871,1.449765,2.768583,0.032039,-0.099690,-0.625236,-0.085315,-0.992685,0.085430,-0.000089,-0.034079,0.033390,-19.468027,-42.407375,-11.026561,,,,,,,
1558972662.866758,-2.426726,1.457840,2.836666,-0.054417,-0.122333,-0.519825,-0.073887,-0.993627,0.085121,0.007100,0.010290,0.013512,-19.086187,-42.592560,-10.980263,,,,,,,
1558972662.886741,-2.494594,1.463493,2.902172,-0.019470,-0.140362,-0.436694,-0.064558,-0.994249,0.085452,-0.006945,0.048387,0.014767,-18.563168,-42.836609,-10.927434,,,,,,,
1558972662.906727,-2.566930,1.469280,2.972005,-0.055603,-0.145534,-0.488019,-0.055085,-0.994852,0.085064,-0.022689,0.065347,0.022358,-18.213699,-42.995174,-10.892703,,,,,,,
1558972662.926712,-2.638568,1.475747,3.041212,-0.131224,-0.128126,-0.421719,-0.045752,-0.995486,0.083150,-0.018579,0.084933,0.018764,-17.925383,-43.117184,-10.888689,,,,,,,
1558972662.946685,-2.687259,1.481911,3.087722,-0.194191,-0.110665,-0.275335,-0.038957,-0.996052,0.079763,0.002626,0.108296,-0.009496,-17.450697,-43.282677,-11.002627,,,,,,,
1558972662.966681,-2.715523,1.487540,3.114716,-0.206853,-0.046022,-0.208532,-0.034370,-0.996536,0.075726,-0.006371,0.110092,-0.010647,-17.450697,-43.282677,-11.002627,,,,,,,
1558972662.986667,-2.742390,1.492510,3.140609,-0.160120,-0.066313,-0.183066,-0.030398,-0.996937,0.072058,0.007235,0.103962,-0.024938,-17.175791,-43.334286,-11.229711,,,,,,,
1558972663.006622,-2.768647,1.495290,-3.118322,-0.050795,-0.130202,-0.112057,-0.027485,-0.997151,0.070249,0.016545,0.102208,-0.033139,-17.002211,-43.366089,-11.370237,,,,,,,
1558972663.026637,-2.792117,1.495759,-3.097427,0.029009,-0.116806,-0.061686,-0.025669,-0.997186,0.070435,0.017063,0.088556,-0.030564,-16.938444,-43.393806,-11.359642,,,,,,,
1558972663.046623,-2.817181,1.499728,-3.073534,0.000510,-0.014044,-0.005215,-0.022634,-0.997476,0.067305,0.023290,0.045739,-0.039168,-16.811966,-43.415428,-11.464423,,,,,,,
1558972663.066589,-2.806303,1.500522,-3.082793,-0.074646,0.133336,0.035639,-0.023104,-0.997532,0.066307,0.022265,0.038547,-0.051064,-16.806431,-43.417309,-11.465433,,,,,,,
1558972663.086593,-2.777883,1.505628,-3.107314,-0.041476,0.240083,0.146648,-0.023166,-0.997877,0.060861,0.022190,0.035704,-0.038049,-16.816317,-43.383892,-11.576900,,,,,,,
1558972663.106578,-2.721643,1.504062,3.124493,0.029718,0.222866,0.193517,-0.027188,-0.997774,0.060891,0.012067,0.026064,-0.021645,-16.824503,-43.299259,-11.877930,,,,,,,
1558972663.126552,-2.690572,1.502095,3.096716,0.067959,0.143208,0.072141,-0.029922,-0.997641,0.061783,-0.012177,-0.004022,0.005768,-16.915758,-43.255795,-11.906656,,,,,,,
1558972663.146547,-2.699276,1.497704,3.107494,0.155182,0.079191,-0.021285,-0.031258,-0.997330,0.065999,-0.011772,-0.016601,0.016857,-16.923859,-43.256004,-11.894361,,,,,,,
1558972663.166533,-2.723346,1.495773,3.132425,0.089045,0.025593,-0.046407,-0.030443,-0.997187,0.068492,0.003725,-0.037115,0.035817,-16.915411,-43.319199,-11.674367,,,,,,,
1558972663.186518,-2.726198,1.495448,3.136024,-0.013198,0.043152,0.027347,-0.030378,-0.997163,0.068876,0.008146,-0.032027,0.034335,-16.886879,-43.338078,-11.645565,,,,,,,
1558972663.206502,-2.721695,1.493395,3.131929,-0.075119,0.009733,0.080359,-0.031522,-0.997006,0.070607,0.002958,-0.026554,0.034023,-16.898949,-43.328949,-11.662004,,,,,,,
1558972663.226470,-2.696243,1.494676,3.106185,-0.118754,-0.009134,0.033166,-0.032759,-0.997104,0.068628,-0.040346,-0.022061,0.028463,-16.983021,-43.301712,-11.641033,,,,,,,
1558972663.246459,-2.692351,1.497918,3.102549,-0.167403,0.024741,-0.104275,-0.031622,-0.997346,0.065589,-0.036417,-0.004440,0.024041,-16.961487,-43.276989,-11.763720,,,,,,,
1558972663.266438,-2.688914,1.499698,3.099575,-0.137616,0.009762,-0.121471,-0.031071,-0.997474,0.063883,-0.023220,0.006034,0.017980,-16.909956,-43.276184,-11.840610,,,,,,,
1558972663.286415,-2.700317,1.501752,3.110376,-0.035729,-0.051981,-0.054719,-0.029465,-0.997617,0.062380,0.022781,0.017088,-0.001864,-16.854952,-43.271606,-11.935404,,,,,,,
1558972663.306426,-2.712843,1.502204,3.122242,0.006958,-0.014137,-0.043646,-0.028494,-0.997648,0.062336,0.017691,0.000929,-0.007710,-16.822798,-43.284874,-11.932646,,,,,,,
1558972663.326406,-2.747455,1.502711,-3.126157,0.040070,0.013147,-0.059377,-0.026125,-0.997683,0.062816,0.016054,-0.011671,0.000065,-16.805630,-43.293015,-11.927305,,,,,,,
1558972663.346398,-2.775240,1.501850,-3.099266,0.097181,-0.098135,-0.056126,-0.024678,-0.997624,0.064320,0.058629,-0.127467,0.006206,-16.667440,-43.364990,-11.859535,,,,,,,
1558972663.366383,-2.778016,1.498856,-3.098779,0.164021,-0.081298,0.128791,-0.025561,-0.997413,0.067179,0.015231,-0.302178,0.033422,-16.700310,-43.392292,-11.712540,,,,,,,
1558972663.386367,-2.742544,1.495228,-3.132127,0.071318,0.235305,0.175521,-0.029333,-0.997146,0.069564,0.005072,-0.404130,0.066392,-16.770508,-43.386475,-11.633522,,,,,,,
1558972663.406350,-2.710303,1.495173,3.126112,-0.101405,0.405106,0.022199,-0.031584,-0.997142,0.068633,-0.017290,-0.719106,0.133867,-16.873270,-43.328743,-11.699881,,,,,,,
1558972663.426338,-2.707564,1.500750,3.130550,-0.343936,0.333041,-0.249868,-0.029433,-0.997548,0.063500,-0.089799,-0.815364,0.159980,-16.729036,-43.306126,-11.987223,,,,,,,
1558972663.446306,-2.800771,1.512852,-3.052986,-0.463621,0.311863,-0.697511,-0.019358,-0.998322,0.054580,-0.110174,-0.842270,0.151703,-16.558697,-43.311615,-12.201995,,,,,,,
1558972663.466286,-3.137705,1.523848,-2.708807,-0.298950,0.337830,-1.133798,-0.000182,-0.998898,0.046930,-0.046235,-0.727252,0.039496,-15.456428,-43.510921,-12.917949,,,,,,,
1558972663.486293,2.621419,1.518903,-2.179000,0.032017,0.194070,-1.390077,0.025781,-0.998654,0.045010,0.008704,-0.653232,0.013081,-14.290455,-43.834541,-13.163996,,,,,,,
1558972663.506277,2.309853,1.497297,-1.867265,0.313959,-0.184800,-1.413763,0.054275,-0.997300,0.049464,0.070970,-0.603545,-0.016368,-13.332617,-44.150784,-13.111990,,,,,,,
1558972663.526253,2.177579,1.472806,-1.743651,0.348488,-0.593730,-1.201985,0.080369,-0.995203,0.055788,0.010344,-0.522833,-0.031495,-12.433675,-44.482208,-12.872896,,,,,,,
1558972663.546249,2.087729,1.450141,-1.664870,0.140261,-0.480633,-1.228828,0.104637,-0.992730,0.059486,-0.080848,-0.407462,-0.017142,-11.011440,-45.027191,-12.258664,,,,,,,
1558972663.566214,1.985436,1.426501,-1.566201,-0.149838,-0.085110,-1.407842,0.131609,-0.989608,0.057929,-0.081088,-0.295228,-0.010718,-10.213455,-45.241348,-12.160614,,,,,,,
1558972663.586219,1.881465,1.400606,-1.458567,-0.433983,0.193100,-1.555945,0.161262,-0.985552,0.051776,-0.061241,-0.117872,-0.048709,-9.270618,-45.419205,-12.252600,,,,,,,
1558972663.606202,1.790874,1.373982,-1.362640,-0.486421,0.148053,-1.468871,0.190830,-0.980695,0.042689,-0.032779,0.077954,-0.059626,-7.117228,-45.631889,-12.886049,,,,,,,
1558972663.626181,1.736856,1.349023,-1.308528,-0.162259,-0.220078,-1.229779,0.216934,-0.975509,0.036359,-0.019897,0.240356,-0.093640,-6.127341,-45.688614,-13.190177,,,,,,,
1558972663.646157,1.729866,1.328245,-1.312254,0.463712,-0.693224,-0.884686,0.237147,-0.970728,0.038044,-0.077128,0.399622,-0.103138,-5.329814,-45.763321,-13.277287,,,,,,,
1558972663.666132,1.770463,1.309831,-1.371207,1.126137,-0.862465,-0.756590,0.252888,-0.966141,0.051175,-0.177982,0.467194,-0.029126,-4.391988,-46.102314,-12.420232,,,,,,,
1558972663.686143,1.836099,1.288507,-1.456911,1.428611,-0.827103,-0.785904,0.268810,-0.960420,0.073038,-0.218212,0.486055,-0.007333,-4.391988,-46.102314,-12.420232,,,,,,,
1558972663.706106,1.886596,1.265918,-1.526015,1.139349,-0.743139,-0.787467,0.285333,-0.953883,0.093228,-0.195780,0.541988,0.015201,-3.606668,-46.651894,-10.467445,,,,,,,
1558972663.726104,1.909547,1.246920,-1.563810,0.710642,-0.605369,-0.647700,0.300158,-0.948009,0.105755,-0.161700,0.577571,-0.017895,-2.741167,-47.036785,-8.888277,,,,,,,
1558972663.746098,1.919840,1.232991,-1.586400,0.533938,-0.520660,-0.462328,0.311433,-0.943484,0.113344,-0.163300,0.609576,-0.026675,-2.741167,-47.036785,-8.888277,,,,,,,
1558972663.766084,1.928606,1.222753,-1.605835,0.453036,-0.456606,-0.321918,0.319459,-0.940042,0.119447,-0.146317,0.606637,-0.035142,-2.128773,-47.225353,-8.013062,,,,,,,
1558972663.786068,1.933819,1.214797,-1.620535,0.324298,-0.411452,-0.266071,0.325813,-0.937299,0.123763,-0.161293,0.601331,-0.041808,-1.780077,-47.344387,-7.369862,,,,,,,
1558972663.806053,1.932221,1.208456,-1.626808,0.152049,-0.348173,-0.259198,0.331563,-0.935070,0.125341,-0.153112,0.592678,-0.063619,-1.780077,-47.344387,-7.369862,,,,,,,
1558972663.826039,1.927907,1.202561,-1.628013,0.135473,-0.207497,-0.254662,0.337260,-0.932964,0.125834,-0.125819,0.627010,-0.066813,-1.378707,-47.416592,-6.981486,,,,,,,
1558972663.846007,1.932044,1.198424,-1.634876,0.212294,-0.072339,-0.077145,0.340344,-0.931467,0.128592,-0.092739,0.637430,-0.066824,-1.214624,-47.445061,-6.816617,,,,,,,
1558972663.865988,1.941368,1.197621,-1.645256,0.164393,-0.001036,0.078308,0.339827,-0.931174,0.132030,-0.065291,0.629188,-0.070736,-1.193746,-47.459965,-6.715756,,,,,,,
1558972663.885994,1.948079,1.198695,-1.652651,0.071733,-0.006861,0.098463,0.338003,-0.931565,0.133939,-0.081122,0.615358,-0.082822,-1.301453,-47.487072,-6.500708,,,,,,,
1558972663.905975,1.950057,1.200064,-1.654558,-0.031366,0.026402,0.067737,0.336553,-0.932062,0.134135,-0.104086,0.640940,-0.077967,-1.381037,-47.489052,-6.469759,,,,,,,
1558972663.925964,1.949070,1.202060,-1.651982,-0.106737,0.092341,0.073646,0.334956,-0.932783,0.133115,-0.103419,0.637892,-0.071439,-1.411584,-47.485329,-6.490445,,,,,,,
1558972663.945949,1.944645,1.203959,-1.644392,-0.189497,0.148714,0.017534,0.333892,-0.933466,0.130985,-0.135360,0.686213,-0.046436,-1.478210,-47.458839,-6.666963,,,,,,,
1558972663.965907,1.936867,1.206244,-1.633085,-0.259946,0.113221,0.068385,0.332908,-0.934283,0.127620,-0.157004,0.700076,-0.044033,-1.477837,-47.429493,-6.872708,,,,,,,
1558972663.985918,1.923530,1.211083,-1.617663,-0.393440,0.029518,0.173174,0.330333,-0.935998,0.121605,-0.162654,0.691949,-0.056450,-1.509377,-47.409222,-7.004439,,,,,,,
1558972664.005876,1.904207,1.218390,-1.597942,-0.464218,-0.098968,0.239149,0.326150,-0.938545,0.112959,-0.203988,0.697670,-0.113325,-1.768258,-47.312866,-7.572368,,,,,,,
1558972664.025878,1.881731,1.224197,-1.577088,-0.384363,-0.160914,0.091284,0.323412,-0.940533,0.103931,-0.287035,0.752728,-0.058231,-1.976692,-47.235275,-7.993529,,,,,,,
1558972664.045858,1.865242,1.225668,-1.563651,-0.153406,-0.228907,-0.034096,0.323757,-0.941032,0.098183,-0.283291,0.705833,-0.031487,-2.021729,-47.205063,-8.159018,,,,,,,
1558972664.065860,1.852503,1.224672,-1.557170,-0.063409,-0.389031,-0.062248,0.325882,-0.940695,0.094311,-0.191635,0.611608,-0.068860,-2.017682,-47.169666,-8.362225,,,,,,,
1558972664.085843,1.848270,1.225694,-1.562066,0.176651,-0.442810,0.161635,0.325354,-0.941041,0.092667,-0.210852,0.609193,-0.060410,-2.104383,-47.169949,-8.339225,,,,,,,
1558972664.105830,1.867950,1.229488,-1.587443,0.445979,-0.010508,0.391262,0.320051,-0.942318,0.098006,-0.235822,0.641170,-0.010817,-2.228971,-47.183640,-8.228645,,,,,,,
1558972664.125815,1.908465,1.239156,-1.624163,0.332886,0.421957,0.801017,0.307208,-0.945509,0.107866,-0.146045,0.276457,-0.031740,-2.875105,-47.248558,-7.634299,,,,,,,
1558972664.145799,1.938903,1.256952,-1.643795,-0.246610,0.723420,1.029779,0.288036,-0.951154,0.111092,-0.118709,0.017240,-0.120918,-3.633165,-47.210583,-7.545577,,,,,,,
1558972664.165784,1.954965,1.283047,-1.640072,-0.632155,1.118028,1.319377,0.263109,-0.958885,0.106363,-0.140154,-0.020943,-0.109873,-4.072964,-47.145535,-7.725576,,,,,,,
1558972664.185768,1.988000,1.316154,-1.650926,-0.368995,1.061263,1.749306,0.230293,-0.967753,0.102071,0.005532,-0.170140,-0.103536,-5.744960,-46.802769,-8.687429,,,,,,,
1558972664.205755,2.074125,1.351296,-1.725294,0.247971,0.422157,2.056504,0.190738,-0.976006,0.105026,0.152783,-0.442374,-0.069855,-7.353947,-46.529106,-8.940724,,,,,,,
1558972664.225729,2.237268,1.380355,-1.891177,0.774971,-0.144875,2.178548,0.148785,-0.981921,0.117023,0.141346,-0.487623,-0.035877,-7.353947,-46.529106,-8.940724,,,,,,,
1558972664.245705,2.456834,1.399419,-2.116466,0.682104,0.018123,1.997466,0.107864,-0.985351,0.132095,0.025849,-0.762772,0.144775,-10.297800,-46.115402,-8.142469,,,,,,,
1558972664.265617,2.674700,1.416066,-2.330600,-0.049575,0.505934,1.900123,0.069368,-0.988053,0.137619,0.092939,-0.862228,0.133332,-13.009674,-45.549831,-7.411890,,,,,,,
1558972664.285588,2.939141,1.437622,-2.585879,-0.533135,0.557548,2.202374,0.026698,-0.991145,0.130069,0.132817,-0.926640,0.103924,-13.009674,-45.549831,-7.411890,,,,,,,
1558972664.305595,-2.991568,1.448985,-2.933499,-0.434979,0.274720,2.142092,-0.018161,-0.992590,0.120145,-0.011273,-0.993891,0.086428,-16.645414,-44.165619,-8.444111,,,,,,,
1558972664.325587,-2.696078,1.443086,3.055772,-0.153467,0.167764,1.582914,-0.054883,-0.991856,0.114931,-0.129122,-0.987224,0.121550,-18.331146,-43.421211,-8.805820,,,,,,,
1558972664.345555,-2.549039,1.434284,2.910235,-0.088599,0.094316,0.756972,-0.076003,-0.990697,0.112888,-0.133302,-0.950633,0.132229,-18.953991,-43.134804,-8.894367,,,,,,,
1558972664.365559,-2.483253,1.430497,2.844313,-0.134106,-0.001151,0.370601,-0.085555,-0.990174,0.110615,-0.055391,-0.729018,0.112209,-19.674276,-42.786018,-9.014133,,,,,,,
1558972664.385524,-2.438259,1.429809,2.798628,-0.199807,0.013746,0.205205,-0.090883,-0.990078,0.107173,-0.020490,-0.593556,0.075459,-20.085810,-42.563698,-9.157871,,,,,,,
1558972664.405528,-2.401938,1.432091,2.764195,-0.258749,0.149131,0.055916,-0.093192,-0.990396,0.102133,-0.005990,-0.446158,0.028162,-20.234505,-42.450546,-9.353657,,,,,,,
1558972664.425513,-2.380664,1.436425,2.746228,-0.223258,0.165549,-0.149955,-0.092383,-0.990986,0.097018,-0.002527,-0.286755,0.029629,-20.251589,-42.411961,-9.490723,,,,,,,
1558972664.445479,-2.399082,1.442570,2.766364,-0.062633,0.021651,-0.390357,-0.086462,-0.991790,0.094215,-0.026240,-0.146927,0.048592,-20.052069,-42.421238,-9.865503,,,,,,,
1558972664.465483,-2.461167,1.448482,2.828509,0.056624,-0.032037,-0.531704,-0.076759,-0.992529,0.094839,-0.007164,-0.075251,0.050211,-19.702248,-42.575558,-9.905461,,,,,,,
1558972664.485468,-2.537514,1.453729,2.904749,0.070422,-0.025707,-0.491062,-0.066343,-0.993155,0.096130,0.012922,-0.001428,0.046219,-19.483227,-42.682732,-9.877410,,,,,,,
1558972664.505447,-2.627435,1.453429,2.994892,0.086325,0.007163,-0.366890,-0.057589,-0.993120,0.101958,0.008547,0.066179,0.039140,-18.832989,-43.038853,-9.589088,,,,,,,
1558972664.525437,-2.686309,1.455790,3.054362,0.028842,0.006406,-0.368011,-0.050459,-0.993394,0.103064,-0.028719,0.095979,0.029077,-18.515167,-43.191135,-9.523087,,,,,,,
1558972664.545424,-2.747676,1.459495,3.116221,-0.044566,0.003569,-0.402262,-0.042630,-0.993812,0.102566,-0.038195,0.121910,0.025273,-18.357084,-43.261990,-9.507498,,,,,,,
1558972664.565382,-2.807977,1.462822,-3.106181,-0.026553,0.001437,-0.351021,-0.035289,-0.994176,0.101823,-0.034612,0.146719,0.017516,-17.847507,-43.465302,-9.550342,,,,,,,
1558972664.585393,-2.861419,1.464369,-3.052728,0.036027,-0.022000,-0.252972,-0.029374,-0.994342,0.102084,-0.004531,0.142047,0.002820,-17.551573,-43.582382,-9.565205,,,,,,,
1558972664.605379,-2.899226,1.464720,-3.015338,0.025180,-0.041892,-0.162421,-0.025411,-0.994379,0.102783,0.004277,0.117182,-0.011917,-17.436554,-43.632092,-9.548939,,,,,,,
1558972664.625364,-2.919372,1.464836,-2.995748,0.010217,-0.021605,-0.077895,-0.023309,-0.994392,0.103161,-0.027029,0.105399,-0.009701,-17.221949,-43.729794,-9.491273,,,,,,,
1558972664.645348,-2.935472,1.465645,-2.979489,-0.037537,0.010314,-0.106454,-0.021481,-0.994477,0.102735,-0.038944,0.096634,-0.006666,-17.152395,-43.758560,-9.484659,,,,,,,
1558972664.665306,-2.908527,1.463381,-3.006535,-0.003739,-0.053219,-0.064312,-0.024761,-0.994237,0.104311,-0.033665,0.075062,-0.002901,-17.261967,-43.726002,-9.435877,,,,,,,
1558972664.685319,-2.916639,1.463134,-2.999659,0.019626,-0.051167,-0.023703,-0.023969,-0.994210,0.104747,-0.032306,0.058587,-0.010951,-17.236229,-43.743671,-9.400969,,,,,,,
1558972664.705303,-2.918977,1.463392,-2.997298,-0.030179,0.025224,-0.006997,-0.023667,-0.994238,0.104553,-0.002364,0.025564,-0.011093,-17.226292,-43.750465,-9.387567,,,,,,,
1558972664.725288,-2.932332,1.466734,-2.983680,-0.075013,0.005428,0.029069,-0.021578,-0.994590,0.101608,0.023959,0.012840,-0.024628,-17.117016,-43.772682,-9.483399,,,,,,,
1558972664.745253,-2.923816,1.470448,-2.992173,-0.047382,0.002182,0.069624,-0.021645,-0.994969,0.097814,0.011162,0.017858,-0.027272,-17.158745,-43.736118,-9.576218,,,,,,,
1558972664.765239,-2.913040,1.470532,-3.002857,0.010192,0.013452,0.033478,-0.022679,-0.994978,0.097494,0.012196,0.017866,-0.026952,-17.158745,-43.736118,-9.576218,,,,,,,
1558972664.785230,-2.918661,1.471313,-2.997336,0.000609,-0.020434,-0.041591,-0.021958,-0.995056,0.096862,0.006883,-0.007096,-0.003844,-17.149115,-43.702492,-9.745483,,,,,,,
1558972664.805228,-2.933265,1.474414,-2.982770,-0.051455,0.005189,-0.053134,-0.019903,-0.995359,0.094152,0.008963,-0.002185,-0.022085,-17.098715,-43.717949,-9.764713,,,,,,,
1558972664.825206,-2.929540,1.474852,-2.986208,0.000602,0.020924,0.049552,-0.020162,-0.995401,0.093651,0.012945,0.000848,-0.025398,-17.045813,-43.714523,-9.871956,,,,,,,
1558972664.845184,-2.913690,1.476059,-3.001444,0.058063,0.046085,0.113895,-0.021373,-0.995516,0.092150,0.010005,-0.003920,-0.028444,-17.113562,-43.687706,-9.873444,,,,,,,
1558972664.865184,-2.894804,1.474377,-3.018909,0.050830,0.094687,0.074852,-0.023518,-0.995355,0.093352,-0.014248,-0.033392,-0.013854,-17.164375,-43.652859,-9.939156,,,,,,,
1558972664.885146,-2.895086,1.473977,-3.016327,0.014962,0.132729,-0.058269,-0.023589,-0.995317,0.093746,-0.014436,-0.058593,-0.002438,-17.180895,-43.646889,-9.936840,,,,,,,
1558972664.905144,-2.904482,1.474168,-3.003585,-0.003025,0.179376,-0.029010,-0.022662,-0.995335,0.093779,0.042499,-0.185939,0.007448,-17.075302,-43.675884,-9.991304,,,,,,,
1558972664.925139,-2.881330,1.474153,-3.022152,-0.027474,0.278094,0.164091,-0.024831,-0.995334,0.093244,0.042882,-0.252988,0.018359,-17.054825,-43.670555,-10.049399,,,,,,,
1558972664.945097,-2.831964,1.472933,-3.064376,0.034665,0.417352,0.203909,-0.029772,-0.995215,0.093061,0.009600,-0.400903,0.063509,-17.117468,-43.625557,-10.137941,,,,,,,
1558972664.965080,-2.822803,1.471100,-3.065114,0.096793,0.389065,-0.116606,-0.031195,-0.995034,0.094516,-0.077753,-0.624671,0.176785,-17.187449,-43.562824,-10.288181,,,,,,,
1558972664.985094,-2.907368,1.473444,-2.973792,-0.075194,0.274984,-0.673012,-0.022559,-0.995265,0.094544,-0.094034,-0.686833,0.215408,-16.965803,-43.639282,-10.331959,,,,,,,
1558972665.005078,-3.086011,1.481441,-2.789944,-0.377350,0.176735,-0.993421,-0.004957,-0.996010,0.089099,-0.061647,-0.771247,0.225857,-16.485424,-43.794258,-10.453163,,,,,,,
1558972665.025047,2.957879,1.490021,-2.546924,-0.539205,0.157492,-1.000141,0.014740,-0.996739,0.079330,0.050354,-0.877559,0.119157,-15.148124,-44.128601,-11.053311,,,,,,,
