timestamp(unix),attitude_roll(radians),attitude_pitch(radians),attitude_yaw(radians),rotation_rate_x(radians/s),rotation_rate_y(radians/s),rotation_rate_z(radians/s),gravity_x(G),gravity_y(G),gravity_z(G),user_acc_x(G),user_acc_y(G),user_acc_z(G),magnetic_field_x(microteslas),magnetic_field_y(microteslas),magnetic_field_z(microteslas),latitude(degree),longitude(degree),altitude(meter),speed(m/s),course(degree),timestamp(unix),User Mark
1558971895.418893,-1.030726,1.513535,0.389024,0.002188,0.006447,-0.044647,-0.049085,-0.998361,-0.029427,-0.011188,-0.002768,-0.008216,-17.770658,-40.606457,-4.839323,,,,,,,
1558971895.438877,-1.022598,1.514255,0.380867,0.025598,-0.000032,-0.054298,-0.048231,-0.998402,-0.029451,-0.009768,0.000340,-0.013044,-17.739277,-40.620716,-4.834748,,,,,,,
1558971895.458849,-1.014764,1.515508,0.373306,0.012848,0.019099,-0.028504,-0.046936,-0.998472,-0.029168,0.004730,0.010221,-0.000129,-17.683968,-40.644962,-4.833586,,,,,,,
1558971895.478852,-1.012499,1.516196,0.371604,0.002213,0.031871,-0.007039,-0.046287,-0.998510,-0.028910,0.009864,0.012639,0.005823,-19.663527,-39.199093,-1.772889,,,,,,,
1558971895.498812,-1.011368,1.516502,0.370980,0.023430,0.012743,-0.000801,-0.045996,-0.998526,-0.028800,0.008627,0.012076,-0.001748,-19.650873,-39.205414,-1.773445,,,,,,,
1558971895.518818,-1.028361,1.517259,0.387897,0.032929,-0.000053,-0.001985,-0.045831,-0.998567,-0.027624,-0.001670,0.007448,0.012915,-19.632811,-39.215694,-1.745913,,,,,,,
1558971895.538812,-1.035485,1.517300,0.395412,-0.006371,0.024460,-0.004984,-0.045992,-0.998569,-0.027276,-0.009383,0.002674,0.009942,-19.633577,-39.216293,-1.723753,,,,,,,
1558971895.558796,-1.033208,1.517522,0.393415,-0.002146,0.006443,-0.022235,-0.045739,-0.998581,-0.027267,-0.002494,0.013169,0.007874,-19.638626,-39.213749,-1.724183,,,,,,,
1558971895.578755,-1.034007,1.518739,0.394138,0.048883,-0.011788,-0.018101,-0.044715,-0.998645,-0.026609,0.019980,0.017490,0.000165,-19.612352,-39.227604,-1.707847,,,,,,,
1558971895.598771,-1.046009,1.520199,0.406196,0.016987,0.010613,0.006640,-0.043769,-0.998720,-0.025340,0.015235,0.013002,0.012537,-19.565628,-39.252888,-1.662336,,,,,,,
1558971895.618746,-1.049235,1.519777,0.409444,-0.034215,-0.010219,0.033090,-0.044216,-0.998699,-0.025408,0.004650,0.006160,0.010897,-19.556259,-39.258141,-1.648506,,,,,,,
1558971895.638745,-1.049782,1.518620,0.409647,-0.049098,-0.016521,0.007397,-0.045233,-0.998639,-0.025959,-0.018778,-0.009829,0.001347,-19.592089,-39.239773,-1.660356,,,,,,,
1558971895.658732,-1.039832,1.518422,0.399083,0.009402,-0.040115,-0.014134,-0.045143,-0.998629,-0.026509,0.004311,-0.006010,-0.009166,-19.614262,-39.228069,-1.675070,,,,,,,
1558971895.678717,-1.043214,1.518881,0.401640,0.035960,-0.035010,0.001947,-0.044836,-0.998653,-0.026125,0.008184,-0.000249,-0.011733,-19.605349,-39.232769,-1.669336,,,,,,,
1558971895.698704,-1.046127,1.518849,0.404728,-0.020212,0.041396,0.005836,-0.044939,-0.998651,-0.026010,-0.007994,-0.002448,0.005731,-19.591881,-39.240574,-1.643779,,,,,,,
1558971895.718669,-1.031663,1.518527,0.391275,-0.047898,0.035188,-0.001720,-0.044834,-0.998634,-0.026822,0.004154,-0.000816,0.000165,-19.599604,-39.235023,-1.683709,,,,,,,
1558971895.738677,-1.023844,1.518219,0.383250,-0.009759,-0.019977,-0.001149,-0.044887,-0.998618,-0.027332,-0.001820,0.000083,-0.002361,-19.594915,-39.236431,-1.705351,,,,,,,
1558971895.758664,-1.027404,1.517970,0.386461,-0.001154,-0.011626,-0.041630,-0.045196,-0.998605,-0.027301,-0.022279,0.005121,0.002581,-19.597540,-39.234955,-1.709133,,,,,,,
1558971895.778649,-1.010499,1.518843,0.370006,-0.032862,0.043459,-0.072089,-0.043990,-0.998651,-0.027598,0.004714,0.012918,-0.000875,-19.595537,-39.236145,-1.704767,,,,,,,
1558971895.798636,-0.979229,1.519885,0.339139,-0.003288,0.003234,-0.007329,-0.042241,-0.998704,-0.028379,0.030980,0.018648,-0.006549,-19.550066,-39.257488,-1.735200,,,,,,,
1558971895.818624,-0.971180,1.519630,0.331123,-0.007642,0.002290,0.053511,-0.042222,-0.998691,-0.028862,0.008774,0.021137,-0.008019,-19.488474,-39.286346,-1.774491,,,,,,,
1558971895.838585,-0.977202,1.518359,0.337125,-0.004525,-0.004160,0.031031,-0.043448,-0.998625,-0.029317,-0.011469,0.017882,-0.007960,-19.516172,-39.271786,-1.792234,,,,,,,
1558971895.858583,-0.985633,1.517813,0.345857,0.002104,0.039043,-0.035808,-0.044148,-0.998597,-0.029251,-0.025554,0.005906,0.003418,-19.544010,-39.257515,-1.801508,,,,,,,
1558971895.878584,-0.975428,1.518387,0.336775,-0.009540,0.048584,-0.058145,-0.043371,-0.998627,-0.029378,0.003714,0.004914,0.001103,-19.576672,-39.240993,-1.806904,,,,,,,
1558971895.898540,-0.948807,1.520137,0.310266,0.028498,-0.002239,0.018260,-0.041155,-0.998717,-0.029505,0.029940,0.001555,-0.005605,-19.469591,-39.292789,-1.837923,,,,,,,
1558971895.918556,-0.959981,1.519796,0.321442,-0.021527,0.010745,0.042899,-0.041760,-0.998700,-0.029237,0.013043,-0.002261,0.007371,-19.466354,-39.294952,-1.825937,,,,,,,
1558971895.938543,-0.968491,1.518747,0.330298,-0.037449,0.006545,0.005481,-0.042871,-0.998646,-0.029475,-0.013770,-0.005093,0.008311,-19.493952,-39.281517,-1.820582,,,,,,,
1558971895.958507,-0.960074,1.518804,0.321140,0.026259,-0.053020,-0.019594,-0.042575,-0.998649,-0.029802,0.007663,0.005713,-0.008894,-19.514637,-39.270130,-1.844477,,,,,,,
1558971895.978514,-0.965974,1.519407,0.326312,0.017877,-0.010691,-0.015993,-0.042254,-0.998680,-0.029208,-0.000074,0.004844,-0.003202,-19.499023,-39.279186,-1.816590,,,,,,,
1558971895.998494,-0.955893,1.519153,0.317309,-0.056474,0.074244,0.006097,-0.042164,-0.998667,-0.029778,-0.002544,0.009424,0.001626,-19.490202,-39.284294,-1.800728,,,,,,,
1558971896.018488,-0.937279,1.518751,0.299683,0.004030,0.025312,0.012080,-0.041927,-0.998646,-0.030796,0.008159,0.023258,-0.009441,-19.482420,-39.283722,-1.894988,,,,,,,
1558971896.038473,-0.956562,1.518807,0.319233,0.041222,0.019877,0.043019,-0.042466,-0.998649,-0.029949,0.007402,0.027595,0.003277,-19.482450,-39.283470,-1.899902,,,,,,,
1558971896.058461,-0.984564,1.518948,0.346918,0.037780,-0.048786,0.059440,-0.043172,-0.998656,-0.028671,0.010915,0.011123,0.013198,-19.523869,-39.265663,-1.841925,,,,,,,
1558971896.078448,-0.993131,1.518094,0.355092,-0.042940,0.007665,0.063118,-0.044130,-0.998612,-0.028766,0.013262,0.002045,0.007632,-19.553082,-39.252724,-1.807561,,,,,,,
1558971896.098421,-0.994939,1.516358,0.357651,-0.025795,0.042457,0.063465,-0.045636,-0.998519,-0.029630,-0.002597,0.006575,-0.004779,-19.598400,-39.228485,-1.842542,,,,,,,
1558971896.118397,-1.006191,1.514589,0.369358,0.007202,0.016832,0.007734,-0.047458,-0.998421,-0.030059,-0.020931,0.000481,0.000579,-19.677845,-39.186523,-1.888213,,,,,,,
1558971896.138407,-1.008356,1.514726,0.371473,0.023079,-0.024522,-0.023610,-0.047409,-0.998428,-0.029884,-0.014237,-0.001724,-0.006660,-19.691475,-39.179787,-1.885914,,,,,,,
1558971896.158393,-1.014345,1.515568,0.376808,0.049598,-0.033180,-0.033301,-0.046872,-0.998475,-0.029155,-0.002719,-0.002150,-0.006184,-19.685072,-39.184025,-1.864577,,,,,,,
1558971896.178381,-1.027290,1.516966,0.389315,0.060287,-0.022676,-0.039598,-0.046050,-0.998551,-0.027824,0.005416,0.005510,0.005790,-19.653313,-39.203072,-1.798067,,,,,,,
1558971896.198367,-1.038368,1.518604,0.400006,0.016687,-0.004460,-0.027717,-0.044948,-0.998638,-0.026482,0.012675,0.012020,0.012429,-19.613842,-39.225758,-1.733101,,,,,,,
1558971896.218353,-1.029366,1.518967,0.390975,-0.023838,-0.006293,0.018140,-0.044397,-0.998657,-0.026699,0.024835,0.007492,0.003399,-19.594122,-39.236225,-1.719154,,,,,,,
1558971896.238326,-1.025389,1.518720,0.386530,-0.027133,-0.026323,0.042498,-0.044501,-0.998644,-0.027003,-0.001763,-0.002561,0.005382,-19.570963,-39.247173,-1.732930,,,,,,,
1558971896.258312,-1.025563,1.517845,0.386583,-0.031252,0.003254,0.015020,-0.045253,-0.998598,-0.027449,-0.009588,-0.002851,0.007429,-19.594885,-39.234924,-1.739938,,,,,,,
1558971896.278293,-1.028439,1.517186,0.389201,0.002780,-0.024466,-0.024718,-0.045895,-0.998563,-0.027658,-0.019138,0.000028,-0.001593,-19.627632,-39.218029,-1.751670,,,,,,,
1558971896.298294,-1.030384,1.517637,0.390428,0.028286,-0.038347,-0.028032,-0.045563,-0.998587,-0.027337,-0.004761,0.002478,-0.004981,-19.624741,-39.220451,-1.729794,,,,,,,
1558971896.318279,-1.031206,1.518107,0.390878,0.010204,0.000859,0.001135,-0.045183,-0.998612,-0.027059,0.007097,0.008897,-0.002283,-19.623510,-39.221294,-1.724601,,,,,,,
1558971896.338259,-1.036214,1.518014,0.396255,0.013442,0.013523,-0.000876,-0.045397,-0.998607,-0.026879,-0.003172,0.007503,0.003610,-19.613302,-39.227024,-1.710420,,,,,,,
1558971896.358235,-1.042181,1.518555,0.401848,0.011233,-0.033046,-0.049367,-0.045090,-0.998636,-0.026335,-0.008743,0.006433,0.005171,-19.607433,-39.230927,-1.687970,,,,,,,
1558971896.378244,-1.032797,1.519852,0.391924,-0.013194,-0.014944,-0.046012,-0.043729,-0.998703,-0.026094,0.015653,0.010452,0.002076,-19.605194,-39.232468,-1.678229,,,,,,,
1558971896.398232,-1.010787,1.520427,0.369637,-0.031347,-0.010550,0.000989,-0.042657,-0.998732,-0.026744,0.019067,0.009840,0.000255,-19.526623,-39.271984,-1.670018,,,,,,,
1558971896.418219,-0.997542,1.520057,0.356358,-0.035575,0.007470,0.020374,-0.042610,-0.998713,-0.027508,0.004769,0.008524,0.001446,-19.507732,-39.279934,-1.703317,,,,,,,
1558971896.438205,-0.990462,1.519257,0.349467,-0.027031,0.008456,0.003309,-0.043082,-0.998672,-0.028246,-0.011102,0.011871,-0.001402,-19.515289,-39.275066,-1.728744,,,,,,,
1558971896.458191,-0.974572,1.518863,0.333750,-0.016367,0.007318,-0.013775,-0.042954,-0.998652,-0.029149,0.003464,0.014841,-0.013591,-19.529375,-39.266636,-1.761042,,,,,,,
1558971896.478179,-0.965390,1.518944,0.324434,0.038772,-0.025742,0.012634,-0.042617,-0.998656,-0.029496,0.008697,0.007247,-0.020736,-19.512165,-39.274033,-1.786644,,,,,,,
1558971896.498165,-1.006626,1.519952,0.365475,0.047502,0.024906,-0.015699,-0.042947,-0.998708,-0.027176,0.009820,-0.029536,0.138641,-19.524755,-39.271431,-1.704455,,,,,,,
1558971896.518151,-0.955080,1.519291,0.314801,-0.273957,0.018102,-0.040578,-0.042029,-0.998674,-0.029734,0.033972,-0.044509,0.179102,-19.524755,-39.271431,-1.704455,,,,,,,
1558971896.538138,-0.838232,1.513483,0.196682,-0.453216,-0.068549,0.052402,-0.042588,-0.998358,-0.038310,0.043809,-0.008905,0.070369,-19.482777,-39.283997,-1.885522,,,,,,,
1558971896.558124,-0.783244,1.508074,0.139232,-0.193881,-0.169204,0.097555,-0.044227,-0.998034,-0.044417,0.040671,0.035586,-0.123368,-19.552191,-39.226852,-2.309171,,,,,,,
1558971896.578090,-0.818200,1.506857,0.170303,0.147736,-0.184709,0.119033,-0.046639,-0.997957,-0.043675,0.011513,0.044633,-0.116588,-19.552191,-39.226852,-2.309171,,,,,,,
1558971896.598073,-0.893858,1.508545,0.244197,0.241918,-0.065878,0.041240,-0.048494,-0.998063,-0.038970,-0.065093,0.019532,-0.037110,-19.735178,-39.148689,-2.066196,,,,,,,
1558971896.618075,-0.939716,1.511665,0.289612,0.176259,-0.016027,-0.075777,-0.047714,-0.998252,-0.034868,-0.069459,0.014717,-0.022414,-19.739141,-39.154217,-1.918329,,,,,,,
1558971896.638063,-0.948967,1.514626,0.298982,0.060354,0.026800,-0.100028,-0.045632,-0.998423,-0.032703,-0.047279,-0.012289,-0.005856,-19.673635,-39.193462,-1.785100,,,,,,,
1558971896.658049,-0.936200,1.515777,0.287114,-0.017363,0.047368,-0.048647,-0.044285,-0.998487,-0.032602,0.012470,0.001401,-0.013587,-19.588387,-39.237133,-1.763230,,,,,,,
1558971896.678044,-0.922584,1.515740,0.274290,-0.029177,0.036930,-0.001780,-0.043867,-0.998485,-0.033224,0.012785,0.009639,-0.015650,-19.565266,-39.247398,-1.791142,,,,,,,
1558971896.698028,-0.915470,1.515323,0.267730,-0.023905,0.027408,0.010945,-0.043960,-0.998462,-0.033789,0.023513,0.013186,-0.017999,-19.561781,-39.247459,-1.827544,,,,,,,
1558971896.718017,-0.920304,1.515147,0.273312,0.025119,0.046179,0.013299,-0.044262,-0.998452,-0.033683,0.008526,0.010690,-0.013986,-19.574270,-39.240093,-1.851895,,,,,,,
1558971896.738004,-0.934188,1.515816,0.288111,0.071957,0.037448,-0.005965,-0.044189,-0.998489,-0.032668,0.006881,0.000106,-0.011918,-19.575747,-39.239666,-1.845211,,,,,,,
1558971896.757990,-0.955625,1.517011,0.310281,0.081547,0.035266,-0.017722,-0.043903,-0.998554,-0.031024,0.010349,-0.009976,0.016437,-19.568649,-39.245255,-1.801225,,,,,,,
1558971896.777977,-0.974176,1.518205,0.329585,0.074117,0.037405,-0.027317,-0.043485,-0.998617,-0.029535,-0.001574,-0.000833,0.026880,-19.550333,-39.257114,-1.740698,,,,,,,
1558971896.797963,-0.981846,1.519393,0.337798,0.034629,0.014294,-0.039332,-0.042725,-0.998679,-0.028542,-0.000183,0.004722,0.020546,-19.530167,-39.268387,-1.712446,,,,,,,
1558971896.817934,-0.984206,1.520782,0.340297,-0.014410,0.002962,-0.013858,-0.041637,-0.998750,-0.027673,0.017086,0.006776,0.024057,-19.479185,-39.295750,-1.664802,,,,,,,
1558971896.837936,-0.978405,1.520662,0.334389,-0.032623,-0.012732,0.029748,-0.041575,-0.998744,-0.027981,0.012232,0.003504,0.010586,-19.477896,-39.295467,-1.686422,,,,,,,
1558971896.857902,-0.982108,1.520039,0.337960,-0.031523,-0.002166,0.030918,-0.042195,-0.998712,-0.028172,0.003911,0.007562,0.013951,-19.484394,-39.292160,-1.688432,,,,,,,
1558971896.877908,-0.986726,1.519420,0.342498,-0.017635,-0.002289,-0.002168,-0.042841,-0.998681,-0.028318,-0.014029,0.006066,0.009290,-19.518663,-39.275425,-1.681976,,,,,,,
1558971896.897896,-0.979643,1.519534,0.335034,-0.003908,-0.028763,0.013603,-0.042545,-0.998686,-0.028557,0.012928,0.006957,-0.000617,-19.518536,-39.275108,-1.690865,,,,,,,
1558971896.917857,-0.980852,1.518931,0.335773,-0.004962,-0.021346,0.022214,-0.043079,-0.998655,-0.028840,-0.001278,0.002333,-0.007018,-19.524420,-39.272011,-1.694763,,,,,,,
1558971896.937868,-0.981662,1.518565,0.336427,-0.020795,0.004055,-0.011719,-0.043407,-0.998636,-0.029009,-0.009281,0.002954,0.001330,-19.532213,-39.268219,-1.692948,,,,,,,
1558971896.957827,-0.957761,1.518578,0.312943,-0.017611,0.021988,0.003379,-0.042689,-0.998637,-0.030030,0.014552,0.013957,-0.011581,-19.530066,-39.267906,-1.724688,,,,,,,
1558971896.977824,-0.951635,1.517985,0.307128,-0.003868,0.008222,0.035287,-0.042988,-0.998606,-0.030635,0.007420,0.013910,-0.012990,-19.518177,-39.271637,-1.773576,,,,,,,
1558971896.997809,-0.957980,1.517209,0.313471,-0.001737,-0.002396,0.010632,-0.043814,-0.998565,-0.030807,-0.009714,0.008590,-0.006028,-19.532349,-39.264530,-1.774937,,,,,,,
1558971897.017804,-0.961940,1.516113,0.317424,-0.015505,0.010330,-0.009538,-0.044834,-0.998505,-0.031259,-0.015225,0.002885,-0.003897,-19.583363,-39.238571,-1.786828,,,,,,,
1558971897.037801,-0.931639,1.515523,0.287423,0.001512,0.008128,-0.008479,-0.044340,-0.998473,-0.032955,0.014067,0.019881,-0.020039,-19.594408,-39.230225,-1.847962,,,,,,,
1558971897.057771,-0.936336,1.515844,0.292259,0.056845,0.013157,0.015101,-0.044237,-0.998491,-0.032557,0.009721,0.024614,-0.014150,-19.594408,-39.230225,-1.847962,,,,,,,
1558971897.077775,-0.946482,1.516619,0.302840,0.052625,0.022685,0.009848,-0.043936,-0.998533,-0.031653,0.011206,0.017423,0.001136,-19.566172,-39.243706,-1.860867,,,,,,,
1558971897.097761,-0.962654,1.517544,0.319680,0.016463,0.035573,0.019549,-0.043685,-0.998582,-0.030412,0.009429,0.002687,0.008759,-19.557236,-39.250908,-1.801922,,,,,,,
1558971897.117746,-0.975662,1.517303,0.332923,0.016289,-0.006729,0.028735,-0.044276,-0.998570,-0.029975,-0.001028,-0.002315,0.007225,-19.557236,-39.250908,-1.801922,,,,,,,
1558971897.137709,-0.999254,1.517570,0.356262,0.008857,-0.008827,0.013762,-0.044746,-0.998584,-0.028778,0.003776,-0.004788,0.010788,-19.594183,-39.235222,-1.741055,,,,,,,
1558971897.157720,-1.004283,1.517358,0.361252,-0.006031,-0.003461,0.015937,-0.045068,-0.998572,-0.028666,0.000162,-0.004968,0.007731,-19.603113,-39.231274,-1.729594,,,,,,,
1558971897.177675,-1.007232,1.517203,0.364297,-0.026120,0.015600,-0.031939,-0.045283,-0.998564,-0.028616,-0.018575,-0.003175,0.015890,-19.624163,-39.221539,-1.711528,,,,,,,
1558971897.197682,-0.986475,1.518092,0.343727,-0.017653,0.000756,-0.032077,-0.043940,-0.998611,-0.029060,0.029520,0.008865,-0.005898,-19.596197,-39.234554,-1.733520,,,,,,,
1558971897.217662,-0.977553,1.518441,0.334760,0.002477,0.000744,0.030928,-0.043389,-0.998630,-0.029256,0.027886,0.013904,-0.006114,-19.557297,-39.253464,-1.744699,,,,,,,
1558971897.237653,-0.981329,1.517669,0.339110,-0.020848,0.036830,0.047269,-0.044141,-0.998589,-0.029521,0.006116,0.014275,0.001811,-19.551336,-39.255909,-1.756375,,,,,,,
1558971897.257653,-0.993480,1.516499,0.351627,0.009953,-0.001441,0.009562,-0.045475,-0.998526,-0.029620,-0.017742,0.007895,-0.000715,-19.601660,-39.229614,-1.782886,,,,,,,
1558971897.277639,-1.007209,1.516732,0.364707,0.042863,-0.038660,-0.018544,-0.045680,-0.998539,-0.028868,-0.015874,0.004810,0.001585,-19.619904,-39.221249,-1.766217,,,,,,,
1558971897.297625,-1.014518,1.517195,0.371774,0.008915,0.001703,-0.006440,-0.045499,-0.998564,-0.028290,-0.004260,0.006453,0.005738,-19.626722,-39.219990,-1.717724,,,,,,,
1558971897.317612,-1.008107,1.517329,0.365461,-0.007127,-0.007683,0.022281,-0.045202,-0.998571,-0.028509,0.011785,0.012457,-0.005900,-19.617523,-39.224663,-1.716144,,,,,,,
1558971897.337598,-1.014658,1.516958,0.371756,0.008788,-0.016199,0.038226,-0.045702,-0.998551,-0.028408,0.011416,0.015443,-0.002903,-19.625364,-39.220638,-1.718415,,,,,,,
1558971897.357585,-1.024682,1.516316,0.381832,0.005708,0.015518,0.032122,-0.046533,-0.998516,-0.028281,-0.004386,0.010479,-0.000039,-19.650827,-39.208233,-1.710503,,,,,,,
1558971897.377572,-1.040904,1.515333,0.398325,0.013172,0.009103,0.009649,-0.047833,-0.998462,-0.028019,-0.013645,-0.000515,0.003025,-19.699600,-39.183807,-1.709243,,,,,,,
1558971897.397544,-1.050464,1.515460,0.407756,0.028026,-0.018499,-0.018361,-0.047988,-0.998469,-0.027498,-0.005951,0.004329,0.002015,-19.712156,-39.178024,-1.696853,,,,,,,
1558971897.417544,-1.055944,1.516359,0.413001,0.026988,-0.008976,-0.015068,-0.047358,-0.998519,-0.026793,0.008982,0.011077,0.004255,-19.703087,-39.184078,-1.662131,,,,,,,
1558971897.437532,-1.051592,1.517502,0.408617,0.025872,0.001678,0.037325,-0.046249,-0.998580,-0.026431,0.038161,0.020828,-0.002927,-19.681067,-39.196247,-1.635819,,,,,,,
1558971897.457500,-1.072548,1.516467,0.429939,0.005654,0.024049,0.082364,-0.047701,-0.998524,-0.025951,-0.001325,0.014943,0.009624,-19.693245,-39.190765,-1.620588,,,,,,,
1558971897.477504,-1.081820,1.515355,0.439493,-0.037971,0.003051,0.024476,-0.048919,-0.998464,-0.026028,-0.017625,-0.007793,0.017850,-19.723623,-39.175308,-1.624776,,,,,,,
1558971897.497491,-1.072897,1.514429,0.430384,-0.031630,-0.018147,0.008265,-0.049498,-0.998412,-0.026906,-0.003236,-0.014131,-0.010569,-19.775417,-39.148277,-1.646660,,,,,,,
1558971897.517462,-1.072034,1.513774,0.429059,0.008764,-0.023608,0.032801,-0.050049,-0.998375,-0.027262,-0.002853,-0.009301,-0.011328,-19.786547,-39.141983,-1.662514,,,,,,,
1558971897.537463,-1.079858,1.513246,0.436588,0.016334,0.001685,0.008494,-0.050725,-0.998344,-0.027117,-0.010707,-0.004875,-0.011076,-19.822853,-39.123528,-1.664447,,,,,,,
1558971897.557451,-1.075497,1.513247,0.432670,-0.010149,0.026086,-0.024390,-0.050605,-0.998345,-0.027338,-0.006676,0.003166,-0.001272,-19.828129,-39.121231,-1.655589,,,,,,,
1558971897.577434,-1.066696,1.513446,0.424011,0.035494,-0.006903,-0.011857,-0.050189,-0.998356,-0.027686,-0.003369,0.011128,-0.003030,-19.805229,-39.131222,-1.693183,,,,,,,
1558971897.597423,-1.086510,1.513917,0.443759,0.055748,0.004629,-0.008543,-0.050311,-0.998383,-0.026467,-0.009442,0.005814,0.002572,-19.805805,-39.131596,-1.677745,,,,,,,
1558971897.617407,-1.107546,1.514383,0.465365,0.003745,0.039746,-0.033870,-0.050441,-0.998409,-0.025196,-0.013188,0.007473,0.018436,-19.820179,-39.126877,-1.616799,,,,,,,
1558971897.637396,-1.098569,1.515871,0.456757,-0.018745,0.001823,-0.025714,-0.048891,-0.998492,-0.024972,0.024507,0.018359,-0.005591,-19.781563,-39.147469,-1.591284,,,,,,,
1558971897.657381,-1.097451,1.515616,0.455451,0.000289,-0.010877,0.030765,-0.049089,-0.998478,-0.025142,0.024705,0.018345,-0.005421,-19.753330,-39.161297,-1.601641,,,,,,,
1558971897.677369,-1.098677,1.515503,0.456640,-0.000739,0.001817,0.034087,-0.049219,-0.998472,-0.025133,0.007593,0.014814,0.004808,-19.753170,-39.161312,-1.603260,,,,,,,
1558971897.697356,-1.113599,1.514958,0.471574,0.010972,-0.002487,0.024447,-0.050077,-0.998441,-0.024636,-0.008685,0.011854,0.007806,-19.788507,-39.144035,-1.589232,,,,,,,
1558971897.717316,-1.119827,1.514984,0.477545,0.001394,-0.022587,-0.020594,-0.050207,-0.998443,-0.024313,-0.004374,0.005279,0.005773,-19.805767,-39.135811,-1.576844,,,,,,,
1558971897.737324,-1.116689,1.515441,0.474447,-0.013380,0.019781,-0.013795,-0.049720,-0.998468,-0.024270,0.013465,-0.003195,-0.000617,-19.803495,-39.137794,-1.555966,,,,,,,
1558971897.757316,-1.110171,1.515512,0.468259,0.004587,-0.003515,0.016938,-0.049497,-0.998472,-0.024562,0.013425,-0.000475,-0.004171,-19.786333,-39.145782,-1.573226,,,,,,,
1558971897.777285,-1.123506,1.515573,0.480984,0.030070,-0.031157,-0.000388,-0.049766,-0.998476,-0.023874,-0.001763,0.003633,0.004510,-19.782866,-39.147533,-1.573247,,,,,,,
1558971897.797261,-1.124682,1.515998,0.481926,-0.003878,-0.003520,-0.016166,-0.049410,-0.998499,-0.023632,0.009143,0.002497,-0.001469,-19.787956,-39.146873,-1.524882,,,,,,,
1558971897.817275,-1.117453,1.516260,0.474322,-0.015663,-0.022472,-0.007816,-0.049003,-0.998513,-0.023874,0.009025,0.003671,-0.000708,-19.771868,-39.154892,-1.527708,,,,,,,
1558971897.837244,-1.114014,1.516289,0.470654,-0.007084,-0.007734,-0.017277,-0.048894,-0.998515,-0.024029,-0.001521,0.001796,0.000485,-19.759008,-39.161259,-1.530921,,,,,,,
1558971897.857246,-1.110800,1.516679,0.467331,-0.003849,0.001751,-0.024657,-0.048469,-0.998536,-0.024014,0.005531,0.008408,0.000988,-19.749479,-39.166130,-1.529249,,,,,,,
1558971897.877208,-1.095814,1.516771,0.452647,-0.033658,0.012516,0.001045,-0.048021,-0.998541,-0.024695,0.007448,0.011801,-0.005243,-19.730406,-39.175304,-1.540535,,,,,,,
1558971897.897192,-1.087162,1.516216,0.443832,0.007687,-0.021470,0.038119,-0.048296,-0.998511,-0.025367,-0.003690,0.014288,-0.009835,-19.714285,-39.181820,-1.580522,,,,,,,
1558971897.917180,-1.110067,1.515284,0.466222,0.030094,-0.023763,-0.005676,-0.049699,-0.998460,-0.024668,-0.024169,0.005799,0.006007,-19.767267,-39.155842,-1.562564,,,,,,,
1558971897.937194,-1.123336,1.515973,0.479022,0.029112,-0.015356,-0.041895,-0.049402,-0.998498,-0.023709,0.001337,0.006325,0.006452,-19.786081,-39.148197,-1.515252,,,,,,,
1558971897.957155,-1.116104,1.517246,0.471811,0.001440,0.008115,0.006348,-0.048087,-0.998567,-0.023507,0.025854,0.007417,-0.001013,-19.748758,-39.167835,-1.494531,,,,,,,
1558971897.977168,-1.107318,1.516590,0.463316,-0.033721,0.018937,0.051263,-0.048464,-0.998531,-0.024222,0.000948,0.007015,-0.004297,-19.730381,-39.176281,-1.515710,,,,,,,
1558971897.997127,-1.110298,1.515059,0.466727,-0.015562,0.019840,0.011786,-0.049905,-0.998447,-0.024756,-0.023032,0.008091,0.002372,-19.768568,-39.155811,-1.546776,,,,,,,
1558971898.017139,-1.115011,1.515481,0.471154,0.040787,-0.025990,-0.043056,-0.049642,-0.998471,-0.024335,0.000875,0.006420,0.002790,-19.802479,-39.138306,-1.556099,,,,,,,
1558971898.037127,-1.122471,1.516696,0.478534,0.015333,0.013289,-0.019214,-0.048730,-0.998537,-0.023439,0.009500,0.004915,0.008791,-19.762001,-39.160664,-1.507373,,,,,,,
1558971898.057109,-1.122482,1.517052,0.479002,-0.031488,0.023065,-0.007414,-0.048408,-0.998556,-0.023283,-0.000572,-0.002939,0.014723,-19.740206,-39.172028,-1.497645,,,,,,,
1558971898.077100,-1.107930,1.517243,0.464906,-0.054909,0.017882,-0.024596,-0.047895,-0.998566,-0.023901,0.005140,0.006913,0.005804,-19.730661,-39.176308,-1.511285,,,,,,,
1558971898.097087,-1.088803,1.517922,0.445290,0.007672,-0.045856,-0.016618,-0.046829,-0.998602,-0.024498,0.020553,0.012427,-0.007194,-19.694771,-39.192940,-1.547881,,,,,,,
1558971898.117046,-1.084634,1.518544,0.440449,0.022599,-0.026872,0.008129,-0.046176,-0.998635,-0.024403,0.013065,0.011666,-0.008724,-19.657633,-39.211906,-1.539526,,,,,,,
1558971898.137059,-1.087831,1.518613,0.443458,0.009854,-0.007745,0.030721,-0.046193,-0.998639,-0.024223,0.006154,0.009457,-0.004189,-19.644659,-39.218998,-1.524466,,,,,,,
1558971898.157046,-1.098342,1.517997,0.453726,0.005612,-0.007739,0.020042,-0.046994,-0.998606,-0.024017,-0.011783,0.000575,0.004943,-19.669203,-39.207043,-1.515496,,,,,,,
1558971898.177032,-1.103480,1.517725,0.458884,-0.003889,0.000716,-0.014048,-0.047359,-0.998592,-0.023897,-0.011525,-0.003147,0.000582,-19.692944,-39.195560,-1.503998,,,,,,,
1558971898.197018,-1.102240,1.517646,0.457583,-0.000764,-0.013020,0.000771,-0.047401,-0.998588,-0.023992,-0.005044,-0.003686,-0.003367,-19.695059,-39.194412,-1.506317,,,,,,,
1558971898.217006,-1.099517,1.517764,0.454475,-0.000761,-0.013023,-0.001365,-0.047229,-0.998594,-0.024067,0.003390,0.003614,-0.001660,-19.694733,-39.194687,-1.503560,,,,,,,
1558971898.236977,-1.099102,1.517738,0.454039,0.021624,0.001660,-0.002314,-0.047242,-0.998593,-0.024098,0.003068,0.007702,-0.003840,-19.694130,-39.194790,-1.508698,,,,,,,
1558971898.256977,-1.106851,1.518156,0.461797,0.024824,0.001637,-0.006582,-0.047054,-0.998615,-0.023545,-0.001408,0.013752,0.001923,-19.686047,-39.199360,-1.495311,,,,,,,
1558971898.276934,-1.110093,1.518337,0.465109,-0.008185,0.002881,0.003012,-0.046969,-0.998624,-0.023312,0.001605,0.011121,0.002636,-19.682619,-39.201828,-1.475597,,,,,,,
1558971898.296938,-1.106072,1.517940,0.461497,-0.014500,0.030414,0.015014,-0.047228,-0.998603,-0.023678,-0.001844,0.012092,-0.001301,-19.684942,-39.200352,-1.483788,,,,,,,
1558971898.316927,-1.105509,1.517809,0.461333,0.006739,0.010203,0.004161,-0.047332,-0.998596,-0.023763,0.004637,0.014038,-0.002559,-19.693312,-39.195271,-1.506904,,,,,,,
1558971898.336903,-1.105480,1.518194,0.461301,0.015211,-0.004645,0.000822,-0.046989,-0.998617,-0.023593,0.014106,0.015813,-0.006406,-19.692860,-39.195831,-1.498195,,,,,,,
1558971898.356883,-1.106866,1.518113,0.462764,0.014134,0.008098,0.036174,-0.047094,-0.998613,-0.023564,0.017217,0.010133,-0.010830,-19.687101,-39.198837,-1.495180,,,,,,,
1558971898.376894,-1.119445,1.517562,0.475777,0.022735,0.031297,0.029997,-0.047881,-0.998583,-0.023209,-0.003861,0.003024,-0.004028,-19.704538,-39.189957,-1.498278,,,,,,,
1558971898.396870,-1.129890,1.517379,0.486966,0.022755,0.032317,0.003270,-0.048286,-0.998574,-0.022786,0.001015,-0.007377,-0.000575,-19.733091,-39.175838,-1.491557,,,,,,,
1558971898.416870,-1.143089,1.517812,0.500281,0.041767,-0.011114,0.007139,-0.048189,-0.998597,-0.021967,0.010515,-0.008270,0.001871,-19.734402,-39.175621,-1.480117,,,,,,,
1558971898.436856,-1.156751,1.518233,0.513704,0.006679,-0.001423,0.002933,-0.048100,-0.998619,-0.021138,0.007466,-0.007561,0.013585,-19.724152,-39.182655,-1.429579,,,,,,,
1558971898.456844,-1.155783,1.518099,0.513023,-0.032657,0.021004,0.019130,-0.048201,-0.998612,-0.021238,0.003844,-0.001571,0.006803,-19.728636,-39.180405,-1.429484,,,,,,,
1558971898.476830,-1.151333,1.517581,0.508782,-0.003985,0.001834,0.023240,-0.048579,-0.998584,-0.021663,0.002421,0.002445,-0.000600,-19.736397,-39.175865,-1.446638,,,,,,,
1558971898.496816,-1.162718,1.517456,0.519829,0.035324,-0.029051,0.006961,-0.048937,-0.998578,-0.021158,-0.001768,0.015088,0.000589,-19.753962,-39.167110,-1.443856,,,,,,,
1558971898.516804,-1.190212,1.517357,0.546810,0.006689,-0.017339,-0.036720,-0.049591,-0.998572,-0.019841,-0.027710,0.008247,0.022069,-19.766027,-39.163036,-1.388271,,,,,,,
1558971898.536788,-1.185170,1.517684,0.541774,-0.041153,0.000884,-0.035515,-0.049189,-0.998590,-0.019968,-0.016272,0.006891,0.019800,-19.768280,-39.162445,-1.372600,,,,,,,
1558971898.556775,-1.171195,1.517796,0.527533,-0.035950,-0.010706,0.003833,-0.048803,-0.998596,-0.020610,0.006444,0.012466,0.008632,-19.753719,-39.169594,-1.378241,,,,,,,
1558971898.576763,-1.161714,1.517778,0.517898,-0.003022,-0.013992,0.043328,-0.048621,-0.998595,-0.021079,0.022879,0.027602,-0.005639,-19.745350,-39.173195,-1.395959,,,,,,,
1558971898.596721,-1.171251,1.517321,0.526687,0.026674,-0.051156,0.034453,-0.049239,-0.998571,-0.020791,-0.006593,0.019460,0.003442,-19.763620,-39.164104,-1.392315,,,,,,,
1558971898.616717,-1.181736,1.517046,0.536549,-0.002960,-0.014054,0.001688,-0.049709,-0.998556,-0.020379,-0.011677,0.012960,0.009301,-19.774855,-39.159103,-1.373331,,,,,,,
1558971898.636697,-1.175250,1.517188,0.530080,0.004500,-0.000317,0.025312,-0.049445,-0.998563,-0.020646,0.017005,0.004758,-0.007155,-19.789156,-39.152359,-1.359577,,,,,,,
1558971898.656688,-1.172048,1.517288,0.526916,0.018285,-0.001399,0.057338,-0.049288,-0.998569,-0.020766,0.023363,0.011523,-0.009431,-19.779148,-39.157211,-1.365483,,,,,,,
1558971898.676689,-1.181924,1.516426,0.536606,-0.004074,-0.008700,0.044438,-0.050287,-0.998522,-0.020604,-0.001013,0.007967,0.005346,-19.790977,-39.151173,-1.367226,,,,,,,
1558971898.696665,-1.183339,1.515567,0.537860,-0.009371,-0.012940,0.017703,-0.051109,-0.998475,-0.020857,-0.004768,-0.000441,-0.001833,-19.836880,-39.127983,-1.365871,,,,,,,
1558971898.716668,-1.180842,1.515498,0.534806,0.009667,-0.035208,0.032407,-0.051121,-0.998471,-0.021011,0.014439,0.000638,-0.005494,-19.844559,-39.124012,-1.368016,,,,,,,
1558971898.736654,-1.186072,1.514989,0.539855,-0.004077,0.002947,0.053045,-0.051700,-0.998443,-0.020934,0.007724,0.001510,-0.001787,-19.854126,-39.119598,-1.355440,,,,,,,
1558971898.756619,-1.195608,1.513708,0.549489,0.015054,-0.000306,0.065841,-0.053088,-0.998371,-0.020908,-0.007001,-0.008373,-0.000576,-19.903917,-39.094093,-1.361037,,,,,,,
1558971898.776628,-1.208541,1.512714,0.562143,0.009750,-0.016204,0.018710,-0.054281,-0.998314,-0.020571,-0.011621,-0.029717,0.001849,-19.922417,-39.084763,-1.358281,,,,,,,
1558971898.796613,-1.191203,1.512893,0.545572,-0.058069,0.077168,0.017411,-0.053751,-0.998324,-0.021443,0.035364,-0.064893,-0.016582,-19.973404,-39.059254,-1.343253,,,,,,,
1558971898.816601,-1.184043,1.510958,0.539877,-0.017906,0.042246,0.132415,-0.055385,-0.998210,-0.022557,0.102947,-0.163319,-0.064068,-19.985680,-39.049145,-1.450197,,,,,,,
1558971898.836586,-1.236155,1.507550,0.591989,0.149930,-0.007070,0.259127,-0.059698,-0.998001,-0.020758,0.117499,-0.342957,-0.071832,-20.082607,-38.999718,-1.441175,,,,,,,
1558971898.856555,-1.316824,1.503903,0.674481,0.218645,0.152113,0.215865,-0.064700,-0.997764,-0.016795,0.043520,-0.568887,-0.008382,-20.284386,-38.899475,-1.319521,,,,,,,
1558971898.876546,-1.352005,1.503404,0.712557,0.035778,0.098754,-0.068828,-0.065736,-0.997730,-0.014616,0.012147,-0.854824,0.091566,-20.426275,-38.828312,-1.223027,,,,,,,
1558971898.896547,-1.280008,1.506743,0.639773,-0.357322,-0.103541,-0.309165,-0.061323,-0.997949,-0.018352,0.032224,-0.927985,0.101818,-20.348360,-38.867954,-1.262144,,,,,,,
1558971898.916506,-1.023634,1.509695,0.381262,-0.858121,-0.043145,-0.558817,-0.052148,-0.998134,-0.031769,0.053643,-1.027699,0.080414,-20.169987,-38.954514,-1.443661,,,,,,,
1558971898.936513,-0.650724,1.507524,0.006912,-0.884435,-0.048606,-0.769217,-0.038302,-0.997999,-0.050308,0.124712,-1.068545,-0.101578,-19.490252,-39.252110,-2.401729,,,,,,,
1558971898.956506,-0.320293,1.503394,-0.325615,-0.522398,-0.077139,-0.906927,-0.021206,-0.997729,-0.063927,0.089565,-1.075345,-0.104545,-18.842735,-39.527058,-2.988189,,,,,,,
1558971898.976473,-0.036888,1.501873,-0.613619,-0.119498,-0.278094,-0.987534,-0.002540,-0.997626,-0.068822,0.043418,-1.078912,-0.079280,-18.483541,-39.683491,-3.153639,,,,,,,
1558971898.996480,0.259000,1.496756,-0.914760,-0.221887,-0.100258,-1.174887,0.018945,-0.997260,-0.071505,-0.149545,-1.031976,-0.016447,-17.294813,-40.212063,-3.200888,,,,,,,
1558971899.016448,0.505372,1.480018,-1.161427,-0.440735,-0.008337,-1.263865,0.043889,-0.995882,-0.079322,-0.163304,-0.977689,-0.045449,-16.559042,-40.505756,-3.383512,,,,,,,
1558971899.036452,0.668729,1.460758,-1.326439,-0.281163,0.011051,-1.174979,0.068085,-0.993952,-0.086164,-0.236191,-0.821859,-0.092593,-15.539871,-40.879272,-3.709946,,,,,,,
1558971899.056440,0.799262,1.444188,-1.456800,0.051931,0.018928,-1.097767,0.090516,-0.991996,-0.088040,-0.394288,-0.467309,-0.171481,-14.348219,-41.291615,-3.936696,,,,,,,
1558971899.076396,0.934001,1.430940,-1.593660,0.364818,-0.008102,-1.109519,0.112079,-0.990236,-0.082890,-0.514697,-0.211348,-0.112483,-13.448582,-41.608624,-3.771564,,,,,,,
1558971899.096412,1.069832,1.415905,-1.727798,0.465718,0.213231,-1.183123,0.135315,-0.988028,-0.074093,-0.592041,-0.099237,-0.088200,-12.979760,-41.770866,-3.617541,,,,,,,
1558971899.116392,1.200695,1.398954,-1.858963,0.723617,-0.037634,-1.219482,0.159420,-0.985271,-0.061852,-0.521526,0.098644,-0.085380,-11.979033,-42.096218,-3.282877,,,,,,,
1558971899.136362,1.329286,1.383513,-1.993446,0.998443,-0.214250,-1.023438,0.180787,-0.982514,-0.044531,-0.286103,0.389572,-0.130472,-10.720484,-42.487236,-2.504452,,,,,,,
1558971899.156370,1.454248,1.368370,-2.123654,1.157224,-0.134663,-0.963828,0.199683,-0.979582,-0.023379,-0.256522,0.484800,-0.136884,-10.071973,-42.679657,-1.835393,,,,,,,
1558971899.176359,1.553976,1.347714,-2.228375,0.907651,-0.069238,-1.207893,0.221205,-0.975220,-0.003721,-0.256560,0.672623,-0.007021,-8.772556,-43.003067,-0.380444,,,,,,,
1558971899.196314,1.611345,1.321245,-2.289534,0.660650,-0.151673,-1.361554,0.246766,-0.969023,0.010012,-0.424088,0.719863,0.016813,-7.672544,-43.213398,0.317388,,,,,,,
1558971899.216330,1.648643,1.292272,-2.332951,0.652979,-0.262763,-1.458712,0.274105,-0.961462,0.021381,-0.523922,0.729620,0.070599,-6.776567,-43.357403,0.761560,,,,,,,
1558971899.236295,1.675384,1.259686,-2.364881,0.557783,-0.171666,-1.663972,0.304443,-0.951994,0.031958,-0.507797,0.758238,0.129465,-5.821936,-43.485718,1.209671,,,,,,,
1558971899.256297,1.681373,1.223738,-2.378461,0.336681,-0.456078,-1.785380,0.338056,-0.940377,0.037534,-0.271039,0.858895,0.071948,-3.611204,-43.699455,1.919130,,,,,,,
1558971899.276290,1.672339,1.189907,-2.381967,0.171549,-0.730796,-1.587425,0.369831,-0.928335,0.037683,-0.194874,0.861043,0.047156,-2.447180,-43.769802,2.140589,,,,,,,
1558971899.296279,1.650513,1.161578,-2.372906,-0.186908,-0.519206,-1.307030,0.396629,-0.917432,0.031685,-0.134544,0.925443,0.045891,-1.380569,-43.809990,2.268379,,,,,,,
1558971899.316264,1.627912,1.141750,-2.350455,-0.512233,0.143839,-0.834383,0.415325,-0.909363,0.023747,-0.065533,0.976822,0.052882,0.273470,-43.844467,1.988387,,,,,,,
1558971899.336250,1.604813,1.128909,-2.314990,-0.814477,0.574855,-0.645796,0.427399,-0.903946,0.014544,-0.064484,0.957214,0.061307,0.757780,-43.854820,1.595907,,,,,,,
1558971899.356237,1.582176,1.114573,-2.280477,-0.621631,0.233251,-0.801585,0.440533,-0.897723,0.005014,-0.018124,0.950884,0.019462,1.176006,-43.861404,1.077379,,,,,,,
1558971899.376223,1.562812,1.097868,-2.265372,-0.158026,-0.579948,-0.825013,0.455481,-0.890238,-0.003637,0.069147,0.987910,-0.008464,2.222523,-43.832634,0.356107,,,,,,,
1558971899.396190,1.548588,1.084249,-2.264670,-0.039235,-0.589690,-0.559167,0.467461,-0.883953,-0.010383,0.069725,0.972637,0.002326,2.738049,-43.803993,0.281223,,,,,,,
1558971899.416177,1.536309,1.078616,-2.254211,-0.397448,0.124290,-0.079715,0.472268,-0.881305,-0.016294,0.075950,0.893054,0.004484,3.227792,-43.771408,0.108081,,,,,,,
1558971899.436111,1.523304,1.081522,-2.226986,-0.735570,0.736523,0.296348,0.469456,-0.882674,-0.022312,0.043499,0.843611,-0.063396,3.160955,-43.775028,-0.348507,,,,,,,
1558971899.456077,1.511994,1.089388,-2.197292,-0.548796,0.647031,0.483547,0.462228,-0.886344,-0.027211,0.035575,0.849036,-0.070842,3.020554,-43.781517,-0.649283,,,,,,,
1558971899.476069,1.509561,1.099392,-2.190594,0.159739,-0.111354,0.514223,0.453286,-0.890932,-0.027792,0.010718,0.750657,-0.117579,2.404578,-43.808731,-1.174522,,,,,,,
1558971899.496070,1.520216,1.109982,-2.208457,0.490291,-0.257881,0.528032,0.444109,-0.895691,-0.022482,0.028624,0.657822,-0.060236,1.959258,-43.837814,-0.879498,,,,,,,
1558971899.516039,1.531216,1.123465,-2.220134,0.124169,0.192568,0.764797,0.432223,-0.901604,-0.017116,0.027906,0.653374,-0.040836,1.716966,-43.851528,-0.679469,,,,,,,
1558971899.536019,1.535240,1.143358,-2.219107,0.033182,0.214761,1.150357,0.414279,-0.910031,-0.014736,0.033765,0.639202,0.016720,0.643501,-43.882675,-0.512744,,,,,,,
1558971899.556030,1.542698,1.171081,-2.226950,0.270423,-0.011173,1.456935,0.389003,-0.921172,-0.010933,-0.081645,0.455260,0.117836,-0.500239,-43.885834,-0.387316,,,,,,,
1558971899.576010,1.549317,1.199655,-2.228669,-0.120853,0.416748,1.382779,0.362596,-0.931914,-0.007790,-0.128038,0.350737,0.141655,-1.139600,-43.874714,-0.277669,,,,,,,
1558971899.595986,1.532275,1.224988,-2.199518,-0.639675,0.539733,1.221258,0.338706,-0.940802,-0.013054,-0.095237,0.158194,0.016106,-2.922591,-43.789280,-0.569226,,,,,,,
1558971899.615989,1.512018,1.247532,-2.168393,-0.168807,0.288735,1.137024,0.317115,-0.948204,-0.018661,-0.080863,0.192421,-0.013154,-3.939084,-43.699257,-1.106748,,,,,,,
1558971899.635975,1.538721,1.273212,-2.204989,1.022434,-0.877789,1.361695,0.293061,-0.956047,-0.009403,-0.020234,0.203179,0.058018,-4.439205,-43.651005,-1.117733,,,,,,,
1558971899.655963,1.588379,1.302098,-2.278952,0.820050,-0.894620,1.412618,0.265436,-0.964117,0.004667,-0.141397,-0.083246,0.229448,-6.234605,-43.444580,0.254651,,,,,,,
1558971899.675949,1.575655,1.328224,-2.271131,-0.664715,0.072749,1.277624,0.240197,-0.970723,0.001167,-0.084283,-0.131861,0.056221,-7.391558,-43.260067,0.545708,,,,,,,
1558971899.695936,1.505576,1.355305,-2.193766,-0.667624,0.246397,1.468257,0.213373,-0.976871,-0.013936,-0.031610,-0.083355,-0.025493,-7.948331,-43.164223,0.201640,,,,,,,
1558971899.715923,1.498635,1.386042,-2.187724,0.460976,-0.288976,1.549448,0.183226,-0.982981,-0.013245,-0.161086,0.027232,0.019577,-9.842844,-42.770317,-0.429711,,,,,,,
1558971899.735901,1.569779,1.417223,-2.274064,0.793442,-0.853126,1.500541,0.152971,-0.988231,-0.000156,-0.157609,-0.044820,0.089282,-10.834940,-42.531952,0.059210,,,,,,,
1558971899.755861,1.605339,1.446731,-2.321537,-0.057368,-0.294787,1.496662,0.123673,-0.992314,0.004274,-0.160752,-0.081722,0.049452,-12.092497,-42.183758,0.817636,,,,,,,
1558971899.775882,1.519029,1.477893,-2.233129,-0.558353,0.198468,1.609882,0.092646,-0.995688,-0.004800,-0.178385,-0.108942,-0.077368,-8.448279,-44.428963,0.036622,,,,,,,
1558971899.795868,1.424516,1.509903,-2.136534,0.084883,-0.039575,1.605984,0.060205,-0.998147,-0.008870,-0.212625,-0.082816,-0.139445,-9.529329,-44.208778,-0.288810,,,,,,,
1558971899.815854,1.609212,1.539109,-2.324715,0.701197,-0.178542,1.316882,0.031660,-0.999498,0.001217,-0.182783,-0.188521,-0.104534,-10.905895,-43.890255,-0.119750,,,,,,,
1558971899.835841,2.647952,1.552491,2.919738,0.715504,0.169812,1.058654,0.008672,-0.999832,0.016116,-0.174245,-0.259719,-0.001331,-12.269921,-43.523369,0.687778,,,,,,,
1558971899.855804,-2.781249,1.539285,2.071677,0.645806,0.288397,0.946563,-0.011109,-0.999504,0.029483,-0.172317,-0.259926,0.081342,-12.940564,-43.320408,1.091573,,,,,,,
1558971899.875813,-2.530561,1.519201,1.819895,0.606931,-0.220935,0.908559,-0.029588,-0.998669,0.042241,-0.191253,-0.225589,0.145335,-13.763186,-43.050205,1.600674,,,,,,,
1558971899.895790,-2.390732,1.503300,1.676746,0.133045,-0.015697,0.775621,-0.046016,-0.997723,0.049309,-0.087270,-0.293796,0.097572,-14.693098,-42.714741,2.207144,,,,,,,
1558971899.915758,-2.227345,1.495589,1.518421,-0.239054,0.369688,0.597511,-0.059516,-0.997173,0.045862,0.000999,-0.319935,-0.066874,-15.304267,-42.505108,2.098291,,,,,,,
1558971899.935773,-2.154485,1.486564,1.450893,0.315931,0.135191,0.533788,-0.070203,-0.996455,0.046366,0.035673,-0.321569,-0.091288,-15.667416,-42.381447,1.911184,,,,,,,
1558971899.955760,-2.201114,1.468046,1.491649,0.782866,-0.544543,0.711291,-0.082860,-0.994726,0.060455,0.012059,-0.431055,-0.008056,-16.013418,-42.243889,2.081344,,,,,,,
1558971899.975738,-2.204388,1.451623,1.485841,0.148495,-0.243267,0.620781,-0.095815,-0.992907,0.070389,-0.056925,-0.551709,0.074280,-16.844610,-41.854263,3.128436,,,,,,,
1558971899.995713,-2.115354,1.445839,1.398715,-0.411700,0.254144,0.476690,-0.106605,-0.992203,0.064565,-0.047799,-0.532531,0.022350,-17.091688,-41.750942,3.168694,,,,,,,
1558971900.015695,-2.050887,1.442550,1.337775,-0.080684,0.142148,0.257016,-0.113437,-0.991788,0.059069,-0.033887,-0.441959,-0.116259,-17.656357,-41.551689,2.649120,,,,,,,
1558971900.035707,-2.081734,1.436916,1.366075,0.504514,-0.332582,0.104537,-0.116434,-0.991051,0.065272,-0.065680,-0.388664,-0.017481,-17.819607,-41.473282,2.781423,,,,,,,
1558971900.055679,-2.152708,1.432650,1.431883,0.356540,-0.131361,-0.156296,-0.115042,-0.990473,0.075687,-0.074319,-0.369436,0.043378,-17.842091,-41.443363,3.068352,,,,,,,
1558971900.075662,-2.173824,1.435242,1.455006,-0.090641,0.152120,-0.179565,-0.111304,-0.990827,0.076643,0.030051,-0.254779,0.071581,-17.655563,-41.491104,3.475166,,,,,,,
1558971900.095667,-2.147756,1.439839,1.431186,-0.327400,0.078515,-0.045936,-0.109445,-0.991437,0.071230,0.003610,-0.192172,0.024488,-17.551872,-41.552582,3.259130,,,,,,,
1558971900.115622,-2.109591,1.442775,1.391719,-0.246285,-0.139524,0.042792,-0.109584,-0.991817,0.065509,-0.000187,-0.160009,0.041364,-17.539885,-41.568935,3.111871,,,,,,,
1558971900.135629,-2.070729,1.444399,1.350647,-0.324607,-0.001698,0.045116,-0.110633,-0.992023,0.060429,0.001807,-0.103925,0.022258,-17.583405,-41.570305,2.835721,,,,,,,
1558971900.155625,-2.014464,1.447295,1.294301,-0.350234,-0.031178,0.033069,-0.111261,-0.992383,0.052879,0.017556,-0.084887,-0.010490,-22.023211,-38.334209,3.408630,,,,,,,
1558971900.175612,-1.978523,1.450531,1.255708,-0.050664,-0.188043,0.093723,-0.110140,-0.992777,0.047573,0.027102,-0.084433,-0.030926,-22.033661,-38.338024,3.296346,,,,,,,
1558971900.195584,-1.983236,1.446456,1.257605,0.147438,-0.095874,0.223949,-0.113621,-0.992280,0.049713,0.022084,-0.067535,-0.026611,-22.071878,-38.317787,3.275912,,,,,,,
1558971900.215585,-1.996429,1.440439,1.270233,0.162533,-0.014487,0.274918,-0.118391,-0.991515,0.053672,0.002561,-0.049485,0.028817,-22.243866,-38.203194,3.446496,,,,,,,
1558971900.235546,-1.986274,1.436736,1.258990,-0.095037,-0.067249,0.135413,-0.122288,-0.991027,0.053949,-0.021617,-0.065781,0.048285,-22.344509,-38.139252,3.503156,,,,,,,
1558971900.255532,-1.970955,1.434338,1.242197,-0.204392,-0.049981,-0.011836,-0.125289,-0.990704,0.052995,-0.042756,-0.089679,0.016250,-22.560976,-38.009373,3.527322,,,,,,,
1558971900.275523,-1.952932,1.436760,1.224266,-0.101806,0.041346,-0.074938,-0.123996,-0.991031,0.049833,-0.011990,-0.064435,-0.012495,-22.535940,-38.033531,3.425533,,,,,,,
1558971900.295523,-1.957110,1.439374,1.228521,0.128979,-0.014815,-0.063552,-0.121387,-0.991377,0.049375,0.015400,-0.038363,-0.025266,-22.494991,-38.063656,3.359441,,,,,,,
1558971900.315498,-1.984088,1.438909,1.254601,0.179848,-0.074244,-0.042727,-0.120433,-0.991315,0.052816,0.015041,-0.009768,0.001978,-22.379532,-38.122692,3.459630,,,,,,,
1558971900.335480,-2.010248,1.438115,1.280523,-0.016622,0.037691,-0.099463,-0.119723,-0.991211,0.056283,-0.015195,-0.012894,0.033789,-22.370104,-38.124340,3.502182,,,,,,,
1558971900.355490,-2.000678,1.441544,1.273403,-0.142846,0.150319,-0.151869,-0.117166,-0.991659,0.053718,-0.008063,-0.008433,0.022195,-22.298889,-38.158253,3.585969,,,,,,,
1558971900.375479,-1.992508,1.445192,1.267888,-0.130229,0.119656,-0.113718,-0.114300,-0.992122,0.051278,0.005169,0.009670,0.010444,-22.170649,-38.252323,3.372580,,,,,,,
1558971900.395447,-1.970088,1.447517,1.247310,-0.220959,0.088568,-0.015865,-0.113294,-0.992411,0.047805,0.030927,0.006144,0.007889,-22.140635,-38.270939,3.358566,,,,,,,
1558971900.415449,-1.914870,1.450833,1.192534,-0.363058,0.009237,0.156211,-0.112661,-0.992813,0.040369,0.046423,-0.021286,-0.010279,-22.125137,-38.304962,3.059463,,,,,,,
1558971900.435438,-1.862873,1.449559,1.139823,-0.199178,-0.022330,0.120808,-0.115818,-0.992660,0.034824,-0.002437,-0.010300,-0.024921,-22.179859,-38.299316,2.714442,,,,,,,
1558971900.455414,-1.854594,1.448992,1.130388,0.135974,-0.115159,-0.002652,-0.116642,-0.992591,0.034021,-0.002635,0.005088,-0.019769,-22.225460,-38.277184,2.653030,,,,,,,
1558971900.475409,-1.901180,1.448365,1.174608,0.264991,-0.087420,-0.084492,-0.115521,-0.992515,0.039618,-0.042590,0.002799,0.042474,-22.216957,-38.271770,2.798329,,,,,,,
1558971900.495398,-1.938885,1.447702,1.212910,-0.061165,0.080168,-0.136525,-0.114559,-0.992433,0.044181,-0.028599,0.011476,0.063195,-22.116642,-38.315517,2.987845,,,,,,,
1558971900.515383,-1.922881,1.451236,1.198172,-0.158125,0.056380,-0.127222,-0.111959,-0.992861,0.041133,-0.008372,0.028109,0.008077,-22.098816,-38.322220,3.033497,,,,,,,
1558971900.535368,-1.906276,1.455042,1.181653,0.053195,-0.069368,-0.066337,-0.109057,-0.993308,0.038024,0.024554,0.047400,-0.040023,-22.009663,-38.383503,2.904051,,,,,,,
1558971900.555336,-1.948222,1.454078,1.220720,0.277419,-0.167734,-0.027596,-0.108257,-0.993196,0.042916,0.029369,0.048296,-0.003732,-21.911484,-38.431568,3.008866,,,,,,,
1558971900.575342,-1.985334,1.452263,1.255960,0.192501,-0.066782,0.033090,-0.108240,-0.992983,0.047629,0.017145,0.047854,-0.003364,-21.893429,-38.425961,3.205509,,,,,,,
1558971900.595328,-2.004744,1.449682,1.274811,0.035190,0.016536,0.062589,-0.109620,-0.992675,0.050799,-0.000640,0.032103,0.015653,-21.928566,-38.388386,3.409083,,,,,,,
1558971900.615304,-1.979500,1.449754,1.252246,-0.211107,0.210180,0.045028,-0.110801,-0.992683,0.047987,-0.020485,-0.001503,0.012560,-21.989948,-38.359364,3.339654,,,,,,,
1558971900.635302,-1.939739,1.450638,1.216649,-0.178142,0.196254,0.037447,-0.111803,-0.992790,0.043228,-0.008635,0.001121,-0.006592,-22.025564,-38.356159,3.135542,,,,,,,
1558971900.655264,-1.910223,1.451480,1.189694,-0.010255,0.101279,0.024927,-0.112242,-0.992890,0.039632,0.008131,0.017335,-0.040852,-22.056477,-38.351482,2.971168,,,,,,,
1558971900.675271,-1.902917,1.451400,1.185152,-0.041982,0.155323,0.005134,-0.112605,-0.992881,0.038837,0.013011,0.016349,-0.013126,-22.081894,-38.351841,2.770981,,,,,,,
1558971900.695262,-1.882675,1.451836,1.167724,-0.032532,0.118282,0.007990,-0.112955,-0.992933,0.036417,-0.001624,-0.002246,-0.020746,-22.095985,-38.351410,2.662533,,,,,,,
1558971900.715231,-1.891042,1.451804,1.177595,0.103574,0.054083,-0.034154,-0.112676,-0.992929,0.037370,-0.007838,-0.000678,-0.009523,-22.103630,-38.351944,2.590323,,,,,,,
1558971900.735235,-1.926972,1.450476,1.213987,0.154432,-0.013813,-0.020882,-0.112497,-0.992770,0.041854,-0.006018,0.009173,0.032350,-22.077955,-38.360352,2.683146,,,,,,,
1558971900.755222,-1.946273,1.450053,1.232235,0.065871,-0.076768,-0.020488,-0.112059,-0.992719,0.044171,-0.003603,0.002897,0.030948,-22.078020,-38.348740,2.843832,,,,,,,
1558971900.775208,-1.943199,1.449490,1.228549,-0.052153,0.009619,0.079535,-0.112715,-0.992651,0.044030,0.045271,-0.007867,0.017356,-22.068327,-38.349327,2.910317,,,,,,,
1558971900.795195,-1.928619,1.449107,1.215237,-0.112696,0.079801,0.147414,-0.113701,-0.992605,0.042515,0.011406,-0.016718,0.015072,-22.103022,-38.334297,2.844333,,,,,,,
1558971900.815180,-1.909238,1.446716,1.196104,-0.058669,-0.001881,0.142405,-0.116741,-0.992312,0.041091,0.004421,-0.022748,0.018205,-22.193560,-38.287052,2.774806,,,,,,,
1558971900.835167,-1.899464,1.445157,1.186446,-0.083978,0.044679,0.087311,-0.118602,-0.992118,0.040448,0.001583,-0.054376,0.020847,-22.297722,-38.229813,2.728589,,,,,,,
1558971900.855155,-1.881234,1.444594,1.168887,-0.094633,0.023535,0.047597,-0.119851,-0.992047,0.038449,-0.001121,-0.089252,0.026263,-22.361708,-38.197727,2.653234,,,,,,,
1558971900.875130,-1.869429,1.444239,1.156904,-0.051148,-0.026378,0.043952,-0.120633,-0.992002,0.037136,0.004789,-0.117403,0.018025,-22.385839,-38.187237,2.600320,,,,,,,
1558971900.895127,-1.861224,1.443680,1.148223,-0.053170,0.004280,0.039973,-0.121464,-0.991932,0.036303,0.028279,-0.144711,-0.002200,-22.417007,-38.170658,2.575023,,,,,,,
1558971900.915114,-1.843358,1.443195,1.131909,-0.117797,0.108241,0.063336,-0.122558,-0.991870,0.034257,0.038360,-0.187100,-0.001375,-22.463234,-38.149471,2.484594,,,,,,,
1558971900.935089,-1.807058,1.442190,1.098586,-0.247432,0.211558,0.134686,-0.124689,-0.991742,0.030020,0.028742,-0.260318,-0.012976,-22.511305,-38.129017,2.360335,,,,,,,
1558971900.955086,-1.741328,1.437871,1.037840,-0.398681,0.317434,0.428114,-0.130612,-0.991178,0.022492,0.057080,-0.331545,-0.013413,-22.645466,-38.067131,2.056386,,,,,,,
1558971900.975074,-1.653124,1.427047,0.954457,-0.584553,0.237405,0.686637,-0.142769,-0.989686,0.011781,0.070839,-0.442733,0.014770,-23.133799,-37.799675,1.471066,,,,,,,
1558971900.995037,-1.548958,1.413809,0.853363,-0.819811,0.214261,0.640318,-0.156306,-0.987703,-0.003414,0.022608,-0.541503,-0.005802,-23.533316,-37.566998,1.027626,,,,,,,
1558971901.015045,-1.449386,1.402720,0.757844,-0.717959,0.320109,0.388380,-0.166054,-0.985908,-0.020260,0.023476,-0.580254,-0.048007,-23.894066,-37.349457,0.494120,,,,,,,
1558971901.035034,-1.402101,1.400368,0.718002,-0.088748,0.422741,-0.162107,-0.167196,-0.985512,-0.028476,-0.113352,-0.691505,-0.135114,-24.234783,-37.129997,-0.436458,,,,,,,
1558971901.055019,-1.417621,1.412479,0.740353,0.436327,0.227745,-0.778518,-0.155812,-0.987494,-0.024055,-0.093471,-0.728296,-0.031441,-24.045116,-37.251778,-0.538387,,,,,,,
1558971901.075005,-1.455549,1.433417,0.781730,0.373720,0.147282,-1.086821,-0.136039,-0.990578,-0.015748,-0.117394,-0.753028,0.059815,-23.427248,-37.645973,-0.311396,,,,,,,
1558971901.094992,-1.455317,1.455530,0.785165,0.000314,0.224316,-1.070368,-0.114245,-0.993364,-0.013252,-0.081403,-0.728987,0.020836,-22.393724,-38.270817,-0.134868,,,,,,,
1558971901.114959,-1.378567,1.475198,0.715338,-0.285334,0.460551,-1.018156,-0.093695,-0.995434,-0.018236,-0.041422,-0.732029,-0.042189,-21.788885,-38.617558,-0.285020,,,,,,,
1558971901.134942,-1.273776,1.495339,0.620035,-0.005200,0.447236,-1.163259,-0.072085,-0.997154,-0.022063,-0.124570,-0.721931,-0.076966,-21.193628,-38.944000,-0.588984,,,,,,,
1558971901.154946,-1.205188,1.524033,0.557975,0.467454,0.272924,-1.560646,-0.043657,-0.998907,-0.016713,-0.222762,-0.595743,-0.047695,-19.730988,-39.701809,-0.778801,,,,,,,
1558971901.174939,-1.207871,1.560882,0.561727,0.704128,-0.065912,-1.832747,-0.009270,-0.999951,-0.003520,-0.280525,-0.547107,0.006923,-18.759018,-40.174736,-0.492184,,,,,,,
1558971901.194907,1.788920,1.540285,-2.437662,0.346436,-0.135052,-1.967152,0.029784,-0.999535,0.006602,-0.241103,-0.443474,0.092596,-17.650612,-40.676830,-0.058800,,,,,,,
1558971901.214883,1.701873,1.505520,-2.352421,-0.010661,-0.094502,-1.549600,0.064670,-0.997870,0.008526,0.047574,-0.251397,-0.171673,-15.316598,-41.610329,0.366291,,,,,,,
1558971901.234898,1.700993,1.482173,-2.356237,0.402550,-0.400168,-0.928688,0.087759,-0.996076,0.011491,0.071558,-0.189441,-0.300340,-14.445494,-41.920357,0.404506,,,,,,,
1558971901.254874,1.838108,1.462041,-2.502023,1.085719,-0.172356,-0.984681,0.104686,-0.994092,0.028670,-0.388530,-0.073459,-0.176985,-13.852006,-42.115486,0.748187,,,,,,,
1558971901.274844,1.885829,1.427973,-2.545473,0.429588,0.284334,-1.839224,0.135333,-0.989818,0.044103,-0.438556,0.022563,0.195109,-12.382326,-42.532539,1.952740,,,,,,,
1558971901.294858,1.838567,1.388773,-2.501678,0.279027,-0.586116,-2.016365,0.174568,-0.983479,0.047895,-0.363121,0.088979,0.120196,-11.161369,-42.861443,2.114804,,,,,,,
1558971901.314829,1.821542,1.348055,-2.504969,0.671964,-1.123871,-1.871727,0.213996,-0.975295,0.054812,-0.275626,0.197631,-0.069171,-9.844126,-43.168507,2.392779,,,,,,,
1558971901.334817,1.823843,1.315230,-2.524229,0.485885,-0.487871,-1.324491,0.244743,-0.967520,0.063288,-0.399085,0.329596,0.073477,-7.451130,-43.571487,3.486886,,,,,,,
1558971901.354818,1.802117,1.294277,-2.497993,-0.429001,0.477174,-1.008504,0.265737,-0.962011,0.062591,-0.443990,0.378698,0.145279,-6.641501,-43.686565,3.677845,,,,,,,
1558971901.374774,1.745797,1.276794,-2.425542,-0.937221,0.601206,-1.139045,0.285359,-0.957092,0.050454,-0.476552,0.474914,0.228110,-5.996674,-43.805580,3.356087,,,,,,,
1558971901.394792,1.696131,1.250293,-2.373905,-0.235197,-0.430622,-1.624530,0.312573,-0.949077,0.039383,-0.331372,0.616008,-0.003753,-4.421729,-44.062584,2.255945,,,,,,,
1558971901.414751,1.680872,1.215067,-2.375122,0.423262,-0.938424,-1.723884,0.346166,-0.937393,0.038259,-0.196356,0.754653,-0.027685,-3.271997,-44.161789,2.276504,,,,,,,
1558971901.434763,1.675078,1.186061,-2.389600,0.315049,-0.905344,-1.185560,0.373275,-0.926898,0.039067,-0.090743,0.847186,0.046351,-1.762424,-44.224239,2.694957,,,,,,,
1558971901.454751,1.660702,1.170865,-2.384669,-0.212638,-0.187046,-0.538577,0.387782,-0.921088,0.034958,-0.160503,0.870978,0.088837,-0.592477,-44.241966,2.906821,,,,,,,
1558971901.474731,1.637756,1.164945,-2.351842,-0.907576,0.624530,-0.292213,0.393916,-0.918767,0.026416,-0.213924,0.875172,0.143307,-0.302698,-44.259880,2.668908,,,,,,,
1558971901.494696,1.595578,1.158150,-2.294257,-1.089331,0.282683,-0.513431,0.400911,-0.916063,0.009937,-0.180452,0.853288,0.012188,-0.055109,-44.304237,1.812011,,,,,,,
1558971901.514688,1.564900,1.142677,-2.265315,-0.220327,-0.431739,-0.916738,0.415153,-0.909748,-0.002448,-0.151222,0.822010,-0.165292,0.634617,-44.328785,0.841347,,,,,,,
1558971901.534668,1.564083,1.123673,-2.276225,0.401071,-0.511110,-0.917000,0.432364,-0.901695,-0.002903,-0.093222,0.837699,-0.137463,1.486933,-44.307392,0.892287,,,,,,,
1558971901.554683,1.574069,1.109338,-2.294172,0.303720,-0.181369,-0.581884,0.445252,-0.895404,0.001457,-0.068573,0.834689,-0.074058,1.883097,-44.288364,1.070837,,,,,,,
1558971901.574671,1.578967,1.101931,-2.298309,-0.010731,0.162188,-0.253215,0.451860,-0.892081,0.003692,0.010650,0.774467,-0.037689,2.605481,-44.242573,1.399506,,,,,,,
1558971901.594656,1.580444,1.098969,-2.294581,-0.087248,0.270634,-0.099564,0.454494,-0.890739,0.004385,0.028935,0.736000,-0.015143,2.738171,-44.235428,1.371626,,,,,,,
1558971901.614643,1.581654,1.098176,-2.291813,-0.038944,0.106664,-0.017819,0.455194,-0.890378,0.004943,0.062124,0.726560,-0.012908,2.799175,-44.233044,1.324659,,,,,,,
1558971901.634630,1.583405,1.098394,-2.293273,0.063883,0.002621,0.038921,0.454990,-0.890478,0.005737,0.050472,0.684408,-0.014801,2.818459,-44.232769,1.292521,,,,,,,
1558971901.654594,1.587295,1.100957,-2.295530,0.010990,0.176488,0.199622,0.452682,-0.891641,0.007469,0.074510,0.593850,-0.046318,2.767643,-44.234077,1.355836,,,,,,,
1558971901.674592,1.589782,1.107716,-2.293248,-0.066907,0.215263,0.410257,0.446626,-0.894681,0.008480,0.109343,0.565594,-0.050335,2.559958,-44.246490,1.358885,,,,,,,
1558971901.694588,1.593267,1.116729,-2.293035,0.032863,0.153520,0.469534,0.438514,-0.898670,0.009855,-0.018790,0.603230,0.047731,2.085936,-44.272530,1.320632,,,,,,,
1558971901.714576,1.600408,1.126439,-2.299641,0.177125,0.006920,0.486396,0.429689,-0.902887,0.012728,0.002775,0.555353,0.036421,1.762987,-44.284958,1.373543,,,,,,,
1558971901.734549,1.608186,1.136624,-2.307257,0.094277,0.096255,0.560852,0.420366,-0.907219,0.015725,0.023848,0.419807,-0.008599,1.328867,-44.295155,1.524962,,,,,,,
1558971901.754525,1.613904,1.150993,-2.307291,-0.065921,0.375466,0.813226,0.407202,-0.913169,0.017565,-0.022406,0.394569,-0.003572,0.627073,-44.309082,1.569746,,,,,,,
1558971901.774536,1.628195,1.169368,-2.317505,0.351265,0.100815,0.981755,0.390090,-0.920504,0.022415,-0.043045,0.435518,0.058655,0.044500,-44.313435,1.571530,,,,,,,
1558971901.794516,1.655807,1.188817,-2.349719,0.526994,-0.174863,1.027301,0.371412,-0.927929,0.031650,-0.146345,0.459255,0.227002,-0.830187,-44.291527,1.929673,,,,,,,
1558971901.814492,1.658112,1.208325,-2.354514,-0.382409,0.006301,0.936489,0.353235,-0.935024,0.030921,-0.099084,0.212016,0.089776,-1.934795,-44.240856,2.270543,,,,,,,
1558971901.834495,1.625227,1.228901,-2.313310,-0.862331,0.428619,1.045844,0.334777,-0.942121,0.018240,-0.045378,0.180890,-0.046347,-2.559318,-44.227753,1.872943,,,,,,,
1558971901.854481,1.612034,1.252931,-2.293349,0.049616,0.099621,1.245210,0.312274,-0.949905,0.012885,-0.041003,0.222549,-0.144156,-3.523796,-44.185371,1.178160,,,,,,,
1558971901.874469,1.652330,1.275100,-2.339281,0.801430,-0.234438,1.030153,0.290438,-0.956599,0.023733,-0.306719,0.196574,0.135919,-4.852565,-44.049202,1.507512,,,,,,,
1558971901.894455,1.692146,1.289458,-2.384208,0.312554,-0.155230,0.679264,0.275600,-0.960685,0.033609,-0.242076,0.131919,0.188269,-5.452355,-43.958645,2.015298,,,,,,,
1558971901.914440,1.686468,1.306152,-2.383086,-0.311866,-0.220239,0.957865,0.259818,-0.965186,0.030188,-0.049475,-0.001352,0.103662,-6.076365,-43.866383,2.229393,,,,,,,
1558971901.934407,1.669900,1.329834,-2.368261,-0.182075,-0.094652,1.283735,0.237466,-0.971109,0.023611,-0.082925,-0.016821,-0.038290,-7.200158,-43.711105,1.910213,,,,,,,
1558971901.954414,1.690401,1.357611,-2.391514,0.219019,-0.089128,1.439986,0.210063,-0.977362,0.025245,-0.170512,0.011297,0.073373,-7.479462,-43.665756,1.873938,,,,,,,
1558971901.974400,1.716949,1.385209,-2.420639,-0.070491,-0.127930,1.334753,0.182557,-0.982828,0.026873,-0.163423,-0.124579,0.094389,-9.326811,-43.299335,2.080958,,,,,,,
1558971901.994364,1.679773,1.409474,-2.388140,-0.569042,-0.351872,1.091990,0.159671,-0.987016,0.017470,-0.115359,-0.199904,-0.050368,-10.680305,-42.994823,1.878447,,,,,,,
1558971902.014374,1.632308,1.431408,-2.347742,-0.200773,-0.360135,1.101814,0.138674,-0.990301,0.008541,-0.084353,-0.199961,-0.153698,-10.911510,-42.941116,1.775269,,,,,,,
1558971902.034335,1.658425,1.455067,-2.377996,0.207821,-0.034435,1.218429,0.115028,-0.993311,0.010106,-0.113197,-0.272558,-0.118001,-12.307968,-42.570118,1.565601,,,,,,,
1558971902.054338,1.712912,1.479043,-2.429206,0.035224,0.252952,1.239192,0.090701,-0.995794,0.012978,-0.083942,-0.353358,-0.047920,-13.597669,-42.169537,1.727946,,,,,,,
1558971902.074310,1.726767,1.504370,-2.437974,-0.233403,0.158241,1.282911,0.065572,-0.997795,0.010311,-0.041021,-0.354058,-0.038677,-14.389867,-41.909420,1.638381,,,,,,,
1558971902.094290,1.749852,1.531103,-2.464843,-0.127375,-0.280936,1.309754,0.039049,-0.999212,0.007068,-0.138735,-0.386286,-0.041843,-15.477103,-41.527020,1.455370,,,,,,,
1558971902.114283,1.727723,1.555756,-2.444124,-0.309087,0.066483,1.151719,0.014856,-0.999887,0.002351,-0.214289,-0.334860,-0.018449,-16.779137,-41.021942,1.346564,,,,,,,
1558971902.134293,-0.613562,1.564188,-0.099103,-0.393183,0.218577,0.777296,-0.003805,-0.999978,-0.005403,-0.121607,-0.337623,-0.035292,-17.621574,-40.677280,0.995497,,,,,,,
1558971902.154278,-0.987883,1.552223,0.277605,-0.125116,0.038126,0.503533,-0.015505,-0.999828,-0.010223,-0.083326,-0.332768,-0.072922,-17.920191,-40.550762,0.808802,,,,,,,
1558971902.174267,-1.281340,1.543449,0.566433,0.228958,-0.375869,0.571386,-0.026205,-0.999626,-0.007804,-0.010111,-0.313759,-0.070946,-18.569796,-40.258408,0.758792,,,,,,,
1558971902.194252,-1.428125,1.531524,0.709080,-0.041494,-0.028656,0.671649,-0.038863,-0.999229,-0.005583,-0.078889,-0.282265,0.006346,-19.051735,-40.027061,1.008745,,,,,,,
1558971902.214239,-1.367539,1.517505,0.651331,-0.317521,0.183098,0.643560,-0.052170,-0.998580,-0.010752,-0.066207,-0.281953,0.023295,-19.322681,-39.898037,0.965842,,,,,,,
1558971902.234227,-1.324783,1.505757,0.612513,-0.150080,0.199927,0.468761,-0.063036,-0.997886,-0.015828,-0.038145,-0.293588,-0.044764,-20.062531,-39.539513,0.523569,,,,,,,
1558971902.254192,-1.391295,1.499856,0.680759,0.370953,-0.054650,0.287377,-0.069742,-0.997485,-0.012655,-0.013922,-0.280317,-0.017176,-20.304577,-39.416641,0.451951,,,,,,,
1558971902.274172,-1.549187,1.494949,0.834204,0.543686,-0.267942,0.337789,-0.075756,-0.997125,-0.001637,0.001477,-0.281531,0.036717,-20.476971,-39.324036,0.682527,,,,,,,
1558971902.294168,-1.632660,1.485562,0.915205,0.185319,-0.075531,0.516573,-0.084969,-0.996370,0.005263,0.046349,-0.262679,0.056153,-20.911888,-39.076565,1.366372,,,,,,,
1558971902.314172,-1.634455,1.475082,0.917418,-0.019711,0.057695,0.531563,-0.095375,-0.995423,0.006080,0.072242,-0.248275,0.043405,-21.214737,-38.910049,1.447519,,,,,,,
1558971902.334158,-1.620789,1.464630,0.905283,-0.013159,0.092492,0.497736,-0.105834,-0.994370,0.005295,-0.003007,-0.230301,0.036911,-21.524805,-38.740330,1.421910,,,,,,,
1558971902.354135,-1.628860,1.456137,0.912174,0.095869,-0.154563,0.365206,-0.114216,-0.993434,0.006639,-0.021679,-0.225637,0.028548,-22.081871,-38.425797,1.414624,,,,,,,
1558971902.374132,-1.643843,1.450789,0.924701,0.085758,-0.060659,0.215558,-0.119400,-0.992808,0.008737,-0.032211,-0.204015,0.019278,-22.262100,-38.317501,1.523233,,,,,,,
