timestamp(unix),attitude_roll(radians),attitude_pitch(radians),attitude_yaw(radians),rotation_rate_x(radians/s),rotation_rate_y(radians/s),rotation_rate_z(radians/s),gravity_x(G),gravity_y(G),gravity_z(G),user_acc_x(G),user_acc_y(G),user_acc_z(G),magnetic_field_x(microteslas),magnetic_field_y(microteslas),magnetic_field_z(microteslas),latitude(degree),longitude(degree),altitude(meter),speed(m/s),course(degree),timestamp(unix),User Mark
1558972840.254144,0.689686,1.504091,1.284514,-0.247612,-0.360189,0.052825,0.042413,-0.997776,-0.051421,0.014075,-0.000240,0.027999,10.044538,-43.473476,-21.769091,,,,,,,
1558972840.274116,0.615539,1.500848,1.352963,-0.378415,-0.262061,0.184978,0.040355,-0.997555,-0.057064,0.021916,0.021313,0.033459,9.858337,-43.380062,-22.038893,,,,,,,
1558972840.294110,0.494509,1.496285,1.469824,-0.430512,-0.204584,0.268763,0.035330,-0.997225,-0.065524,0.021601,0.033236,0.036044,9.716683,-43.313896,-22.231100,,,,,,,
1558972840.314101,0.378073,1.491263,1.581816,-0.386114,-0.291468,0.285049,0.029327,-0.996839,-0.073839,0.038315,0.060148,0.029375,9.224101,-43.105549,-22.837624,,,,,,,
1558972840.334083,0.292622,1.487811,1.659028,-0.223958,-0.502648,0.297035,0.023911,-0.996559,-0.079367,0.055542,0.072959,0.035513,8.849642,-43.007271,-23.168682,,,,,,,
1558972840.354063,0.194693,1.487652,1.747148,-0.027049,-0.470791,0.380774,0.016067,-0.996545,-0.081479,0.041932,0.058618,0.036465,8.598288,-42.988258,-23.298243,,,,,,,
1558972840.374069,0.090967,1.489113,1.845180,0.022768,-0.188755,0.431557,0.007412,-0.996666,-0.081256,-0.004742,0.044731,0.049166,7.809484,-43.061916,-23.439552,,,,,,,
1558972840.394054,-0.023901,1.489787,1.959124,-0.114070,-0.010351,0.504688,-0.001934,-0.996721,-0.080898,0.006710,0.039506,0.033397,7.374296,-43.154034,-23.411072,,,,,,,
1558972840.414038,-0.162247,1.483692,2.098666,-0.328116,0.038583,0.668335,-0.014053,-0.996209,-0.085852,0.024596,0.036919,0.040045,7.148149,-43.159088,-23.471821,,,,,,,
1558972840.434023,-0.296673,1.471783,2.235429,-0.485481,0.162249,0.819931,-0.028898,-0.995102,-0.094533,0.034941,-0.010635,0.041982,6.303118,-43.050835,-23.908689,,,,,,,
1558972840.454009,-0.416748,1.455802,2.363335,-0.509600,0.305177,0.890677,-0.046446,-0.993395,-0.104920,-0.039232,-0.069654,0.019745,5.683409,-42.916130,-24.302963,,,,,,,
1558972840.473993,-0.467612,1.437603,2.422523,-0.817601,0.730294,0.646805,-0.059861,-0.991143,-0.118544,-0.067886,-0.050224,0.038741,5.380739,-42.835220,-24.513693,,,,,,,
1558972840.493973,-0.456433,1.416322,2.431312,-0.954942,0.968588,0.474949,-0.067814,-0.988093,-0.138110,-0.060299,-0.084524,0.038532,5.136791,-42.324196,-25.436291,,,,,,,
1558972840.513953,-0.429668,1.394547,2.421451,-1.044629,0.824044,0.337903,-0.073040,-0.984508,-0.159400,-0.034885,-0.029515,0.048454,5.235028,-41.854462,-26.182589,,,,,,,
1558972840.533933,-0.400003,1.376025,2.407107,-0.763620,0.757889,0.202971,-0.075369,-0.981092,-0.178264,-0.040948,-0.038729,0.034160,5.235028,-41.854462,-26.182589,,,,,,,
1558972840.553910,-0.375508,1.365402,2.398854,-0.393714,0.863579,0.081499,-0.074799,-0.978981,-0.189743,-0.039169,-0.032967,-0.021607,5.548957,-41.187569,-27.157368,,,,,,,
1558972840.573919,-0.349425,1.358870,2.388816,-0.405792,0.717664,0.007493,-0.072013,-0.977628,-0.197633,0.012183,-0.089710,-0.033813,6.157228,-40.871399,-27.501757,,,,,,,
1558972840.593900,-0.335690,1.350686,2.382266,-0.359749,0.189035,0.086814,-0.071925,-0.975873,-0.206151,0.023295,-0.071276,0.001332,6.157228,-40.871399,-27.501757,,,,,,,
1558972840.613890,-0.331350,1.345728,2.378536,-0.169887,-0.054137,0.007768,-0.072603,-0.974779,-0.211033,-0.044066,0.015016,-0.043545,6.401263,-40.556377,-27.909378,,,,,,,
1558972840.633873,-0.332615,1.347013,2.375203,0.196675,-0.303539,-0.082941,-0.072460,-0.975065,-0.209757,-0.035999,0.025587,-0.061666,6.329524,-40.460388,-28.064625,,,,,,,
1558972840.653859,-0.346248,1.354728,2.381426,0.463440,-0.414816,-0.046425,-0.072758,-0.976748,-0.201668,-0.031994,0.033480,-0.054909,6.329524,-40.460388,-28.064625,,,,,,,
1558972840.673844,-0.362465,1.363642,2.389887,0.422089,-0.382947,-0.085656,-0.072929,-0.978620,-0.192312,0.010322,-0.037692,-0.002207,6.019075,-40.876690,-27.524464,,,,,,,
1558972840.693804,-0.381663,1.371280,2.401566,0.339828,-0.418274,0.034583,-0.073820,-0.980163,-0.183934,-0.008638,-0.024293,0.006260,5.859817,-41.099243,-27.225800,,,,,,,
1558972840.713804,-0.403694,1.376855,2.414676,0.302509,-0.463616,-0.023533,-0.075707,-0.981252,-0.177235,-0.012336,0.050405,0.006474,5.859817,-41.099243,-27.225800,,,,,,,
1558972840.733780,-0.420233,1.383014,2.421440,0.381211,-0.529713,-0.123393,-0.076161,-0.982421,-0.170438,-0.021221,0.028106,-0.040683,5.486098,-41.353954,-26.916214,,,,,,,
1558972840.753760,-0.436092,1.392150,2.426415,0.450480,-0.519552,-0.153135,-0.075060,-0.984085,-0.161067,-0.025099,0.029419,-0.009175,5.193860,-41.632080,-26.542847,,,,,,,
1558972840.773769,-0.448333,1.400180,2.428914,0.350523,-0.496861,-0.174350,-0.073598,-0.985480,-0.153010,-0.029506,0.047782,-0.041250,5.193860,-41.632080,-26.542847,,,,,,,
1558972840.793756,-0.464413,1.406411,2.437737,0.310465,-0.278584,0.042304,-0.073297,-0.986519,-0.146313,0.041680,0.002098,-0.046268,4.996333,-41.906773,-26.145521,,,,,,,
1558972840.813740,-0.492493,1.413236,2.462873,0.415226,-0.069597,0.208798,-0.074190,-0.987613,-0.138261,0.055910,0.036670,0.012209,4.775942,-42.118313,-25.845066,,,,,,,
1558972840.833725,-0.543756,1.418831,2.519992,0.500941,0.452211,0.272582,-0.078317,-0.988476,-0.129547,0.091943,-0.016041,0.034424,4.725127,-42.351585,-25.470482,,,,,,,
1558972840.853711,-0.595142,1.421363,2.581390,0.203443,0.375811,0.443500,-0.083465,-0.988856,-0.123281,0.090942,-0.026632,-0.006617,4.717088,-42.555973,-25.129015,,,,,,,
1558972840.873694,-0.621039,1.415820,2.616947,-0.248127,0.578848,0.330844,-0.089817,-0.988015,-0.125534,0.024158,0.042642,0.051926,4.582146,-42.718178,-24.877510,,,,,,,
1558972840.893680,-0.587768,1.406320,2.602261,-0.507476,1.221421,0.064536,-0.090792,-0.986504,-0.136257,-0.030119,0.147530,0.106060,4.665877,-42.603237,-25.058395,,,,,,,
1558972840.913664,-0.534146,1.398793,2.577737,-0.339393,1.505908,0.049244,-0.087137,-0.985244,-0.147315,-0.001517,0.065719,0.060370,4.906076,-42.482155,-25.217575,,,,,,,
1558972840.933631,-0.517261,1.395091,2.589266,0.014132,1.345916,0.329854,-0.086440,-0.984603,-0.151935,-0.033829,-0.042496,-0.003751,6.093945,-42.221577,-25.395504,,,,,,,
1558972840.953634,-0.558269,1.389275,2.649081,-0.038928,0.604757,0.723085,-0.095628,-0.983570,-0.153117,-0.033690,-0.093822,-0.084722,6.249813,-42.254105,-25.303356,,,,,,,
1558972840.973620,-0.600925,1.377007,2.704208,-0.316767,0.613654,0.748571,-0.108885,-0.981282,-0.158841,-0.062135,-0.099117,-0.004138,5.858078,-42.312023,-25.300293,,,,,,,
1558972840.993598,-0.619592,1.357756,2.739991,-0.802379,0.950469,0.914756,-0.122780,-0.977393,-0.172131,-0.120552,0.020972,-0.019794,5.551236,-42.169674,-25.605309,,,,,,,
1558972841.013590,-0.604761,1.329430,2.745660,-1.295945,0.994076,0.773849,-0.135904,-0.971012,-0.196635,-0.108709,0.000431,0.016291,5.416819,-41.994934,-25.919353,,,,,,,
1558972841.033575,-0.558703,1.296403,2.716166,-1.745531,0.774119,0.540772,-0.143634,-0.962590,-0.229761,-0.094723,0.010731,0.031489,5.279926,-41.024612,-27.456015,,,,,,,
1558972841.053559,-0.512421,1.255639,2.677040,-2.223240,0.212220,0.546750,-0.151973,-0.950747,-0.270154,-0.040791,0.019565,-0.039294,5.163077,-39.996941,-28.953703,,,,,,,
1558972841.073515,-0.480908,1.207968,2.642656,-2.374682,-0.123929,0.708897,-0.164180,-0.934897,-0.314663,0.005596,-0.043207,-0.021381,4.984333,-39.358124,-29.846666,,,,,,,
1558972841.093511,-0.470870,1.163385,2.629213,-1.873253,-0.050275,0.832783,-0.179756,-0.918150,-0.353114,0.008873,-0.057513,-0.016988,4.048215,-37.324612,-32.484062,,,,,,,
1558972841.113515,-0.470235,1.131852,2.631050,-1.085574,0.176795,0.647681,-0.192559,-0.905201,-0.378857,-0.006050,0.064563,-0.025958,3.501910,-36.336285,-33.647293,,,,,,,
1558972841.133479,-0.469900,1.118261,2.633747,-0.283602,0.087317,0.175566,-0.197984,-0.899341,-0.389855,0.009508,0.089024,-0.049110,3.346917,-36.024525,-33.996487,,,,,,,
1558972841.153458,-0.473506,1.120195,2.636444,0.300405,-0.127464,-0.032078,-0.198595,-0.900185,-0.387590,0.003878,0.010125,-0.090925,3.219519,-35.820827,-34.223270,,,,,,,
1558972841.173470,-0.483364,1.126705,2.645269,0.533881,-0.029368,-0.056572,-0.199678,-0.903002,-0.380416,-0.017332,0.009127,-0.026581,3.168299,-36.097996,-33.935616,,,,,,,
1558972841.193428,-0.488294,1.137339,2.654106,0.549760,0.249541,-0.095528,-0.197036,-0.907519,-0.370926,-0.031312,0.007235,0.012284,3.180417,-36.316181,-33.700874,,,,,,,
1558972841.213425,-0.491199,1.147900,2.662773,0.357142,0.262172,-0.099831,-0.193581,-0.911904,-0.361881,-0.008080,-0.014213,0.026676,3.484659,-36.732700,-33.215889,,,,,,,
1558972841.233426,-0.489466,1.154667,2.665599,0.097213,0.206476,-0.087762,-0.190047,-0.914661,-0.356761,-0.001756,-0.007565,0.031336,3.691594,-37.052818,-32.835800,,,,,,,
1558972841.253399,-0.482636,1.155676,2.662509,-0.000704,0.215461,-0.078146,-0.187178,-0.915068,-0.357233,-0.014818,0.000273,0.014688,3.833574,-37.074490,-32.795044,,,,,,,
1558972841.273392,-0.477498,1.158427,2.661374,0.118516,0.234986,-0.031956,-0.184182,-0.916174,-0.355953,-0.002433,-0.022379,0.013637,4.083401,-37.118755,-32.714725,,,,,,,
1558972841.293381,-0.476964,1.163182,2.663929,0.303532,0.127106,-0.132131,-0.181990,-0.918069,-0.352176,-0.014314,0.031259,0.008777,4.223867,-37.238499,-32.560444,,,,,,,
1558972841.313353,-0.475958,1.171161,2.664347,0.464267,0.053084,-0.294989,-0.178274,-0.921203,-0.345837,-0.026621,0.023498,-0.015643,4.326188,-37.338223,-32.432549,,,,,,,
1558972841.333332,-0.476124,1.184172,2.664620,0.625559,-0.099967,-0.290986,-0.172823,-0.926187,-0.335126,0.016954,0.030451,0.019971,4.630338,-37.753792,-31.905174,,,,,,,
1558972841.353309,-0.484243,1.197429,2.664515,0.585505,-0.605999,-0.246752,-0.169807,-0.931104,-0.322817,0.005912,-0.035357,-0.004194,4.692127,-38.102493,-31.478775,,,,,,,
1558972841.373319,-0.498589,1.209925,2.668655,0.573324,-0.433668,-0.264330,-0.168843,-0.935589,-0.310104,-0.020687,-0.018482,-0.016831,4.591539,-38.276321,-31.282104,,,,,,,
1558972841.393296,-0.504787,1.222214,2.669464,0.530601,-0.185150,-0.333515,-0.165188,-0.939858,-0.298965,-0.022174,0.001046,-0.003358,4.549740,-38.766754,-30.678463,,,,,,,
1558972841.413291,-0.509891,1.231992,2.668927,0.344481,-0.386885,-0.176516,-0.162219,-0.943153,-0.290083,-0.003049,0.000861,0.012159,4.589481,-39.030270,-30.336514,,,,,,,
1558972841.433256,-0.520528,1.238752,2.669082,0.221428,-0.571182,-0.153824,-0.162120,-0.945378,-0.282803,0.007976,-0.001201,0.012692,4.473409,-39.156204,-30.191212,,,,,,,
1558972841.453261,-0.528126,1.244827,2.665833,0.263342,-0.480599,-0.221253,-0.161367,-0.947341,-0.276597,-0.008723,0.014876,-0.020766,4.240687,-39.332424,-29.995104,,,,,,,
1558972841.473224,-0.529772,1.252150,2.660343,0.354453,-0.297187,-0.240779,-0.158313,-0.949660,-0.270338,0.010333,0.022994,-0.020754,4.188587,-39.445976,-29.852970,,,,,,,
1558972841.493230,-0.533971,1.261062,2.657874,0.335025,-0.414531,-0.319856,-0.155132,-0.952415,-0.262374,0.012005,0.021201,-0.008667,4.216718,-39.558773,-29.699358,,,,,,,
1558972841.513217,-0.530312,1.270399,2.645979,0.290602,-0.354134,-0.378034,-0.149667,-0.955219,-0.255258,-0.011008,-0.006253,0.000528,4.285064,-39.817650,-29.341478,,,,,,,
1558972841.533179,-0.525548,1.278090,2.633408,0.222417,-0.335689,-0.298909,-0.144759,-0.957466,-0.249605,0.030181,0.030083,0.004793,4.322098,-39.912842,-29.206402,,,,,,,
1558972841.553185,-0.524879,1.284728,2.627593,0.268559,-0.170867,-0.184123,-0.141404,-0.959361,-0.244196,0.026933,0.005580,-0.016180,4.390038,-39.988075,-29.093140,,,,,,,
1558972841.573166,-0.528277,1.291006,2.629081,0.279370,-0.094735,-0.127869,-0.139194,-0.961113,-0.238508,0.021229,0.029885,-0.021365,4.469286,-40.196045,-28.792925,,,,,,,
1558972841.593146,-0.530377,1.297430,2.629037,0.285534,-0.143326,-0.085626,-0.136569,-0.962867,-0.232884,0.020022,0.012535,-0.002071,4.499287,-40.308270,-28.630909,,,,,,,
1558972841.613141,-0.540302,1.302048,2.635549,0.201121,-0.213616,-0.027646,-0.136585,-0.964104,-0.227701,0.019809,0.013009,0.004542,4.542044,-40.415173,-28.473021,,,,,,,
1558972841.633126,-0.543405,1.305096,2.632913,0.073374,-0.270200,-0.145731,-0.135770,-0.964909,-0.224760,0.017682,0.025822,0.022734,4.418732,-40.558582,-28.287903,,,,,,,
1558972841.653082,-0.539598,1.307444,2.622231,-0.077050,-0.375122,-0.153264,-0.133749,-0.965523,-0.223331,0.003317,0.004280,0.007328,4.413172,-40.589214,-28.244801,,,,,,,
1558972841.673096,-0.533657,1.306774,2.608285,-0.122826,-0.360031,-0.117924,-0.132749,-0.965348,-0.224679,0.013212,0.011842,0.018975,4.349096,-40.547470,-28.314613,,,,,,,
1558972841.693081,-0.533793,1.307080,2.601960,0.048694,-0.290021,-0.056260,-0.132630,-0.965428,-0.224406,0.016846,0.026768,-0.001531,4.244472,-40.469093,-28.442327,,,,,,,
1558972841.713050,-0.541603,1.309870,2.605068,0.231810,-0.247533,0.019026,-0.132989,-0.966151,-0.221055,0.034600,0.018565,-0.000884,4.090168,-40.505577,-28.412991,,,,,,,
1558972841.733051,-0.555366,1.313089,2.612069,0.202354,-0.469367,0.007268,-0.134378,-0.966977,-0.216560,0.016397,0.023999,-0.016762,3.955321,-40.612545,-28.279068,,,,,,,
1558972841.753012,-0.567159,1.316736,2.613300,0.062695,-0.577647,-0.087836,-0.135027,-0.967900,-0.211984,0.019778,-0.025768,0.023752,3.691704,-40.720802,-28.158779,,,,,,,
1558972841.773021,-0.568018,1.321919,2.603713,0.230454,-0.483719,-0.303536,-0.132509,-0.969190,-0.207637,0.009065,-0.069308,0.009227,3.529811,-40.758701,-28.124687,,,,,,,
1558972841.792997,-0.573187,1.333012,2.596148,0.520350,-0.744360,-0.404021,-0.127741,-0.971862,-0.197903,-0.017080,-0.017029,-0.037128,3.537813,-40.837753,-28.008766,,,,,,,
1558972841.812973,-0.587870,1.345763,2.596454,0.589926,-0.628461,-0.408192,-0.123751,-0.974787,-0.185680,-0.033232,-0.023535,-0.001271,3.389669,-41.201168,-27.490053,,,,,,,
1558972841.832976,-0.593837,1.360140,2.590511,0.530425,-0.629317,-0.482983,-0.117002,-0.977894,-0.173304,0.001539,-0.027569,0.002604,3.426715,-41.486168,-27.053368,,,,,,,
1558972841.852959,-0.593501,1.373193,2.574348,0.405187,-0.845364,-0.494760,-0.109795,-0.980540,-0.162747,-0.006599,-0.024633,0.000805,3.453011,-41.607986,-26.862268,,,,,,,
1558972841.872940,-0.594249,1.383828,2.559592,0.322529,-0.665019,-0.347900,-0.104072,-0.982572,-0.154015,-0.031212,-0.010729,-0.008461,3.402081,-41.882603,-26.438663,,,,,,,
1558972841.892932,-0.595290,1.390765,2.551318,0.211653,-0.336579,-0.224201,-0.100408,-0.983838,-0.148260,-0.020747,-0.009768,-0.013743,3.362807,-41.980690,-26.287691,,,,,,,
1558972841.912916,-0.596512,1.395737,2.547591,0.167424,-0.205325,-0.256074,-0.097840,-0.984716,-0.144088,-0.023742,0.008093,-0.001145,3.328623,-42.079803,-26.133116,,,,,,,
1558972841.932902,-0.570050,1.402062,2.515511,0.074819,-0.315132,-0.500623,-0.090630,-0.985798,-0.141380,-0.042457,0.036518,0.010673,3.515338,-42.147274,-25.999596,,,,,,,
1558972841.952886,-0.527339,1.409453,2.464498,0.163110,-0.389772,-0.624043,-0.080842,-0.987012,-0.138821,-0.063567,0.032438,0.000484,3.810911,-42.145638,-25.960575,,,,,,,
1558972841.972871,-0.495525,1.421152,2.425204,0.482523,-0.314109,-0.503487,-0.070890,-0.988824,-0.131154,-0.071048,0.047937,-0.021571,3.924362,-42.176842,-25.892904,,,,,,,
1558972841.992856,-0.487715,1.437806,2.409332,0.796817,-0.550401,-0.492685,-0.062137,-0.991170,-0.117138,-0.065045,0.098180,-0.105075,4.312446,-42.514374,-25.271729,,,,,,,
1558972842.012841,-0.480828,1.461319,2.385827,1.103788,-0.905556,-0.827877,-0.050534,-0.994013,-0.096870,-0.070255,0.146372,-0.070275,4.402717,-42.801174,-24.767017,,,,,,,
1558972842.032808,-0.401428,1.491799,2.280240,1.141411,-1.581642,-1.135395,-0.030835,-0.996881,-0.072642,0.020367,0.046579,-0.073721,4.606102,-43.146019,-24.123310,,,,,,,
1558972842.052799,-0.257564,1.517835,2.101396,0.972408,-1.710379,-0.875189,-0.013484,-0.998598,-0.051191,0.002910,-0.009062,0.023770,4.910121,-43.774220,-22.900602,,,,,,,
1558972842.072791,-0.008506,1.535078,1.822089,0.594362,-1.323277,-0.648652,-0.000304,-0.999362,-0.035710,-0.026002,-0.000195,0.038334,4.875062,-44.085938,-22.302307,,,,,,,
1558972842.092756,0.268936,1.538466,1.529497,-0.025494,-0.305870,-0.329793,0.008589,-0.999477,-0.031163,-0.054045,-0.014088,0.082204,4.874606,-44.172916,-22.129641,,,,,,,
1558972842.112748,0.262367,1.529011,1.546209,-0.686134,0.969779,0.068377,0.010835,-0.999127,-0.040344,0.006911,0.009152,0.049545,5.169474,-44.050770,-22.305506,,,,,,,
1558972842.132728,0.120294,1.512378,1.718708,-0.968201,1.749633,0.344662,0.007007,-0.998294,-0.057964,0.047879,0.033572,0.009593,5.591447,-43.699123,-22.887802,,,,,,,
1558972842.152737,0.032431,1.495192,1.842520,-0.800159,1.693748,0.319706,0.002449,-0.997143,-0.075493,-0.015740,0.034619,0.010613,5.847845,-43.497948,-23.204750,,,,,,,
1558972842.172722,-0.009611,1.484266,1.915472,-0.348387,1.484144,0.282829,-0.000831,-0.996259,-0.086418,0.001578,0.024762,-0.047127,6.610353,-43.034340,-23.855362,,,,,,,
1558972842.192707,-0.074407,1.480505,2.012925,-0.176487,1.403185,0.469030,-0.006703,-0.995926,-0.089919,0.017583,0.028474,-0.038651,7.053662,-42.986305,-23.814959,,,,,,,
1558972842.212692,-0.120075,1.474651,2.074488,-0.333342,0.545401,0.257841,-0.011499,-0.995382,-0.095306,0.014826,0.044423,-0.046707,7.164970,-42.971649,-23.808189,,,,,,,
1558972842.232677,-0.145852,1.464728,2.107743,-0.545995,0.274798,0.211307,-0.015387,-0.994380,-0.104745,0.009375,-0.027822,0.029718,7.212716,-42.766933,-24.159796,,,,,,,
1558972842.252662,-0.152311,1.452938,2.117588,-0.552776,0.100247,0.091122,-0.017840,-0.993063,-0.116225,-0.008222,-0.038615,0.039610,7.168408,-42.512119,-24.618349,,,,,,,
1558972842.272646,-0.142993,1.443888,2.107464,-0.395785,-0.124850,-0.033687,-0.018037,-0.991958,-0.125276,-0.014755,-0.031083,0.045824,7.155944,-42.384979,-24.840191,,,,,,,
1558972842.292632,-0.137548,1.439967,2.096849,-0.033398,-0.305383,-0.028719,-0.017887,-0.991454,-0.129224,-0.003795,-0.022660,-0.018817,7.124022,-42.175285,-25.203629,,,,,,,
1558972842.312616,-0.168457,1.443840,2.120680,0.401764,-0.401854,-0.101884,-0.021228,-0.991952,-0.124823,-0.060192,-0.017661,-0.023157,6.941689,-42.193901,-25.223347,,,,,,,
1558972842.332583,-0.160757,1.454760,2.102047,0.564284,-0.565679,-0.230372,-0.018532,-0.993275,-0.114284,-0.041100,-0.034969,0.011821,6.701477,-42.346436,-25.031961,,,,,,,
1558972842.352585,-0.144744,1.466176,2.072396,0.521297,-0.697606,-0.247684,-0.015063,-0.994532,-0.103338,-0.014905,-0.025319,0.018606,6.632224,-42.530697,-24.736263,,,,,,,
1558972842.372552,-0.128109,1.475907,2.041310,0.427575,-0.692824,-0.206075,-0.012105,-0.995501,-0.093971,-0.015743,-0.025556,0.017952,6.417280,-42.854240,-24.229362,,,,,,,
1558972842.392539,-0.099320,1.483806,2.000605,0.342954,-0.549749,-0.250682,-0.008615,-0.996219,-0.086453,-0.027197,-0.023206,0.019543,6.417280,-42.854240,-24.229362,,,,,,,
1558972842.412522,-0.052770,1.490944,1.941705,0.289403,-0.667914,-0.291359,-0.004207,-0.996813,-0.079657,-0.001713,-0.002042,0.014334,6.253095,-43.150177,-23.742165,,,,,,,
1558972842.432518,0.002106,1.495486,1.872892,0.174398,-0.658784,-0.244387,0.000158,-0.997166,-0.075239,-0.013785,0.007236,0.018735,6.194817,-43.216881,-23.635880,,,,,,,
1558972842.452482,0.039899,1.498286,1.823556,0.083117,-0.522824,-0.121448,0.002890,-0.997372,-0.072389,0.005319,0.003644,0.013780,6.102038,-43.278179,-23.547688,,,,,,,
1558972842.472498,0.055706,1.499423,1.798354,0.067309,-0.452909,-0.074882,0.003970,-0.997454,-0.071202,0.003644,0.012499,-0.004741,5.926977,-43.304329,-23.544327,,,,,,,
1558972842.492482,0.058545,1.501141,1.785749,0.150196,-0.504109,-0.093454,0.004072,-0.997575,-0.069479,-0.015562,0.014528,-0.009408,5.774317,-43.340298,-23.516058,,,,,,,
1558972842.512466,0.072551,1.504783,1.761753,0.201336,-0.469427,-0.047172,0.004782,-0.997822,-0.065792,-0.025839,0.013722,-0.014683,5.654328,-43.364239,-23.501081,,,,,,,
1558972842.532452,0.061675,1.508524,1.764867,0.176120,-0.342370,0.009543,0.003836,-0.998062,-0.062114,-0.009909,0.020278,-0.002415,5.388761,-43.496281,-23.318748,,,,,,,
1558972842.552437,0.045718,1.511492,1.775281,0.104064,-0.229907,0.037254,0.002709,-0.998242,-0.059207,-0.003090,0.012738,0.006442,5.201547,-43.565121,-23.232588,,,,,,,
1558972842.572422,0.023501,1.513468,1.794341,0.088427,-0.127287,0.042495,0.001346,-0.998357,-0.057281,-0.005985,0.013875,0.001358,5.126362,-43.600803,-23.182304,,,,,,,
1558972842.592408,-0.003085,1.514946,1.818442,0.087287,-0.143114,0.057290,-0.000172,-0.998441,-0.055821,-0.003063,0.017896,-0.003307,4.951755,-43.673149,-23.083876,,,,,,,
1558972842.612373,-0.034345,1.517140,1.846143,0.107427,-0.181313,0.030251,-0.001842,-0.998561,-0.053599,-0.012227,0.014140,0.002070,4.793411,-43.725407,-23.018286,,,,,,,
1558972842.632377,-0.064777,1.518698,1.873886,0.054499,-0.100735,0.008562,-0.003371,-0.998643,-0.051966,-0.017854,0.007814,0.000849,4.740901,-43.750366,-22.981697,,,,,,,
1558972842.652363,-0.084758,1.519081,1.892555,-0.001735,-0.039115,0.020853,-0.004376,-0.998663,-0.051506,-0.004611,0.001135,0.001137,4.590823,-43.794514,-22.928022,,,,,,,
1558972842.672340,-0.102773,1.518410,1.910896,-0.041969,0.043598,0.057913,-0.005372,-0.998628,-0.052085,-0.000625,0.002458,0.001304,4.541131,-43.791992,-22.942726,,,,,,,
1558972842.692332,-0.122962,1.517260,1.932358,-0.062132,0.057429,0.047353,-0.006563,-0.998567,-0.053107,-0.003355,-0.000471,0.003744,4.527463,-43.784149,-22.960400,,,,,,,
1558972842.712303,-0.126481,1.516106,1.936272,-0.048457,-0.010352,0.007212,-0.006896,-0.998505,-0.054228,0.001189,0.002808,-0.001329,4.500834,-43.754086,-23.022856,,,,,,,
1558972842.732276,-0.129906,1.515374,1.939072,0.004714,-0.027548,0.003887,-0.007176,-0.998465,-0.054927,-0.005703,0.001211,-0.008626,4.479126,-43.730900,-23.071093,,,,,,,
1558972842.752269,-0.133238,1.515403,1.941962,0.020725,-0.014951,0.001886,-0.007355,-0.998466,-0.054874,-0.003281,0.001259,-0.010037,4.471538,-43.733727,-23.067194,,,,,,,
1558972842.772259,-0.139406,1.515117,1.948383,-0.027033,0.029696,0.003343,-0.007733,-0.998450,-0.055110,-0.004550,-0.002694,-0.000447,4.451968,-43.732334,-23.073624,,,,,,,
1558972842.792243,-0.140151,1.513876,1.950460,-0.082149,0.094439,-0.013163,-0.007947,-0.998380,-0.056331,-0.010989,-0.008089,0.002406,4.450797,-43.712761,-23.110905,,,,,,,
1558972842.812222,-0.129669,1.512260,1.942206,-0.078897,0.112391,-0.012988,-0.007565,-0.998287,-0.058012,-0.003833,-0.006763,0.001509,4.479805,-43.692829,-23.142971,,,,,,,
1558972842.832228,-0.115680,1.510885,1.930060,-0.078997,0.075375,-0.027222,-0.006911,-0.998206,-0.059475,-0.000627,-0.003808,0.001370,4.551590,-43.656002,-23.198395,,,,,,,
1558972842.852212,-0.093842,1.509498,1.909728,-0.038531,0.075144,-0.038937,-0.005740,-0.998122,-0.060990,0.008578,0.003493,-0.007064,4.646342,-43.599998,-23.284784,,,,,,,
1558972842.872196,-0.082315,1.509567,1.899369,0.035868,0.054718,-0.007045,-0.005031,-0.998126,-0.060984,0.007061,0.005466,-0.004262,4.646342,-43.599998,-23.284784,,,,,,,
1558972842.892164,-0.080636,1.510692,1.899171,0.048721,0.084264,0.004992,-0.004838,-0.998194,-0.059872,-0.002684,0.002101,0.003063,4.749095,-43.588711,-23.285179,,,,,,,
1558972842.912167,-0.084265,1.511206,1.904242,-0.007737,0.061271,-0.018760,-0.005013,-0.998225,-0.059345,-0.008278,0.002467,0.004337,4.794297,-43.620655,-23.215994,,,,,,,
1558972842.932127,-0.076606,1.510683,1.897680,-0.025837,0.056068,-0.027365,-0.004598,-0.998194,-0.059901,-0.006968,0.002543,-0.000417,4.806183,-43.620529,-23.213779,,,,,,,
1558972842.952134,-0.070372,1.510821,1.892636,0.031627,0.061084,-0.004851,-0.004215,-0.998202,-0.059792,0.000858,0.009966,-0.000282,4.867095,-43.607281,-23.225969,,,,,,,
1558972842.972123,-0.073152,1.511792,1.896693,0.051863,0.072632,0.013426,-0.004310,-0.998260,-0.058813,-0.000802,0.004256,0.001547,4.894201,-43.626282,-23.184555,,,,,,,
1558972842.992094,-0.078970,1.512776,1.904507,0.030674,0.108700,0.025498,-0.004575,-0.998317,-0.057807,0.002026,0.006084,0.005759,4.904702,-43.640026,-23.156456,,,,,,,
1558972843.012094,-0.087717,1.513199,1.914921,-0.010992,0.062409,0.025022,-0.005043,-0.998342,-0.057344,-0.000084,0.005529,0.010515,4.939833,-43.666088,-23.099779,,,,,,,
1558972843.032078,-0.096224,1.512781,1.924663,-0.035450,0.068876,0.022929,-0.005571,-0.998318,-0.057715,-0.003981,0.007183,0.000830,4.945933,-43.670197,-23.090710,,,,,,,
1558972843.052061,-0.106717,1.512167,1.936925,-0.017293,0.089929,0.028484,-0.006241,-0.998282,-0.058262,-0.006744,0.010352,0.000248,4.946526,-43.664391,-23.101562,,,,,,,
1558972843.072018,-0.114674,1.512384,1.945876,0.018723,0.026286,0.006551,-0.006680,-0.998294,-0.057995,-0.002567,0.014026,0.002957,4.952811,-43.663383,-23.102112,,,,,,,
1558972843.092032,-0.117674,1.513101,1.949326,0.036804,0.029394,0.009793,-0.006770,-0.998336,-0.057264,-0.000478,0.009399,0.003904,4.955519,-43.678165,-23.073580,,,,,,,
1558972843.112017,-0.121782,1.513540,1.954487,-0.014160,0.068770,0.009062,-0.006952,-0.998361,-0.056800,-0.001456,0.009073,0.007133,4.957940,-43.689461,-23.051662,,,,,,,
1558972843.132003,-0.123809,1.512707,1.958733,-0.089553,0.135793,0.033131,-0.007170,-0.998313,-0.057612,0.004041,0.009696,0.007776,4.991981,-43.686111,-23.050657,,,,,,,
1558972843.151973,-0.129267,1.510727,1.967380,-0.109670,0.170787,0.037720,-0.007739,-0.998196,-0.059533,0.002948,0.006070,0.010476,5.021199,-43.658413,-23.096752,,,,,,,
1558972843.171973,-0.122145,1.509060,1.962496,-0.111024,0.063975,-0.002808,-0.007517,-0.998095,-0.061238,0.005717,0.008257,0.006596,5.075672,-43.623817,-23.150148,,,,,,,
1558972843.191959,-0.113508,1.507060,1.954453,-0.085612,0.025800,0.004320,-0.007214,-0.997970,-0.063283,0.002499,0.007613,-0.002696,5.122124,-43.564556,-23.251293,,,,,,,
1558972843.211934,-0.115954,1.506323,1.957385,-0.005827,0.014825,0.013888,-0.007454,-0.997922,-0.063996,-0.000313,0.007718,0.000047,5.128632,-43.539825,-23.296141,,,,,,,
1558972843.231928,-0.122757,1.506641,1.964179,0.016488,-0.001161,0.005212,-0.007850,-0.997943,-0.063629,-0.005486,0.000811,0.000992,5.118771,-43.541649,-23.294899,,,,,,,
1558972843.251913,-0.128215,1.506529,1.970156,-0.017414,0.049759,0.008876,-0.008212,-0.997936,-0.063696,-0.005094,0.003795,0.000204,5.105579,-43.549229,-23.283623,,,,,,,
1558972843.271888,-0.132114,1.505741,1.975606,-0.056703,0.082744,0.016634,-0.008564,-0.997885,-0.064443,-0.000729,0.003042,0.002523,5.108587,-43.543541,-23.293598,,,,,,,
1558972843.291882,-0.130067,1.504328,1.975102,-0.084411,0.069135,0.007940,-0.008615,-0.997792,-0.065858,0.002114,0.003453,0.001802,5.134457,-43.519684,-23.332466,,,,,,,
1558972843.311868,-0.127781,1.502678,1.973769,-0.082349,0.043740,-0.002977,-0.008674,-0.997681,-0.067511,-0.003793,0.000504,0.001318,5.164403,-43.472027,-23.414543,,,,,,,
1558972843.331824,-0.125651,1.501326,1.972326,-0.045152,0.026635,-0.000976,-0.008699,-0.997588,-0.068868,-0.001753,0.001494,-0.004649,5.174285,-43.446472,-23.459751,,,,,,,
1558972843.351838,-0.126384,1.500578,1.973272,-0.017533,0.012759,0.006387,-0.008843,-0.997536,-0.069600,-0.002418,0.001747,-0.004435,5.179359,-43.422264,-23.503412,,,,,,,
1558972843.371824,-0.126292,1.499807,1.973891,-0.012145,0.044478,0.031250,-0.008934,-0.997481,-0.070365,0.003746,0.003173,-0.006081,5.185533,-43.402802,-23.537981,,,,,,,
1558972843.391802,-0.134604,1.499758,1.983413,0.009203,0.062336,0.031438,-0.009525,-0.997478,-0.070337,0.002613,0.003597,-0.000525,5.183812,-43.399734,-23.544003,,,,,,,
1558972843.411793,-0.139714,1.499469,1.989606,-0.030207,0.049841,0.019542,-0.009925,-0.997457,-0.070573,-0.000467,-0.000086,0.002732,5.188551,-43.403374,-23.536259,,,,,,,
1558972843.431777,-0.144260,1.498403,1.995241,-0.052525,0.060526,0.018560,-0.010398,-0.997381,-0.071580,-0.005517,-0.004771,-0.004211,5.189505,-43.396862,-23.548044,,,,,,,
1558972843.451758,-0.149647,1.496855,2.001916,-0.042948,0.059417,0.017490,-0.011014,-0.997268,-0.073049,-0.001865,-0.002687,-0.008143,5.190007,-43.357162,-23.620956,,,,,,,
1558972843.471730,-0.151198,1.496279,2.004366,-0.001494,0.036989,0.008767,-0.011214,-0.997225,-0.073600,-0.002306,-0.001844,-0.007058,5.194559,-43.344528,-23.643129,,,,,,,
1558972843.491715,-0.149361,1.496529,2.003032,0.018674,0.012547,-0.007466,-0.011041,-0.997243,-0.073372,0.000299,0.004125,0.000359,5.215446,-43.339790,-23.647213,,,,,,,
1558972843.511718,-0.150224,1.496857,2.004141,0.011241,0.021052,-0.000984,-0.011056,-0.997268,-0.073040,-0.003898,0.001479,0.001263,5.224224,-43.347603,-23.630960,,,,,,,
1558972843.531675,-0.150145,1.496871,2.004815,-0.007842,0.042285,-0.006134,-0.011048,-0.997269,-0.073027,-0.005096,0.001434,0.004118,5.226602,-43.350529,-23.625061,,,,,,,
1558972843.551682,-0.146530,1.497266,2.001660,0.016539,0.009384,-0.009633,-0.010726,-0.997298,-0.072676,0.002868,0.006514,0.002974,5.256562,-43.354961,-23.610277,,,,,,,
1558972843.571673,-0.144554,1.498134,1.999826,0.050598,0.008148,-0.009618,-0.010458,-0.997361,-0.071841,0.002584,0.009370,0.001864,5.268416,-43.364750,-23.589647,,,,,,,
1558972843.591642,-0.144524,1.498868,2.000036,0.025048,0.013587,0.004293,-0.010350,-0.997414,-0.071118,0.003362,0.013100,0.000119,5.279459,-43.381622,-23.556139,,,,,,,
1558972843.611615,-0.146424,1.499159,2.002256,-0.006888,0.013757,0.005337,-0.010443,-0.997435,-0.070810,-0.000925,0.010710,0.007440,5.289679,-43.397781,-23.524054,,,,,,,
1558972843.631628,-0.143248,1.498821,1.999124,-0.035650,0.000144,-0.009764,-0.010266,-0.997411,-0.071176,0.002866,0.017217,0.003259,5.293002,-43.394920,-23.528584,,,,,,,
1558972843.651609,-0.141326,1.497965,1.997244,-0.037811,0.004428,0.020169,-0.010250,-0.997349,-0.072041,0.006984,0.015827,-0.001201,5.299138,-43.386238,-23.543209,,,,,,,
1558972843.671599,-0.150441,1.497459,2.006533,-0.011184,0.013817,0.030957,-0.010981,-0.997312,-0.072443,-0.006353,0.005918,-0.000295,5.282738,-43.365208,-23.585598,,,,,,,
1558972843.691584,-0.160112,1.496924,2.016668,-0.033473,0.024474,0.010757,-0.011767,-0.997273,-0.072861,-0.006895,-0.001049,0.000428,5.252095,-43.362270,-23.597849,,,,,,,
1558972843.711546,-0.158371,1.495869,2.015291,-0.031382,0.010713,0.005289,-0.011806,-0.997194,-0.073921,0.002025,0.000673,-0.009148,5.247821,-43.348175,-23.624668,,,,,,,
1558972843.731555,-0.159295,1.495387,2.016319,0.028193,0.003009,0.010601,-0.011950,-0.997158,-0.074383,-0.002073,0.000393,-0.012012,5.251096,-43.327221,-23.662363,,,,,,,
1558972843.751533,-0.167789,1.496524,2.024951,0.083537,0.003786,0.018126,-0.012392,-0.997243,-0.073162,-0.002104,-0.002299,-0.000736,5.239461,-43.335949,-23.648949,,,,,,,
1558972843.771523,-0.178588,1.498012,2.035800,0.064399,0.008106,0.012815,-0.012918,-0.997352,-0.071563,-0.007956,-0.006401,0.001617,5.219947,-43.377491,-23.576994,,,,,,,
1558972843.791509,-0.188433,1.498947,2.045975,0.035695,0.014583,0.002179,-0.013447,-0.997420,-0.070517,-0.009151,-0.004869,0.003272,5.198447,-43.417229,-23.508499,,,,,,,
1558972843.811469,-0.192558,1.499634,2.050309,0.014425,0.015737,-0.007435,-0.013607,-0.997469,-0.069788,-0.007099,-0.006040,0.007105,5.188277,-43.434395,-23.479021,,,,,,,
1558972843.831478,-0.193419,1.499912,2.051811,-0.023824,0.036017,-0.010474,-0.013614,-0.997489,-0.069504,-0.005262,-0.006494,0.007233,5.192281,-43.450001,-23.449247,,,,,,,
1558972843.851456,-0.189342,1.499438,2.048212,-0.039860,0.013900,-0.012834,-0.013419,-0.997455,-0.070024,-0.001565,-0.001950,0.005677,5.216137,-43.438866,-23.464573,,,,,,,
1558972843.871436,-0.186105,1.499273,2.044977,0.010123,-0.001163,-0.014005,-0.013223,-0.997443,-0.070228,-0.003104,0.000373,0.001121,5.225022,-43.430096,-23.478827,,,,,,,
1558972843.891434,-0.182463,1.500023,2.041373,0.034641,0.002916,-0.027826,-0.012831,-0.997497,-0.069540,-0.003984,-0.000215,0.003958,5.231628,-43.433029,-23.471930,,,,,,,
1558972843.911419,-0.172490,1.500917,2.031418,0.023981,-0.000195,-0.024662,-0.011984,-0.997559,-0.068786,0.009817,0.008103,0.004623,5.257280,-43.449974,-23.434803,,,,,,,
1558972843.931405,-0.161774,1.501403,2.020626,0.003726,-0.003239,-0.010830,-0.011168,-0.997593,-0.068432,0.005080,0.009449,0.001095,5.311537,-43.462460,-23.399391,,,,,,,
1558972843.951389,-0.160251,1.501528,2.019156,0.007985,0.002039,-0.000100,-0.011044,-0.997602,-0.068326,0.003186,0.008436,0.001294,5.311537,-43.462460,-23.399391,,,,,,,
1558972843.971375,-0.161708,1.501895,2.020371,0.015372,-0.018085,-0.001355,-0.011085,-0.997627,-0.067949,-0.001061,0.007362,0.001436,5.323576,-43.466934,-23.388344,,,,,,,
1558972843.991340,-0.163548,1.501879,2.022014,0.001579,-0.002151,0.003058,-0.011212,-0.997626,-0.067944,-0.000232,0.008353,-0.002155,5.309565,-43.474705,-23.377075,,,,,,,
1558972844.011343,-0.163483,1.501865,2.022066,0.011171,-0.001154,-0.003331,-0.011210,-0.997625,-0.067958,0.001032,0.008245,-0.003270,5.308713,-43.473793,-23.378967,,,,,,,
1558972844.031327,-0.161872,1.502426,2.019903,0.030227,-0.037206,-0.012202,-0.011010,-0.997664,-0.067424,-0.001776,0.005690,0.000285,5.311692,-43.481144,-23.364616,,,,,,,
1558972844.051304,-0.163262,1.503020,2.020886,0.027116,-0.006518,-0.000167,-0.011008,-0.997704,-0.066824,-0.004037,0.005913,0.001822,5.305552,-43.490868,-23.347906,,,,,,,
1558972844.071287,-0.167480,1.503528,2.024944,0.028142,-0.013909,0.009372,-0.011205,-0.997738,-0.066277,-0.000208,0.006390,-0.000282,5.294922,-43.504879,-23.324203,,,,,,,
1558972844.091263,-0.169725,1.504193,2.026755,0.024926,-0.022353,0.006085,-0.011242,-0.997783,-0.065597,0.001766,0.007304,0.005768,5.279971,-43.522358,-23.294973,,,,,,,
1558972844.111241,-0.174290,1.504489,2.031055,0.004683,-0.013735,0.022160,-0.011490,-0.997802,-0.065255,0.005066,0.009414,0.004143,5.268403,-43.532867,-23.277937,,,,,,,
1558972844.131223,-0.183489,1.504457,2.039885,0.008870,-0.024291,0.046618,-0.012096,-0.997800,-0.065179,0.008952,0.010374,-0.000907,5.251369,-43.537693,-23.272766,,,,,,,
1558972844.151229,-0.199641,1.504369,2.055486,0.006735,-0.027456,0.043383,-0.013164,-0.997795,-0.065059,-0.008565,0.005287,0.000866,5.189432,-43.546520,-23.270147,,,,,,,
1558972844.171224,-0.213119,1.504051,2.068696,-0.024046,-0.006173,0.030751,-0.014107,-0.997773,-0.065187,-0.009865,0.001908,0.003145,5.147296,-43.551350,-23.270468,,,,,,,
1558972844.191191,-0.218122,1.503002,2.073776,-0.047366,0.012940,0.006361,-0.014659,-0.997703,-0.066136,-0.012822,0.000099,-0.003077,5.099239,-43.542839,-23.296957,,,,,,,
1558972844.211195,-0.217611,1.501906,2.073622,-0.026038,0.020211,-0.004228,-0.014861,-0.997628,-0.067212,-0.000809,0.006692,-0.006809,5.094206,-43.515106,-23.349819,,,,,,,
1558972844.231179,-0.212225,1.501682,2.068661,0.000606,0.026400,-0.012689,-0.014546,-0.997613,-0.067510,0.004247,0.010979,-0.004619,5.109116,-43.503540,-23.368099,,,,,,,
1558972844.251164,-0.209631,1.501656,2.066716,0.002719,0.034888,0.016219,-0.014376,-0.997611,-0.067572,0.008502,0.011786,-0.004449,5.124820,-43.499874,-23.371492,,,,,,,
1558972844.271149,-0.215536,1.501531,2.073400,-0.004755,0.039191,0.040809,-0.014802,-0.997602,-0.067608,0.008347,0.010160,0.001629,5.132469,-43.499908,-23.369741,,,,,,,
1558972844.291069,-0.223494,1.501327,2.082076,-0.003724,0.028614,0.039641,-0.015385,-0.997588,-0.067687,0.008015,0.012236,0.002318,5.122455,-43.501091,-23.369747,,,,,,,
1558972844.311040,-0.231297,1.501224,2.090161,0.006831,0.000016,0.037239,-0.015936,-0.997581,-0.067665,0.008612,0.009101,-0.000710,5.120021,-43.502243,-23.368122,,,,,,,
1558972844.331037,-0.238218,1.501422,2.096844,-0.004930,-0.016838,0.034932,-0.016357,-0.997595,-0.067360,0.005523,0.008581,0.005959,5.087425,-43.511395,-23.358208,,,,,,,
1558972844.351017,-0.248379,1.501070,2.106754,-0.026212,-0.009310,0.046731,-0.017127,-0.997570,-0.067532,0.002784,0.009335,0.004330,5.083683,-43.514175,-23.353842,,,,,,,
1558972844.370984,-0.265320,1.500315,2.123801,-0.029349,0.010799,0.053328,-0.018466,-0.997517,-0.067959,-0.008557,0.003117,0.001064,5.017425,-43.513535,-23.369360,,,,,,,
1558972844.390973,-0.282933,1.499256,2.141666,-0.037852,0.009771,0.042637,-0.019955,-0.997442,-0.068638,-0.010272,0.000982,0.000446,4.945859,-43.504345,-23.401707,,,,,,,
1558972844.410954,-0.288726,1.497938,2.147703,-0.050598,0.015111,0.035204,-0.020727,-0.997347,-0.069781,0.001547,0.005602,-0.007047,4.926654,-43.502285,-23.409586,,,,,,,
1558972844.430964,-0.295581,1.496907,2.155077,-0.013320,0.029739,0.052456,-0.021504,-0.997271,-0.070620,0.003636,0.007495,-0.001218,4.886514,-43.467232,-23.482998,,,,,,,
1558972844.450951,-0.309068,1.496322,2.169166,0.013271,0.029618,0.065288,-0.022632,-0.997228,-0.070880,-0.001156,0.005407,-0.005276,4.848568,-43.463367,-23.498001,,,,,,,
1558972844.470935,-0.328777,1.496354,2.189558,0.037732,0.029510,0.079186,-0.024014,-0.997230,-0.070390,0.003079,0.009468,-0.000548,4.836325,-43.463737,-23.499849,,,,,,,
1558972844.490920,-0.349413,1.496592,2.210930,0.024994,0.033785,0.065337,-0.025380,-0.997248,-0.069656,-0.000041,0.003321,0.002075,4.764800,-43.495857,-23.454987,,,,,,,
1558972844.510906,-0.365253,1.496228,2.227157,-0.010200,0.010705,0.058682,-0.026610,-0.997221,-0.069585,-0.004197,0.003019,0.006673,4.707908,-43.514549,-23.431795,,,,,,,
1558972844.530890,-0.379266,1.495644,2.241626,-0.038866,0.033059,0.043923,-0.027798,-0.997177,-0.069746,0.003369,0.013565,0.005400,4.656035,-43.518566,-23.434696,,,,,,,
1558972844.550875,-0.382738,1.494671,2.245899,-0.036741,0.035173,0.051418,-0.028402,-0.997104,-0.070549,0.012762,0.013782,0.003517,4.656035,-43.518566,-23.434696,,,,,,,
1558972844.570860,-0.389073,1.494143,2.252472,-0.009215,-0.005119,0.063864,-0.029048,-0.997064,-0.070855,0.014202,0.015313,0.003747,4.645939,-43.499252,-23.472536,,,,,,,
1558972844.590846,-0.400723,1.494188,2.263955,-0.002857,-0.013607,0.064853,-0.029855,-0.997067,-0.070471,0.007257,0.012585,0.006766,4.589334,-43.506798,-23.469677,,,,,,,
1558972844.610803,-0.412095,1.493466,2.275134,-0.031572,-0.008179,0.059543,-0.030942,-0.997012,-0.070786,0.008802,0.008913,0.007981,4.564407,-43.510170,-23.468287,,,,,,,
1558972844.630811,-0.417147,1.492659,2.280073,-0.033705,-0.009224,0.060597,-0.031625,-0.996949,-0.071364,0.021539,-0.007278,0.006010,4.487863,-43.498260,-23.505098,,,,,,,
1558972844.650800,-0.424873,1.491662,2.287861,-0.044336,0.008846,0.090653,-0.032585,-0.996871,-0.072023,0.028557,-0.015367,0.003969,4.462651,-43.491924,-23.521618,,,,,,,
1558972844.670755,-0.432683,1.490129,2.296401,-0.073014,0.043931,0.126195,-0.033787,-0.996748,-0.073153,0.045857,-0.040102,0.001879,4.434767,-43.482273,-23.544725,,,,,,,
1558972844.690748,-0.453763,1.487030,2.319428,-0.116443,0.138313,0.174046,-0.036676,-0.996494,-0.075201,0.112390,-0.179791,-0.010782,4.349675,-43.441357,-23.635948,,,,,,,
1558972844.710728,-0.479758,1.483362,2.348966,-0.075926,0.169848,0.198936,-0.040305,-0.996180,-0.077465,0.134452,-0.249792,-0.021961,4.263076,-43.402187,-23.723526,,,,,,,
1558972844.730738,-0.520599,1.481824,2.393587,0.094467,0.202809,0.220741,-0.044197,-0.996045,-0.077084,0.131538,-0.406131,-0.034962,4.192359,-43.401527,-23.737331,,,,,,,
1558972844.750726,-0.578247,1.483595,2.455797,0.309659,0.211053,0.128107,-0.047600,-0.996200,-0.072932,0.010796,-0.705689,-0.026891,4.086150,-43.507092,-23.561958,,,,,,,
1558972844.770695,-0.630214,1.493114,2.511932,0.652839,0.178076,-0.221055,-0.045734,-0.996984,-0.062697,-0.042004,-0.795679,-0.027513,4.126516,-43.648643,-23.291571,,,,,,,
1558972844.790696,-0.674231,1.512289,2.558772,0.972533,0.117718,-0.585444,-0.036505,-0.998289,-0.045678,-0.085413,-0.908693,-0.022940,4.440001,-43.944767,-22.668772,,,,,,,
1558972844.810668,-0.728352,1.538679,2.615085,1.145333,0.105850,-0.846993,-0.021374,-0.999484,-0.023964,-0.126651,-0.981137,-0.002633,5.222373,-44.428612,-21.530319,,,,,,,
1558972844.830666,-1.809530,1.569196,-2.585007,1.270126,0.080554,-1.068139,-0.001578,-0.999999,0.000384,-0.158425,-0.980577,-0.004016,6.098794,-44.821594,-20.458706,,,,,,,
1558972844.850628,2.470488,1.533691,-0.582542,1.550835,-0.145432,-1.353003,0.023069,-0.999312,0.029052,-0.173032,-0.972917,-0.019790,6.603957,-45.013420,-19.872318,,,,,,,
1558972844.870636,2.427030,1.487618,-0.546139,1.773790,-0.457825,-1.666496,0.054443,-0.996543,0.062759,-0.270065,-0.842782,-0.023864,8.389854,-45.589008,-17.775885,,,,,,,
1558972844.890606,2.388650,1.437311,-0.517664,1.712166,-0.509579,-1.857082,0.091005,-0.991104,0.097112,-0.283662,-0.709793,-0.059026,9.824979,-45.875576,-16.236712,,,,,,,
1558972844.910605,2.346458,1.389433,-0.484959,1.424800,-0.484778,-1.832519,0.128777,-0.983599,0.126294,-0.291314,-0.641905,-0.093792,10.599251,-45.951714,-15.518541,,,,,,,
1558972844.930590,2.311844,1.347433,-0.459912,1.176283,-0.525398,-1.593954,0.163422,-0.975158,0.149533,-0.248795,-0.368455,-0.172543,12.854696,-45.932838,-13.771727,,,,,,,
1558972844.950565,2.289232,1.310755,-0.448627,1.134183,-0.622158,-1.416617,0.193569,-0.966379,0.169238,-0.343838,-0.244024,-0.253436,14.083645,-45.830242,-12.882900,,,,,,,
1558972844.970526,2.275734,1.271850,-0.448537,1.357626,-0.707015,-1.536827,0.224317,-0.955647,0.190841,-0.436460,-0.160915,-0.287643,14.653470,-45.772930,-12.443621,,,,,,,
1558972844.990546,2.264553,1.227698,-0.452328,1.508940,-0.737663,-1.708890,0.258646,-0.941717,0.215109,-0.437967,-0.043970,-0.279424,16.544235,-45.523708,-10.890786,,,,,,,
1558972845.010531,2.253031,1.182850,-0.454787,1.385714,-0.645005,-1.675005,0.293614,-0.925688,0.238522,-0.411519,0.163344,-0.212780,17.951504,-45.240593,-9.785787,,,,,,,
1558972845.030515,2.237880,1.144682,-0.449813,0.926127,-0.469995,-1.471913,0.324728,-0.910579,0.255730,-0.438986,0.192897,-0.214134,18.638676,-45.065918,-9.294720,,,,,,,
1558972845.050501,2.213800,1.115356,-0.432158,0.420670,-0.372061,-1.373157,0.352017,-0.898067,0.263740,-0.562131,0.313992,-0.242957,20.479853,-44.434738,-8.417787,,,,,,,
1558972845.070462,2.182601,1.087533,-0.403157,0.248177,-0.185522,-1.642692,0.380386,-0.885483,0.266882,-0.656372,0.441056,-0.245596,21.702913,-43.880432,-8.259588,,,,,,,
1558972845.090471,2.152993,1.053284,-0.369524,0.328447,0.114799,-1.982468,0.413218,-0.869052,0.272027,-0.641002,0.489246,-0.204125,22.827240,-43.331287,-8.126877,,,,,,,
1558972845.110438,2.126209,1.014747,-0.334524,0.220237,0.140454,-2.171283,0.448492,-0.849347,0.278324,-0.449850,0.702359,-0.128956,24.115517,-42.673965,-7.880595,,,,,,,
1558972845.130441,2.096217,0.975591,-0.295715,0.045745,0.146559,-2.240761,0.485050,-0.828033,0.281224,-0.346470,0.834488,-0.055851,26.878363,-41.056263,-7.527678,,,,,,,
1558972845.150406,2.068736,0.936083,-0.256328,-0.072891,0.294005,-2.308841,0.520944,-0.805242,0.283201,-0.298425,0.879232,-0.016889,26.878363,-41.056263,-7.527678,,,,,,,
1558972845.170410,2.041564,0.897368,-0.214373,-0.347652,0.265884,-2.287978,0.555827,-0.781688,0.282878,-0.152217,0.989665,0.034001,29.671822,-39.116821,-7.361132,,,,,,,
1558972845.190396,2.010267,0.863546,-0.169414,-0.630591,0.125058,-2.030114,0.588005,-0.760152,0.276441,0.066185,1.114613,0.035693,32.289242,-36.941780,-7.578850,,,,,,,
1558972845.210381,1.980940,0.836961,-0.129106,-0.656138,0.001114,-1.593586,0.614178,-0.742611,0.267046,0.113773,1.115811,0.014005,32.289242,-36.941780,-7.578850,,,,,,,
1558972845.230367,1.957835,0.816892,-0.097803,-0.556633,0.018111,-1.185502,0.633859,-0.729022,0.258359,0.166632,1.110736,0.004946,34.200108,-35.033051,-8.232086,,,,,,,
1558972845.250352,1.941694,0.804011,-0.072643,-0.581279,0.158384,-0.769932,0.646645,-0.720145,0.251478,0.166190,1.071204,-0.018446,35.374199,-33.711147,-8.772345,,,,,,,
1558972845.270335,1.931460,0.797401,-0.051864,-0.521781,0.271653,-0.446371,0.653625,-0.715543,0.246522,0.159165,1.044401,-0.014848,35.374199,-33.711147,-8.772345,,,,,,,
1558972845.290296,1.927587,0.796655,-0.039177,-0.324616,0.210992,-0.027208,0.655075,-0.715022,0.244174,0.121155,1.014125,-0.008930,36.088940,-32.853626,-9.108059,,,,,,,
1558972845.310306,1.925806,0.801746,-0.036114,-0.105823,-0.105696,0.314786,0.652087,-0.718571,0.241739,0.091443,0.984440,-0.016321,36.031013,-32.892662,-9.196079,,,,,,,
1558972845.330287,1.925113,0.809039,-0.041685,0.155275,-0.274927,0.453237,0.647322,-0.723624,0.239463,-0.045958,0.889945,-0.043814,35.830238,-33.079422,-9.309945,,,,,,,
1558972845.350263,1.930798,0.817825,-0.056293,0.405266,-0.213515,0.696380,0.639975,-0.729661,0.240890,-0.064139,0.794465,-0.017287,35.347687,-33.581081,-9.358472,,,,,,,
1558972845.370261,1.942310,0.832131,-0.078735,0.439538,-0.291319,1.096031,0.627368,-0.739368,0.244426,-0.055148,0.779819,-0.003597,34.916008,-34.059139,-9.250781,,,,,,,
1558972845.390223,1.950915,0.855073,-0.100078,0.073536,-0.397739,1.451313,0.609327,-0.754619,0.243457,-0.092176,0.714824,0.008786,34.070862,-34.920731,-9.189586,,,,,,,
1558972845.410232,1.951675,0.886941,-0.110559,-0.502387,-0.305588,1.677007,0.586511,-0.775143,0.234858,-0.267511,0.602444,-0.032312,32.635246,-36.166874,-9.572208,,,,,,,
1558972845.430215,1.944674,0.926292,-0.105491,-1.086143,-0.031673,1.846782,0.559298,-0.799398,0.219430,-0.265398,0.568486,-0.057153,38.894348,-30.522989,-8.547119,,,,,,,
1558972845.450201,1.929833,0.972952,-0.083916,-1.604010,0.201705,2.000207,0.526972,-0.826551,0.197774,-0.300180,0.507795,-0.114171,37.731747,-31.748947,-9.262605,,,,,,,
1558972845.470169,1.907147,1.023135,-0.048964,-1.759868,0.423548,2.072670,0.491515,-0.853745,0.171851,-0.420806,0.386765,-0.191322,36.162788,-33.196922,-10.377536,,,,,,,
1558972845.490159,1.884592,1.076064,-0.014416,-1.621371,0.253026,2.331655,0.451611,-0.880096,0.146556,-0.349133,0.358474,-0.174144,35.156025,-34.062786,-11.011663,,,,,,,
1558972845.510156,1.849719,1.131361,0.025510,-1.718285,-0.069862,2.363719,0.408987,-0.904992,0.117129,-0.402166,0.358071,-0.151812,33.578148,-35.298508,-11.999994,,,,,,,
1558972845.530142,1.797362,1.183952,0.077705,-1.583568,-0.256746,2.269153,0.367626,-0.926104,0.084746,-0.327495,0.165881,-0.328368,31.440645,-36.643417,-13.646330,,,,,,,
1558972845.550113,1.753866,1.235337,0.122161,-1.076211,0.034731,2.466661,0.323702,-0.944259,0.059931,-0.325624,0.053390,-0.344218,29.679235,-37.649696,-14.802692,,,,,,,
1558972845.570111,1.741457,1.290607,0.138175,-0.565425,0.118102,2.760403,0.272520,-0.961003,0.046965,-0.329740,0.048299,-0.258773,28.237299,-38.556206,-15.282345,,,,,,,
1558972845.590097,1.735489,1.344847,0.141327,-0.475163,-0.365732,2.555126,0.221000,-0.974582,0.036730,-0.255363,-0.241727,-0.178667,25.565140,-40.175625,-15.805660,,,,,,,
1558972845.610081,1.729486,1.393437,0.137690,-0.230073,-0.382128,2.346975,0.174214,-0.984313,0.027880,-0.270573,-0.387757,-0.215731,23.941696,-40.990902,-16.248610,,,,,,,
1558972845.630066,1.801539,1.437714,0.066252,0.339842,0.346181,2.247637,0.129173,-0.991158,0.030346,-0.258964,-0.432152,-0.191235,21.915306,-42.008118,-16.507988,,,,,,,
1558972845.650051,2.037101,1.475162,-0.162224,0.661471,0.347512,2.147549,0.085294,-0.995431,0.042931,-0.208112,-0.619941,0.054558,20.565575,-42.805912,-16.192204,,,,,,,
1558972845.670017,2.455995,1.499300,-0.581015,0.553943,-0.096245,1.894453,0.045228,-0.997445,0.055294,-0.229188,-0.787192,0.150929,17.935017,-44.323215,-15.207369,,,,,,,
1558972845.690021,2.953760,1.507516,-1.084834,0.190836,-0.269191,1.593566,0.011809,-0.997998,0.062126,-0.182692,-0.807864,0.155693,16.686985,-44.901115,-14.930192,,,,,,,
1558972845.710007,-2.834395,1.509516,-1.584210,-0.427992,-0.096953,1.502901,-0.018519,-0.998123,0.058374,-0.114416,-0.803681,0.159658,15.546570,-45.328232,-14.870496,,,,,,,
1558972845.729983,-2.307843,1.507682,-2.112177,-0.993683,0.018887,1.346612,-0.046702,-0.998009,0.042391,-0.080892,-0.795097,0.024534,13.485126,-45.742043,-15.597858,,,,,,,
1558972845.749977,-1.864789,1.497404,-2.555418,-0.998541,0.032238,1.067013,-0.070180,-0.997308,0.021248,-0.072657,-0.770530,-0.001046,12.614726,-45.741028,-16.312677,,,,,,,
1558972845.769961,-1.669008,1.481937,-2.754222,-0.396527,-0.226028,0.823734,-0.088315,-0.996055,0.008702,-0.053103,-0.685800,-0.010548,11.887288,-45.692173,-16.982176,,,,,,,
1558972845.789947,-1.626894,1.468622,-2.803535,-0.143412,-0.395747,0.606648,-0.101836,-0.994785,0.005719,-0.027055,-0.563428,-0.019452,10.670856,-45.765545,-17.581923,,,,,,,
1558972845.809931,-1.581904,1.458412,-2.854890,-0.343800,-0.208843,0.483361,-0.112140,-0.993692,0.001246,-0.013973,-0.535834,-0.018961,10.182974,-45.806038,-17.764864,,,,,,,
1558972845.829902,-1.506848,1.449360,-2.932098,-0.512415,-0.047398,0.412172,-0.120891,-0.992636,-0.007741,-0.009785,-0.436670,-0.021128,9.794796,-45.786560,-18.031336,,,,,,,
1558972845.849901,-1.433757,1.441523,-3.006863,-0.480333,-0.054077,0.298963,-0.127705,-0.991656,-0.017611,-0.063732,-0.288511,-0.039915,9.221335,-45.624607,-18.730692,,,,,,,
1558972845.869866,-1.380978,1.435920,-3.061393,-0.337574,-0.077217,0.169670,-0.132053,-0.990918,-0.025371,-0.045514,-0.256503,-0.062092,9.081743,-45.562565,-18.948645,,,,,,,
1558972845.889865,-1.358913,1.432902,-3.085224,-0.090441,-0.059604,0.093166,-0.134384,-0.990508,-0.028908,-0.015152,-0.157777,-0.049080,8.817444,-45.432655,-19.380480,,,,,,,
1558972845.909857,-1.367195,1.431663,-3.078046,0.084127,-0.078545,0.056824,-0.135820,-0.990337,-0.028042,-0.022230,-0.128072,-0.036793,8.744669,-45.434753,-19.408506,,,,,,,
1558972845.929833,-1.380630,1.431340,-3.066529,0.045784,-0.102712,0.018127,-0.136499,-0.990292,-0.026275,-0.026038,-0.082447,-0.012498,8.683591,-45.465233,-19.364502,,,,,,,
1558972845.949814,-1.372963,1.430766,-3.075942,-0.153180,-0.074186,0.017173,-0.136850,-0.990212,-0.027432,-0.031943,-0.018760,-0.014133,8.600452,-45.478531,-19.370390,,,,,,,
1558972845.969812,-1.337496,1.429525,-3.112929,-0.311670,-0.046956,-0.001911,-0.136988,-0.990038,-0.032552,-0.024099,-0.003493,-0.011012,8.571863,-45.420143,-19.519472,,,,,,,
1558972845.989772,-1.292423,1.427242,3.124245,-0.291329,-0.014307,-0.009054,-0.137554,-0.989714,-0.039312,-0.004994,0.022001,-0.003138,0.502119,-43.050339,-22.100189,,,,,,,
1558972846.009778,-1.251432,1.426245,3.082737,-0.216919,-0.026266,0.031459,-0.136765,-0.989571,-0.045226,0.020112,0.054314,-0.009828,0.464683,-42.847809,-22.491150,,,,,,,
1558972846.029767,-1.217136,1.424742,3.047122,-0.153302,-0.077259,0.084399,-0.136528,-0.989353,-0.050404,0.016945,0.051578,-0.004803,0.488867,-42.707458,-22.756016,,,,,,,
1558972846.049739,-1.201549,1.422314,3.030541,-0.166934,-0.006342,0.102147,-0.137967,-0.988997,-0.053393,0.016583,0.045012,0.003359,0.465780,-42.659843,-22.845640,,,,,,,
1558972846.069735,-1.172906,1.418028,3.002952,-0.230407,0.101762,0.072171,-0.140286,-0.988354,-0.058964,-0.001758,0.023830,-0.006466,0.360336,-42.519737,-23.107241,,,,,,,
1558972846.089722,-1.139430,1.415654,2.971746,-0.206923,0.111114,0.047721,-0.140366,-0.987990,-0.064607,0.017899,0.025755,-0.012572,0.353290,-42.401581,-23.323446,,,,,,,
1558972846.109706,-1.116144,1.413949,2.949336,-0.072106,0.008964,0.069268,-0.140337,-0.987725,-0.068597,0.023409,0.019554,-0.018607,0.394887,-42.334480,-23.444365,,,,,,,
1558972846.129692,-1.117953,1.413166,2.951540,0.077998,0.021944,0.088728,-0.141156,-0.987602,-0.068682,0.015332,-0.004189,-0.013258,0.369411,-42.271942,-23.557354,,,,,,,
1558972846.149651,-1.127701,1.412723,2.961902,0.048199,0.017827,0.052366,-0.142214,-0.987532,-0.067490,-0.002974,-0.016862,0.000641,0.380034,-42.279415,-23.543768,,,,,,,
1558972846.169662,-1.136723,1.412602,2.971362,0.007857,0.030660,0.009751,-0.142926,-0.987513,-0.066255,-0.007160,-0.021657,0.010331,0.341919,-42.311272,-23.487055,,,,,,,
1558972846.189647,-1.138481,1.412721,2.973949,0.000478,0.051838,0.008880,-0.142935,-0.987532,-0.065954,-0.002405,-0.013383,0.006796,0.345113,-42.335888,-23.442608,,,,,,,
1558972846.209629,-1.140983,1.412553,2.977588,0.039827,0.048485,0.025962,-0.143250,-0.987506,-0.065665,-0.008285,-0.011930,0.012595,0.356534,-42.338623,-23.437500,,,,,,,
1558972846.229616,-1.152032,1.412516,2.989070,0.029122,0.011487,-0.013902,-0.144001,-0.987500,-0.064093,-0.017971,-0.012287,0.017981,0.358939,-42.357521,-23.403288,,,,,,,
1558972846.249602,-1.151598,1.413000,2.988790,-0.005993,0.010599,-0.024615,-0.143536,-0.987576,-0.063961,-0.016422,-0.003467,0.021069,0.348822,-42.389378,-23.345684,,,,,,,
1558972846.269562,-1.150348,1.412742,2.987733,-0.012383,0.014877,-0.012834,-0.143689,-0.987535,-0.064245,-0.011279,0.006731,0.001028,0.372170,-42.383453,-23.356091,,,,,,,
1558972846.289571,-1.148623,1.413070,2.986447,0.010010,0.021083,-0.025568,-0.143282,-0.987587,-0.064360,-0.006758,0.005699,-0.003832,0.364699,-42.380508,-23.361549,,,,,,,
1558972846.309557,-1.154175,1.413878,2.992370,0.060027,0.021894,-0.013776,-0.142907,-0.987714,-0.063240,0.003549,0.006467,0.007256,0.380794,-42.384037,-23.354895,,,,,,,
1558972846.329543,-1.171255,1.414348,3.009802,0.028114,0.024167,-0.020183,-0.143539,-0.987787,-0.060610,-0.008820,0.007303,0.014361,0.388578,-42.455700,-23.224224,,,,,,,
1558972846.349527,-1.171991,1.415020,3.010986,-0.021916,0.024431,-0.019153,-0.142972,-0.987891,-0.060246,0.001813,0.001136,0.015935,0.394653,-42.471966,-23.194372,,,,,,,
1558972846.369513,-1.174451,1.416299,3.013269,-0.012480,-0.025313,-0.029233,-0.141954,-0.988089,-0.059406,0.009797,0.000418,0.017430,0.425159,-42.493927,-23.153568,,,,,,,
1558972846.389469,-1.184765,1.419289,3.022999,0.036517,-0.016052,-0.025907,-0.139822,-0.988545,-0.056827,0.016348,-0.009746,0.025211,0.502045,-42.533615,-23.079039,,,,,,,
1558972846.409480,-1.187533,1.420513,3.025285,-0.031693,-0.035757,-0.012273,-0.138856,-0.988729,-0.055987,0.019715,-0.013530,0.021579,0.532980,-42.562420,-23.025179,,,,,,,
1558972846.429441,-1.178555,1.421288,3.014887,-0.141417,-0.067969,-0.026551,-0.137640,-0.988844,-0.056938,0.000448,-0.011201,0.002571,0.584321,-42.561497,-23.025633,,,,,,,
1558972846.449451,-1.159470,1.420420,2.994525,-0.144540,-0.042571,-0.017770,-0.137315,-0.988715,-0.059898,-0.003066,-0.009241,-0.002983,0.581362,-42.511124,-23.118584,,,,,,,
1558972846.469416,-1.144752,1.419853,2.978773,-0.091330,-0.054504,-0.034923,-0.136929,-0.988630,-0.062144,-0.003284,-0.008441,-0.003346,0.576170,-42.458588,-23.215057,,,,,,,
1558972846.489393,-1.135086,1.419907,2.967777,-0.033820,-0.053776,-0.053020,-0.136273,-0.988638,-0.063442,-0.006641,-0.004404,-0.007817,0.580740,-42.392403,-23.335581,,,,,,,
1558972846.509407,-1.128804,1.420857,2.960773,-0.030513,-0.027395,-0.070915,-0.135023,-0.988780,-0.063895,-0.005206,-0.003178,-0.009225,0.596319,-42.376930,-23.363277,,,,,,,
1558972846.529383,-1.118907,1.421878,2.949814,-0.059355,-0.062138,-0.079812,-0.133476,-0.988932,-0.064788,0.001869,0.003916,-0.003633,0.630906,-42.365582,-23.382940,,,,,,,
1558972846.549377,-1.102561,1.422214,2.932241,-0.093373,-0.038677,-0.060397,-0.132102,-0.988982,-0.066810,0.002799,0.005446,-0.013710,0.690723,-42.314529,-23.473516,,,,,,,
1558972846.569363,-1.086064,1.422015,2.915764,-0.053827,0.024581,-0.029867,-0.131157,-0.988952,-0.069072,0.004799,0.016739,-0.022648,0.732749,-42.263439,-23.564106,,,,,,,
1558972846.589319,-1.082697,1.422180,2.913012,0.053669,0.028271,-0.011595,-0.130778,-0.988977,-0.069437,0.002269,0.017007,-0.015646,0.756570,-42.234604,-23.615000,,,,,,,
1558972846.609313,-1.089547,1.422965,2.919824,0.084332,-0.032133,-0.006811,-0.130563,-0.989093,-0.068180,0.001947,0.015521,-0.010693,0.786004,-42.259926,-23.568693,,,,,,,
1558972846.629317,-1.096230,1.422773,2.926159,0.038637,-0.007580,-0.005543,-0.131185,-0.989065,-0.067393,-0.013773,0.008321,-0.008764,0.768985,-42.280762,-23.531866,,,,,,,
1558972846.649287,-1.096100,1.421986,2.926534,-0.003751,0.045475,-0.017878,-0.131869,-0.988948,-0.067766,-0.013898,0.010799,-0.005232,0.733711,-42.276394,-23.540823,,,,,,,
1558972846.669263,-1.088955,1.421415,2.920670,-0.031368,0.066768,-0.012357,-0.131881,-0.988863,-0.068968,-0.001527,0.011309,-0.009310,0.750300,-42.258530,-23.572361,,,,,,,
1558972846.689243,-1.080402,1.421367,2.913206,-0.026137,0.040318,-0.010471,-0.131329,-0.988856,-0.070116,0.007336,0.015498,-0.007399,0.791247,-42.232704,-23.617258,,,,,,,
1558972846.709258,-1.073688,1.421557,2.907302,0.005783,0.042284,0.002383,-0.130689,-0.988885,-0.070906,0.011411,0.017251,-0.006853,0.830261,-42.212475,-23.652058,,,,,,,
1558972846.729242,-1.074634,1.421955,2.909068,0.037649,0.028397,0.017221,-0.130411,-0.988944,-0.070595,0.012109,0.018424,-0.001533,0.868141,-42.214127,-23.647757,,,,,,,
1558972846.749210,-1.078491,1.422331,2.913483,0.016393,0.032718,0.004433,-0.130355,-0.988999,-0.069916,0.003707,0.007233,0.006119,0.885822,-42.225872,-23.626114,,,,,,,
1558972846.769212,-1.078704,1.422385,2.914504,-0.027208,0.045631,0.004522,-0.130322,-0.989007,-0.069863,0.000729,0.008569,0.009301,0.901574,-42.238411,-23.603096,,,,,,,
1558972846.789199,-1.074850,1.421726,2.911372,-0.055979,0.040511,0.014059,-0.130625,-0.988910,-0.070675,-0.000402,0.007357,0.010891,0.911052,-42.228115,-23.621149,,,,,,,
1558972846.809177,-1.068436,1.421094,2.905669,-0.093214,0.036445,-0.008430,-0.130717,-0.988816,-0.071812,-0.001379,0.012253,0.010075,0.916307,-42.213058,-23.647844,,,,,,,
1558972846.829167,-1.055982,1.420235,2.893627,-0.077325,0.021591,0.010657,-0.130552,-0.988687,-0.073853,0.007368,0.014810,-0.005539,0.933804,-42.174038,-23.716677,,,,,,,
1558972846.849154,-1.051446,1.419709,2.889246,-0.002887,0.001125,0.015859,-0.130667,-0.988608,-0.074702,0.006796,0.012061,-0.006780,0.945785,-42.130180,-23.794027,,,,,,,
1558972846.869138,-1.051346,1.419769,2.889200,0.006723,0.003164,-0.000130,-0.130608,-0.988617,-0.074686,0.004188,0.005463,-0.003195,0.941991,-42.130501,-23.793613,,,,,,,
1558972846.889123,-1.050311,1.419810,2.888276,-0.006081,-0.000981,0.010496,-0.130495,-0.988623,-0.074801,0.010042,0.009268,-0.000074,0.946784,-42.130283,-23.793804,,,,,,,
1558972846.909108,-1.052279,1.419820,2.889733,0.015059,-0.043362,0.017580,-0.130634,-0.988625,-0.074539,0.008747,0.008598,0.002502,0.945579,-42.130802,-23.792933,,,,,,,
1558972846.929092,-1.055518,1.419814,2.892378,0.037494,-0.015990,0.023197,-0.130879,-0.988624,-0.074118,0.002827,0.002128,-0.004587,0.925107,-42.135117,-23.786106,,,,,,,
1558972846.949077,-1.060531,1.419700,2.897478,0.014144,0.002093,0.016946,-0.131347,-0.988607,-0.073516,-0.002503,-0.000315,0.003326,0.904017,-42.149265,-23.761831,,,,,,,
1558972846.969037,-1.061339,1.419309,2.898292,-0.015643,0.008595,0.019120,-0.131744,-0.988548,-0.073599,0.001144,-0.001046,0.000143,0.880045,-42.156147,-23.750513,,,,,,,
1558972846.989036,-1.060915,1.418823,2.898384,0.001430,0.024370,0.025690,-0.132133,-0.988474,-0.073889,0.003074,-0.001577,0.000494,0.872735,-42.149582,-23.762444,,,,,,,
1558972847.009007,-1.065517,1.418871,2.903103,0.047127,-0.006550,0.008348,-0.132430,-0.988482,-0.073257,0.000426,-0.002058,0.002395,0.865039,-42.155163,-23.752819,,,,,,,
1558972847.029004,-1.072540,1.419513,2.909762,0.037511,-0.026612,-0.011069,-0.132383,-0.988579,-0.072022,-0.002657,-0.004799,0.006867,0.856211,-42.184330,-23.701294,,,,,,,
1558972847.048985,-1.074887,1.419941,2.911837,-0.001775,0.005310,-0.007592,-0.132181,-0.988643,-0.071510,-0.002082,-0.007466,0.007820,0.852953,-42.198696,-23.675835,,,,,,,
1558972847.068965,-1.071998,1.419697,2.909082,-0.055025,-0.001806,-0.005567,-0.132185,-0.988606,-0.072007,-0.003573,-0.000469,0.010331,0.855813,-42.204765,-23.664904,,,,,,,
1558972847.088971,-1.063880,1.419203,2.900635,-0.059300,-0.012372,-0.017416,-0.132023,-0.988532,-0.073314,-0.004254,-0.001443,-0.004658,0.862678,-42.170853,-23.725033,,,,,,,
1558972847.108958,-1.058614,1.419134,2.895093,-0.020959,-0.007292,-0.019472,-0.131695,-0.988521,-0.074042,-0.002979,0.000270,-0.008294,0.864485,-42.148781,-23.764160,,,,,,,
1558972847.128932,-1.058354,1.419713,2.894749,0.033335,-0.004403,-0.017266,-0.131176,-0.988609,-0.073796,0.004177,0.006629,-0.003399,0.883118,-42.140732,-23.777748,,,,,,,
1558972847.148929,-1.061271,1.420317,2.897731,0.032269,0.005148,0.004177,-0.130869,-0.988699,-0.073121,0.008952,0.014060,-0.001204,0.894739,-42.161377,-23.740685,,,,,,,
1558972847.168913,-1.062683,1.420232,2.899149,-0.011460,-0.008346,0.008286,-0.131046,-0.988687,-0.072977,0.006931,0.014718,0.001154,0.901793,-42.168060,-23.728546,,,,,,,
1558972847.188898,-1.059462,1.419775,2.895755,-0.028482,-0.007206,0.004012,-0.131205,-0.988618,-0.073620,0.000650,0.015580,-0.001437,0.890322,-42.158432,-23.746075,,,,,,,
1558972847.208884,-1.060047,1.419329,2.896029,0.010850,-0.020086,0.011394,-0.131632,-0.988551,-0.073759,-0.003103,0.018260,-0.000734,0.875295,-42.147514,-23.766016,,,,,,,
